     3.02           OBSERVATION DATA    M: Mixed            RINEX VERSION / TYPE
BUPT PLAN 6.0                           20210329 120000 UTC PGM / RUN BY / DATE 
                                                            MARKER NAME         
                                                            MARKER NUMBER       
                                                            MARKER TYPE         
                                                            OBSERVER / AGENCY   
                                                            REC # / TYPE / VERS 
                                                            ANT # / TYPE        
  4076128.1056   519876.3642  4878092.5196                  APPROX POSITION XYZ 
        0.0000        0.0000        0.0000                  ANTENNA: DELTA H/E/N 
D    6 C5D L5D D5D C7D L7D D7D                              SYS / # / OBS TYPES  
    30.000                                                  INTERVAL            
  2019     1    10     9    51   54.0000000     GPS         TIME OF FIRST OBS   
  2019     1    10     9    54   44.0000000     GPS         TIME OF LAST OBS   
                                                            END OF HEADER       
> 2019  1 10  9 51 54.0000000  0 8                     
D3704   1133898.685    18987029.742       49779.150     1133898.533    26740700.858       70106.987
D3903   1238356.762    20736170.232      102878.766     1238356.589    29204132.275      144891.875
D4003    893827.994    14967067.226       88007.691      893827.863    21079119.684      123947.218
D4103    798381.813    13368829.988       35288.551      798381.700    18828215.431       49697.796
D5627    861317.015    14422673.896       69286.996      861316.889    20312414.223       97580.262
D5727    505353.841     8462103.339       22242.042      505353.766    11917744.920       31324.739
D5826   1213699.184    20323281.788      106964.435     1213699.021    28622633.772      150646.148
D5926   1068265.911    17888014.701       82839.686     1068265.764    25192884.732      116667.650
> 2019  1 10  9 51 54.2000000  0 8                     
D3704   1133304.137    18977073.912       49556.892     1133303.982    26726679.460       69795.918
D3903   1237127.957    20715594.479      102707.319     1237127.791    29175153.900      144650.010
D4003    892776.832    14949465.688       87918.495      892776.702    21054330.241      123821.721
D4103    797960.378    13361772.278       34929.797      797960.253    18818275.872       49194.477
D5627    860489.499    14408816.496       69098.192      860489.362    20292898.171       97317.611
D5727    505088.191     8457654.930       21911.293      505088.114    11911479.972       30859.373
D5826   1212421.574    20301888.901      106838.754     1212421.420    28592504.542      150466.469
D5926   1067276.515    17871446.764       82770.502     1067276.359    25169551.203      116573.336
> 2019  1 10  9 51 54.4000000  0 8                     
D3704   1132712.177    18967162.534       49470.453     1132712.036    26712720.277       69671.284
D3903   1235901.213    20695053.015      102798.102     1235901.051    29146223.898      144777.935
D4003    891726.732    14931881.989       87728.314      891726.604    21029565.896      123553.493
D4103    797543.162    13354786.318       34847.616      797543.040    18808436.977       49079.642
D5627    859664.126    14394996.858       69004.075      859664.006    20273434.648       97182.056
D5727    504826.476     8453272.671       21640.295      504826.401    11905308.098       30476.784
D5826   1211145.557    20280521.150      106824.233     1211145.388    28562411.248      150447.461
D5926   1066287.837    17854892.664       82638.310     1066287.700    25146236.535      116384.539
> 2019  1 10  9 51 54.6000000  0 8                     
D3704   1132121.349    18957268.443       49246.625     1132121.197    26698786.020       69358.167
D3903   1234673.382    20674493.394      102619.588     1234673.225    29117268.312      144526.189
D4003    890678.916    14914336.326       87746.074      890678.787    21004855.198      123577.241
D4103    797126.896    13347816.795       34604.246      797126.786    18798621.048       48734.714
D5627    858839.980    14381196.043       68872.343      858839.852    20253998.237       96998.324
D5727    504568.029     8448944.613       21236.528      504567.948    11899212.741       29909.063
D5826   1209869.664    20259156.303      106833.244     1209869.493    28532321.756      150462.455
D5926   1065300.828    17838365.001       82533.414     1065300.687    25122959.628      116236.527
> 2019  1 10  9 51 54.8000000  0 8                     
D3704   1131533.121    18947419.118       49272.757     1131532.977    26684914.386       69393.575
D3903   1233447.695    20653969.477      102691.337     1233447.539    29088363.074      144626.128
D4003    889630.931    14896787.111       87620.048      889630.791    20980139.750      123402.119
D4103    796713.611    13340895.946       34504.223      796713.495    18788874.105       48594.643
D5627    858017.346    14367421.575       68714.800      858017.225    20234598.572       96774.795
D5727    504314.373     8444697.307       21042.686      504314.295    11893230.928       29635.997
D5826   1208593.584    20237789.654      106760.792     1208593.432    28502229.265      150358.943
D5926   1064315.082    17821858.319       82430.289     1064314.934    25099712.322      116090.734
> 2019  1 10  9 51 55.0000000  0 8                     
D3704   1130944.629    18937564.567       49067.327     1130944.480    26671035.671       69104.326
D3903   1232221.189    20633431.209      102650.001     1232221.025    29059437.848      144568.242
D4003    888584.371    14879263.101       87529.297      888584.238    20955459.326      123275.515
D4103    796301.493    13333995.101       34368.211      796301.378    18779155.177       48402.672
D5627    857196.650    14353678.615       68594.003      857196.522    20215243.613       96605.748
D5727    504063.035     8440488.770       20680.897      504062.958    11887303.729       29126.752
D5826   1207318.420    20216437.496      106744.428     1207318.273    28472157.476      150334.273
D5926   1063330.587    17805372.261       82401.204     1063330.427    25076494.176      116054.249
> 2019  1 10  9 51 55.2000000  0 8                     
D3704   1130358.588    18927751.101       48981.896     1130358.436    26657214.806       68984.850
D3903   1230995.165    20612901.209      102597.281     1230994.997    29030524.200      144494.008
D4003    887538.853    14861757.242       87528.359      887538.739    20930804.223      123269.991
D4103    795891.015    13327121.459       34123.240      795890.896    18769474.642       48057.172
D5627    856377.360    14339959.814       68530.057      856377.234    20195922.464       96515.373
D5727    503816.008     8436352.590       20451.680      503815.935    11881478.379       28802.561
D5826   1206043.508    20195088.610      106728.625     1206043.352    28442090.622      150314.501
D5926   1062346.285    17788892.020       82303.307     1062346.152    25053283.326      115910.262
> 2019  1 10  9 51 55.4000000  0 8                     
D3704   1129773.539    18917954.722       48898.639     1129773.390    26643417.836       68867.344
D3903   1229769.771    20592381.753      102656.158     1229769.598    29001625.398      144578.414
D4003    886493.490    14844251.570       87422.988      886493.359    20906150.224      123123.593
D4103    795483.479    13320296.811       34026.288      795483.353    18759863.208       47922.004
D5627    855558.844    14326253.803       68356.743      855558.718    20176619.389       96271.645
D5727    503571.765     8432262.254       20087.475      503571.685    11875717.866       28290.537
D5826   1204768.699    20173742.885      106636.087     1204768.555    28412027.721      150179.595
D5926   1061363.362    17772431.359       82268.419     1061363.204    25030101.273      115865.417
> 2019  1 10  9 51 55.6000000  0 8                     
D3704   1129189.493    18908174.994       48756.178     1129189.345    26629644.368       68667.277
D3903   1228543.622    20571850.521      102580.627     1228543.457    28972709.715      144471.454
D4003    885449.317    14826766.973       87446.530      885449.186    20881525.506      123156.374
D4103    795077.053    13313491.554       33857.905      795076.932    18750278.807       47686.287
D5627    854742.386    14312582.454       68152.537      854742.263    20157365.060       95984.191
D5727    503331.842     8428244.759       19736.885      503331.761    11870059.759       27796.971
D5826   1203495.152    20152415.668      106726.624     1203494.982    28381991.802      150309.306
D5926   1060380.709    17755977.675       82097.799     1060380.562    25006928.190      115623.073
> 2019  1 10  9 51 55.8000000  0 8                     
D3704   1128607.129    18898423.759       48612.670     1128606.987    26615910.912       68463.480
D3903   1227318.396    20551334.396      102523.820     1227318.233    28943815.424      144390.094
D4003    884404.876    14809277.667       87250.161      884404.742    20856894.231      122882.220
D4103    794672.591    13306719.973       33585.800      794672.486    18740741.550       47300.066
D5627    853928.363    14298951.947       68182.843      853928.243    20138168.222       96026.283
D5727    503096.099     8424297.382       19523.055      503096.020    11864500.365       27495.729
D5826   1202220.448    20131070.343      106649.642     1202220.271    28351929.941      150203.229
D5926   1059400.164    17739558.115       82075.748     1059400.011    24983803.576      115593.126
> 2019  1 10  9 51 56.0000000  0 8                     
D3704   1128026.536    18888701.225       48525.846     1128026.386    26602218.216       68341.781
D3903   1226093.894    20530829.632      102569.237     1226093.723    28914937.406      144455.732
D4003    883362.698    14791827.635       87255.344      883362.581    20832317.787      122885.691
D4103    794271.480    13300002.813       33547.398      794271.367    18731281.537       47245.619
D5627    853113.997    14285315.378       67963.615      853113.876    20118962.965       95717.834
D5727    502862.913     8420392.771       19148.046      502862.835    11859001.219       26967.748
D5826   1200946.583    20109740.415      106562.625     1200946.418    28321889.295      150080.529
D5926   1058419.844    17723142.965       81965.252     1058419.695    24960684.950      115437.839
> 2019  1 10  9 51 56.2000000  0 8                     
D3704   1127446.961    18878996.056       48373.728     1127446.807    26588549.860       68129.217
D3903   1224868.793    20510315.785      102526.624     1224868.627    28886046.259      144397.081
D4003    882320.589    14774376.566       87197.886      882320.456    20807740.649      122807.270
D4103    793870.841    13293293.333       33301.339      793870.716    18721832.413       46901.701
D5627    852302.240    14271722.655       67894.272      852302.120    20099819.398       95619.823
D5727    502634.201     8416563.162       18830.852      502634.125    11853607.669       26521.083
D5826   1199673.763    20088427.890      106620.939     1199673.609    28291873.189      150161.866
D5926   1057440.833    17706749.915       81851.504     1057440.690    24937597.383      115277.061
> 2019  1 10  9 51 56.4000000  0 8                     
D3704   1126869.145    18869321.310       48406.153     1126869.002    26574924.016       68172.360
D3903   1223644.154    20489810.460      102483.648     1223644.005    28857166.843      144333.644
D4003    881279.081    14756936.989       87065.187      881278.954    20783179.195      122619.765
D4103    793473.051    13286633.065       33166.948      793472.936    18712452.073       46710.379
D5627    851491.323    14258143.801       67787.293      851491.201    20080695.434       95469.004
D5727    502409.275     8412796.992       18573.362      502409.202    11848303.453       26156.710
D5826   1198400.274    20067103.702      106608.056     1198400.124    28261840.816      150141.794
D5926   1056463.200    17690379.614       81757.145     1056463.058    24914541.970      115143.644
> 2019  1 10  9 51 56.6000000  0 8                     
D3704   1126291.028    18859640.079       48138.354     1126290.875    26561289.545       67795.478
D3903   1222420.128    20469313.730      102511.218     1222419.971    28828300.114      144372.071
D4003    880239.179    14739523.951       87039.730      880239.052    20758655.242      122584.619
D4103    793076.936    13279999.676       33007.948      793076.814    18703109.997       46487.562
D5627    850681.689    14244586.342       67567.025      850681.564    20061601.633       95159.301
D5727    502187.484     8409082.319       18287.284      502187.399    11843072.111       25756.070
D5826   1197127.004    20045782.091      106529.444     1197126.842    28231812.457      150031.180
D5926   1055486.712    17674028.185       81706.492     1055486.567    24891513.242      115072.997
> 2019  1 10  9 51 56.8000000  0 8                     
D3704   1125716.100    18850012.409       48076.910     1125715.939    26547730.449       67712.058
D3903   1221195.786    20448811.487      102472.891     1221195.619    28799425.700      144318.300
D4003    879199.556    14722116.005       86980.100      879199.436    20734138.318      122498.235
D4103    792682.683    13273398.086       32791.771      792682.563    18693812.484       46182.607
D5627    849874.668    14231072.937       67472.735      849874.544    20042569.773       95025.861
D5727    501969.032     8405424.863       17887.228      501968.955    11837920.897       25192.447
D5826   1195854.670    20024476.202      106539.437     1195854.497    28201806.221      150046.132
D5926   1054510.806    17657686.886       81644.336     1054510.663    24868498.642      114984.478
> 2019  1 10  9 51 57.0000000  0 8                     
D3704   1125141.800    18840397.027       47992.534     1125141.657    26534188.037       67590.679
D3903   1219971.895    20428316.908      102420.646     1219971.719    28770562.040      144247.909
D4003    878160.728    14704719.985       86871.599      878160.595    20709638.671      122347.300
D4103    792291.028    13266839.732       32618.056      792290.906    18684575.963       45938.636
D5627    849068.795    14217578.390       67382.319      849068.668    20023564.601       94899.332
D5727    501755.365     8401847.417       17626.474      501755.294    11832882.407       24823.625
D5826   1194582.187    20003168.315      106464.321     1194582.010    28171796.995      149942.332
D5926   1053535.675    17641358.019       81599.304     1053535.527    24845501.747      114921.524
> 2019  1 10  9 51 57.2000000  0 8                     
D3704   1124568.595    18830798.520       47808.222     1124568.448    26520669.902       67330.758
D3903   1218748.519    20407832.779      102452.402     1218748.360    28741712.458      144291.353
D4003    877123.132    14687345.665       86867.204      877123.001    20685169.211      122342.427
D4103    791901.425    13260316.121       32524.451      791901.307    18675388.236       45806.844
D5627    848263.975    14204101.926       67269.239      848263.850    20004584.734       94740.355
D5727    501544.867     8398322.122       17341.058      501544.788    11827917.682       24422.562
D5826   1193310.532    19981875.451      106550.135     1193310.368    28141808.528      150061.676
D5926   1052561.066    17625038.159       81432.384     1052560.916    24822517.442      114686.678
> 2019  1 10  9 51 57.4000000  0 8                     
D3704   1123997.602    18821236.875       47775.528     1123997.449    26507203.750       67285.698
D3903   1217524.807    20387342.299      102365.174     1217524.656    28712854.188      144166.476
D4003    876085.544    14669972.224       86704.232      876085.425    20660700.725      122109.945
D4103    791512.938    13253811.230       32272.152      791512.825    18666226.867       45450.854
D5627    847460.495    14190648.078       67061.500      847460.376    19985636.663       94447.354
D5727    501337.747     8394853.910       16994.487      501337.668    11823033.170       23934.169
D5826   1192037.904    19960565.424      106369.125     1192037.741    28111796.193      149808.334
D5926   1051588.443    17608751.682       81332.123     1051588.293    24799580.106      114545.817
> 2019  1 10  9 51 57.6000000  0 8                     
D3704   1123426.967    18811681.770       47573.168     1123426.816    26493746.610       66999.140
D3903   1216302.207    20366869.264      102359.618     1216302.045    28684020.893      144161.187
D4003    875050.003    14652631.378       86716.384      875049.872    20636278.737      122128.701
D4103    791127.488    13247356.800       32090.015      791127.373    18657136.696       45192.781
D5627    846659.512    14177235.778       67026.548      846659.394    19966747.192       94397.598
D5727    501134.776     8391455.013       16692.100      501134.695    11818246.336       23508.324
D5826   1190767.384    19939291.599      106412.476     1190767.235    28081834.526      149868.456
D5926   1050617.005    17592485.257       81307.990     1050616.859    24776670.943      114510.947
> 2019  1 10  9 51 57.8000000  0 8                     
D3704   1122858.802    18802167.136       47495.046     1122858.640    26480346.782       66892.324
D3903   1215079.586    20346397.340      102443.943     1215079.436    28655188.655      144277.265
D4003    874014.260    14635288.101       86619.396      874014.132    20611852.996      121992.024
D4103    790744.266    13240938.797       32007.456      790744.136    18648098.140       45079.011
D5627    845858.964    14163830.469       66852.155      845858.843    19947867.673       94152.358
D5727    500935.417     8388116.593       16414.637      500935.333    11813544.671       23119.066
D5826   1189496.379    19918009.103      106407.795     1189496.235    28051860.835      149859.559
D5926   1049645.886    17576223.659       81182.516     1049645.735    24753768.753      114335.316
> 2019  1 10  9 51 58.0000000  0 8                     
D3704   1122291.460    18792668.127       47395.456     1122291.314    26466968.318       66750.689
D3903   1213856.050    20325908.552      102311.210     1213855.888    28626333.202      144091.884
D4003    872979.679    14617964.222       86583.144      872979.553    20587454.592      121942.263
D4103    790361.945    13234537.306       31823.138      790361.822    18639082.338       44818.911
D5627    845060.486    14150460.038       66702.584      845060.365    19929037.201       93941.101
D5727    500739.319     8384833.666       16095.526      500739.246    11808920.858       22667.294
D5826   1188225.508    19896727.544      106409.022     1188225.350    28021888.923      149863.054
D5926   1048676.229    17559987.156       81081.420     1048676.083    24730901.690      114195.010
> 2019  1 10  9 51 58.2000000  0 8                     
D3704   1121725.355    18783189.036       47269.899     1121725.213    26453618.180       66572.871
D3903   1212634.046    20305446.310      102307.674     1212633.886    28597514.826      144088.420
D4003    871945.487    14600647.593       86511.594      871945.373    20563066.139      121837.806
D4103    789981.843    13228172.678       31591.901      789981.722    18630118.556       44494.647
D5627    844263.816    14137119.521       66549.996      844263.690    19910248.981       93727.016
D5727    500547.113     8381614.561       15745.056      500547.030    11804387.399       22175.373
D5826   1186954.561    19875445.740      106281.999     1186954.405    27991916.313      149684.397
D5926   1047707.708    17543770.872       81034.304     1047707.584    24708062.688      114122.362
> 2019  1 10  9 51 58.4000000  0 8                     
D3704   1121160.783    18773735.056       47260.153     1121160.637    26440303.605       66558.887
D3903   1211412.033    20284984.775      102286.001     1211411.887    28568697.141      144052.871
D4003    870912.275    14583345.275       86366.847      870912.142    20538698.578      121636.876
D4103    789604.454    13221854.298       31492.295      789604.348    18621219.627       44351.258
D5627    843468.940    14123809.522       66505.672      843468.816    19891503.578       93665.032
D5727    500359.036     8378465.549       15434.227      500358.958    11799952.324       21736.646
D5826   1185685.124    19854189.340      106395.878     1185684.971    27961979.433      149843.369
D5926   1046739.965    17527564.011       80906.448     1046739.811    24685238.216      113946.630
> 2019  1 10  9 51 58.6000000  0 8                     
D3704   1120596.336    18764283.025       47041.194     1120596.184    26426991.828       66251.213
D3903   1210190.450    20264527.575      102311.945     1210190.276    28539886.567      144090.978
D4003    869880.693    14566071.905       86327.396      869880.565    20514371.203      121580.806
D4103    789228.362    13215555.839       31220.680      789228.243    18612349.375       43970.643
D5627    842674.578    14110508.387       66323.573      842674.460    19872770.571       93405.538
D5727    500174.705     8375378.704       15158.719      500174.623    11795604.995       21348.714
D5826   1184414.375    19832910.165      106243.533     1184414.213    27932010.759      149629.755
D5926   1045773.601    17511382.722       80877.922     1045773.452    24662448.890      113906.269
> 2019  1 10  9 51 58.8000000  0 8                     
D3704   1120034.481    18754874.787       46878.864     1120034.329    26413741.585       66022.842
D3903   1208968.503    20244065.186      102244.274     1208968.314    28511068.372      144001.282
D4003    868849.598    14548806.426       86298.011      868849.473    20490055.041      121540.180
D4103    788855.448    13209311.703       31161.691      788855.333    18603555.246       43886.425
D5627    841882.495    14097243.673       66198.439      841882.357    19854089.464       93234.463
D5727    499993.661     8372346.960       14806.136      499993.577    11791335.252       20853.777
D5826   1183145.413    19811661.458      106291.586     1183145.251    27902084.808      149697.165
D5926   1044807.584    17495207.137       80748.905     1044807.440    24639667.636      113722.294
> 2019  1 10  9 51 59.0000000  0 8                     
D3704   1119474.556    18745499.014       46844.003     1119474.405    26400537.017       65973.587
D3903   1207747.173    20223616.331      102187.244     1207747.017    28482268.115      143916.622
D4003    867818.829    14531546.824       86178.386      867818.711    20465747.005      121369.517
D4103    788483.278    13203079.365       30958.999      788483.157    18594777.961       43602.547
D5627    841091.731    14084003.985       66136.958      841091.616    19835442.571       93143.632
D5727    499816.773     8369385.733       14537.671      499816.700    11787164.497       20474.212
D5826   1181875.887    19790403.141      106229.058     1181875.721    27872145.375      149608.989
D5926   1043843.185    17479057.356       80664.695     1043843.026    24616923.177      113606.937
> 2019  1 10  9 51 59.2000000  0 8                     
D3704   1118915.053    18736130.213       46676.249     1118914.903    26387342.300       65738.054
D3903   1206526.673    20203178.882      102203.048     1206526.513    28453484.791      143939.664
D4003    866789.563    14514311.147       86056.099      866789.435    20441473.102      121200.041
D4103    788113.474    13196887.565       30745.889      788113.362    18586057.452       43300.676
D5627    840301.845    14070776.593       65915.752      840301.719    19816813.845       92833.491
D5727    499643.141     8366478.199       14219.573      499643.067    11783069.654       20026.029
D5826   1180607.111    19769157.329      106274.719     1180606.942    27842223.578      149673.069
D5926   1042879.682    17462924.417       80529.070     1042879.535    24594201.790      113414.607
> 2019  1 10  9 51 59.4000000  0 8                     
D3704   1118357.528    18726794.963       46605.589     1118357.385    26374194.689       65637.909
D3903   1205305.957    20182738.273      102195.714     1205305.800    28424696.858      143928.460
D4003    865761.664    14497099.927       86127.073      865761.549    20417233.094      121297.098
D4103    787746.275    13190738.387       30578.661      787746.156    18577397.317       43066.149
D5627    839514.554    14057593.443       65784.168      839514.427    19798247.147       92648.180
D5727    499473.315     8363634.284       13938.606      499473.238    11779064.449       19630.725
D5826   1179337.797    19747902.385      106197.419     1179337.622    27812288.964      149566.563
D5926   1041917.843    17446818.603       80611.966     1041917.698    24571518.868      113530.467
> 2019  1 10  9 51 59.6000000  0 8                     
D3704   1117800.869    18717473.846       46463.648     1117800.727    26361067.107       65436.776
D3903   1204085.359    20162299.130      102173.835     1204085.196    28395911.166      143897.915
D4003    864733.017    14479874.512       85945.073      864732.890    20392973.674      121042.247
D4103    787381.040    13184622.655       30461.891      787380.922    18568784.087       42901.036
D5627    838728.835    14044436.609       65706.626      838728.707    19779717.511       92539.966
D5727    499306.832     8360846.563       13519.596      499306.755    11775138.304       19040.916
D5826   1178069.326    19726662.902      106164.315     1178069.165    27782375.651      149517.052
D5926   1040955.045    17430696.210       80378.811     1040954.894    24548812.775      113204.110
> 2019  1 10  9 51 59.8000000  0 8                     
D3704   1117245.948    18708181.116       46327.028     1117245.797    26347979.752       65244.519
D3903   1202865.012    20141864.363      102180.359     1202864.848    28367131.583      143906.998
D4003    863706.493    14462685.498       85930.070      863706.366    20368765.225      121021.552
D4103    787017.221    13178530.277       30240.048      787017.099    18560203.880       42589.491
D5627    837944.007    14031295.284       65548.919      837943.888    19761209.517       92316.459
D5727    499145.342     8358142.644       13291.364      499145.269    11771330.120       18718.469
D5826   1176801.350    19705430.039      106107.044     1176801.178    27752472.241      149438.016
D5926   1039994.963    17414620.448       80274.565     1039994.823    24526171.953      113055.808
> 2019  1 10  9 52  0.0000000  0 8                     
D3704   1116692.653    18698915.710       46237.353     1116692.494    26334930.848       65120.539
D3903   1201644.592    20121428.291      102073.649     1201644.424    28338350.183      143756.944
D4003    862680.133    14445499.484       85821.093      862680.011    20344560.914      120867.078
D4103    786656.022    13172482.267       30051.468      786655.904    18551685.981       42323.202
D5627    837161.111    14018185.500       65380.095      837160.988    19742746.226       92078.868
D5727    498986.613     8355484.371       12921.893      498986.534    11767586.427       18198.753
D5826   1175534.001    19684208.630      106114.194     1175533.834    27722584.638      149449.708
D5926   1039036.177    17398565.535       80231.054     1039036.035    24503560.791      112995.237
> 2019  1 10  9 52  0.2000000  0 8                     
D3704   1116140.349    18689668.240       46083.087     1116140.203    26321906.740       64901.153
D3903   1200425.438    20101013.561      102099.493     1200425.268    28309598.795      143795.551
D4003    861655.109    14428335.265       85769.745      861654.983    20320387.499      120796.497
D4103    786297.099    13166471.973       29910.745      786296.979    18543221.341       42125.073
D5627    836380.226    14005109.481       65278.112      836380.100    19724330.452       91934.738
D5727    498832.275     8352899.992       12658.805      498832.196    11763946.676       17828.505
D5826   1174266.512    19662985.791      106085.494     1174266.362    27692694.696      149405.653
D5926   1038077.886    17382519.324       80142.828     1038077.748    24480961.744      112869.760
> 2019  1 10  9 52  0.4000000  0 8                     
D3704   1115589.961    18680451.622       45985.275     1115589.808    26308926.510       64766.095
D3903   1199205.899    20080593.663      102037.620     1199205.747    28280839.684      143704.688
D4003    860630.638    14411181.316       85706.938      860630.523    20296228.199      120705.584
D4103    785939.855    13160489.824       29759.245      785939.733    18534796.327       41913.406
D5627    835600.575    13992053.859       65184.027      835600.444    19705943.504       91804.390
D5727    498681.070     8350368.231       12290.266      498680.994    11760380.975       17309.071
D5826   1172999.490    19641768.692      106044.223     1172999.326    27662813.565      149350.007
D5926   1037120.691    17366490.758       80046.701     1037120.547    24458387.792      112734.693
> 2019  1 10  9 52  0.6000000  0 8                     
D3704   1115040.649    18671254.567       45922.802     1115040.513    26295973.291       64676.128
D3903   1197987.227    20060186.139      102068.715     1197987.061    28252098.747      143749.487
D4003    859607.002    14394039.929       85622.237      859606.877    20272087.083      120588.079
D4103    785584.362    13154537.976       29560.022      785584.252    18526413.645       41629.876
D5627    834821.975    13979017.054       65004.948      834821.855    19687582.627       91549.973
D5727    498534.281     8347910.178       12033.465      498534.203    11756919.161       16947.301
D5826   1171732.876    19620559.848      106063.860     1171732.720    27632943.564      149375.687
D5926   1036164.633    17350481.418       79919.739     1036164.486    24435840.853      112557.613
> 2019  1 10  9 52  0.8000000  0 8                     
D3704   1114492.151    18662070.007       45721.847     1114492.015    26283038.065       64390.769
D3903   1196768.150    20039772.396      102077.494     1196767.977    28223348.849      143764.781
D4003    858584.317    14376915.481       85528.653      858584.196    20247969.467      120455.623
D4103    785231.350    13148625.971       29318.220      785231.228    18518087.670       41290.876
D5627    834045.589    13966016.064       64877.196      834045.462    19669272.632       91372.059
D5727    498390.562     8345503.485       11715.181      498390.482    11753529.701       16499.180
D5826   1170466.096    19599347.076      105959.509     1170465.929    27603068.427      149230.345
D5926   1035210.032    17334497.470       79851.922     1035209.896    24413329.331      112459.823
> 2019  1 10  9 52  1.0000000  0 8                     
D3704   1113946.133    18652925.637       45648.597     1113945.977    26270159.911       64291.055
D3903   1195548.867    20019356.897      101980.364     1195548.714    28194595.893      143625.194
D4003    857562.772    14359809.751       85468.107      857562.651    20223878.342      120370.945
D4103    784881.173    13142762.327       29203.349      784881.051    18509829.495       41130.054
D5627    833270.660    13953040.625       64787.982      833270.543    19650998.220       91243.927
D5727    498250.640     8343160.449       11389.020      498250.559    11750229.865       16040.982
D5826   1169200.506    19578155.174      105975.443     1169200.344    27573222.358      149253.435
D5926   1034256.320    17318527.086       79808.787     1034256.176    24390837.366      112400.578
> 2019  1 10  9 52  1.2000000  0 8                     
D3704   1113400.873    18643795.918       45548.721     1113400.726    26257301.700       64147.350
D3903   1194330.840    19998960.824      102027.342     1194330.682    28165870.855      143692.365
D4003    856541.929    14342716.129       85386.546      856541.813    20199804.153      120254.805
D4103    784532.335    13136921.657       29043.444      784532.222    18501603.484       40903.095
D5627    832496.882    13940083.028       64670.167      832496.754    19632749.435       91078.081
D5727    498114.574     8340882.645       11101.415      498114.502    11747021.668       15634.033
D5826   1167934.703    19556960.085      106043.076     1167934.551    27543371.671      149346.979
D5926   1033303.071    17302565.328       79748.062     1033302.931    24368357.250      112313.912
> 2019  1 10  9 52  1.4000000  0 8                     
D3704   1112856.909    18634686.174       45422.142     1112856.745    26244472.230       63972.653
D3903   1193112.217    19978555.356      101958.416     1193112.063    28137132.381      143593.181
D4003    855522.105    14325638.820       85310.940      855521.982    20175753.192      120149.712
D4103    784185.467    13131112.969       28890.125      784185.348    18493422.865       40688.576
D5627    831724.508    13927148.995       64427.450      831724.370    19614533.818       90738.516
D5727    497982.008     8338662.362       10722.925      497981.929    11743894.862       15102.321
D5826   1166668.152    19535751.470      105927.454     1166667.995    27513502.275      149183.141
D5926   1032350.586    17286615.716       79544.076     1032350.442    24345894.468      112027.362
> 2019  1 10  9 52  1.6000000  0 8                     
D3704   1112314.334    18625601.745       45282.108     1112314.185    26231677.700       63774.007
D3903   1191894.490    19958163.672      101905.364     1191894.322    28108413.745      143520.913
D4003    854503.136    14308576.632       85260.044      854503.018    20151723.250      120075.725
D4103    783840.382    13125334.944       28714.996      783840.269    18485285.150       40440.023
D5627    830954.956    13914263.505       64342.849      830954.826    19596386.115       90619.137
D5727    497853.916     8336517.777       10388.165      497853.842    11740874.398       14630.877
D5826   1165403.015    19514565.979      105910.838     1165402.845    27483665.646      149160.965
D5926   1031400.513    17270706.901       79507.360     1031400.370    24323488.996      111976.351
> 2019  1 10  9 52  1.8000000  0 8                     
D3704   1111773.482    18616545.324       45165.175     1111773.334    26218922.898       63608.930
D3903   1190677.312    19937782.600      101951.294     1190677.151    28079709.563      143584.233
D4003    853484.853    14291524.623       85201.243      853484.722    20127708.105      119995.940
D4103    783497.454    13119591.944       28455.036      783497.330    18477197.145       40075.441
D5627    830186.422    13901394.935       64229.617      830186.299    19578262.288       90459.089
D5727    497729.823     8334440.144       10131.674      497729.753    11737948.222       14268.094
D5826   1164138.035    19493383.811      105851.017     1164137.863    27453833.453      149077.813
D5926   1030450.854    17254805.429       79345.398     1030450.718    24301093.725      111746.041
> 2019  1 10  9 52  2.0000000  0 8                     
D3704   1111234.039    18607512.289       45055.187     1111233.889    26206201.112       63453.382
D3903   1189459.633    19917392.341      101869.031     1189459.467    28050992.716      143469.984
D4003    852467.170    14274484.374       85103.936      852467.049    20103708.917      119855.307
D4103    783157.578    13113900.937       28411.251      783157.457    18469182.057       40014.961
D5627    829419.260    13888549.012       64064.661      829419.139    19560170.470       90225.916
D5727    497608.845     8332413.809        9807.603      497608.767    11735094.603       13812.980
D5826   1162873.732    19472213.608      105812.574     1162873.566    27424017.891      149023.769
D5926   1029503.206    17238936.349       79322.880     1029503.058    24278744.517      111716.407
> 2019  1 10  9 52  2.2000000  0 8                     
D3704   1110695.932    18598501.251       44958.552     1110695.775    26193510.436       63319.496
D3903   1188242.881    19897018.535      101900.848     1188242.724    28022298.719      143514.092
D4003    851450.771    14257463.587       84978.846      851450.632    20079737.855      119683.171
D4103    782818.185    13108218.687       28119.330      782818.077    18461179.065       39601.322
D5627    828654.097    13875736.079       63978.169      828653.972    19542125.287       90105.786
D5727    497491.695     8330452.289        9492.357      497491.619    11732332.007       13368.441
D5826   1161609.884    19451051.093      105839.207     1161609.726    27394213.137      149060.648
D5926   1028555.755    17223071.774       79230.955     1028555.613    24256401.236      111586.141
> 2019  1 10  9 52  2.4000000  0 8                     
D3704   1110158.903    18589509.541       44765.507     1110158.758    26180846.537       63045.761
D3903   1187025.773    19876638.365      101816.996     1187025.620    27993595.901      143395.687
D4003    850435.728    14240467.818       84934.890      850435.605    20055801.221      119620.587
D4103    782482.364    13102594.821       27958.006      782482.247    18453258.801       39375.063
D5627    827889.910    13862940.446       63774.735      827889.794    19524104.129       89817.096
D5727    497378.328     8328553.817        9158.746      497378.250    11729658.319       12899.242
D5826   1160345.740    19429883.252      105778.754     1160345.585    27364401.008      148977.368
D5926   1027609.429    17207225.582       79181.352     1027609.287    24234084.007      111516.729
> 2019  1 10  9 52  2.6000000  0 8                     
D3704   1109624.244    18580556.440       44726.892     1109624.095    26168237.385       62993.565
D3903   1185809.678    19856274.966      101856.770     1185809.524    27964916.764      143450.634
D4003    849421.234    14223480.840       84863.750      849421.120    20031877.104      119518.485
D4103    782148.438    13097003.220       27823.920      782148.321    18445383.788       39186.487
D5627    827128.227    13850185.499       63674.878      827128.102    19506140.710       89677.212
D5727    497268.924     8326722.068        8849.777      497268.849    11727078.471       12463.110
D5826   1159082.255    19408727.501      105694.417     1159082.117    27334605.534      148854.064
D5926   1026663.681    17191389.312       79023.386     1026663.542    24211780.662      111294.898
> 2019  1 10  9 52  2.8000000  0 8                     
D3704   1109089.971    18571611.061       44589.699     1109089.836    26155638.672       62797.467
D3903   1184593.144    19835903.612      101781.116     1184592.982    27936226.637      143345.058
D4003    848407.655    14206508.090       84734.818      848407.534    20007973.407      119338.257
D4103    781816.104    13091438.436       27600.805      781815.989    18437546.491       38871.315
D5627    826367.712    13837450.523       63503.062      826367.583    19488205.268       89436.210
D5727    497163.244     8324952.113        8572.840      497163.164    11724585.849       12075.178
D5826   1157819.932    19387588.618      105832.250     1157819.773    27304834.721      149050.394
D5926   1025719.797    17175584.635       78937.499     1025719.667    24189521.682      111171.606
> 2019  1 10  9 52  3.0000000  0 8                     
D3704   1108557.435    18562693.122       44457.912     1108557.291    26143079.178       62611.469
D3903   1183377.480    19815547.389      101774.398     1183377.317    27907557.625      143335.887
D4003    847395.569    14189561.127       84781.346      847395.453    19984105.755      119401.658
D4103    781486.467    13085918.275       27474.074      781486.346    18429772.228       38694.347
D5627    825609.215    13824749.911       63442.784      825609.091    19470318.026       89351.578
D5727    497060.800     8323237.544        8224.414      497060.732    11722170.813       11582.445
D5826   1156555.887    19366422.168      105642.719     1156555.726    27275024.642      148786.258
D5926   1024777.019    17159797.135       78850.794     1024776.877    24167287.361      111050.721
> 2019  1 10  9 52  3.2000000  0 8                     
D3704   1108026.487    18553801.539       44383.764     1108026.329    26130556.885       62510.188
D3903   1182161.886    19795192.509      101780.296     1182161.726    27878890.448      143344.441
D4003    846383.000    14172604.857       84656.306      846382.871    19960225.424      119228.170
D4103    781158.292    13080423.460       27285.687      781158.177    18422033.358       38427.970
D5627    824851.429    13812061.354       63221.818      824851.313    19452447.710       89037.910
D5727    496962.587     8321592.662        7893.256      496962.515    11719854.324       11115.612
D5826   1155294.010    19345293.624      105680.781     1155293.871    27245267.391      148835.285
D5926   1023835.235    17144026.976       78771.246     1023835.092    24145077.217      110938.944
> 2019  1 10  9 52  3.4000000  0 8                     
D3704   1107496.316    18544924.786       44189.184     1107496.172    26118054.847       62234.183
D3903   1180946.214    19774836.450      101714.487     1180946.058    27850221.560      143251.365
D4003    845371.835    14155673.596       84539.744      845371.715    19936379.790      119063.610
D4103    780832.403    13074966.323       27127.851      780832.286    18414347.764       38206.355
D5627    824096.366    13799416.990       63160.952      824096.237    19434640.128       88954.425
D5727    496868.344     8320014.010        7570.085      496868.264    11717631.202       10661.947
D5826   1154031.835    19324157.468      105711.877     1154031.679    27215500.334      148880.088
D5926   1022894.392    17128272.727       78667.406     1022894.250    24122889.428      110792.425
> 2019  1 10  9 52  3.6000000  0 8                     
D3704   1106968.537    18536086.949       44066.826     1106968.390    26105608.010       62063.028
D3903   1179731.341    19754493.553      101754.400     1179731.185    27821571.287      143306.181
D4003    844362.077    14138765.647       84516.935      844361.962    19912567.068      119029.133
D4103    780508.377    13069540.752       26877.490      780508.263    18406706.494       37853.070
D5627    823341.955    13786784.800       62878.205      823341.831    19416849.243       88554.943
D5727    496777.911     8318499.993        7274.379      496777.834    11715498.812       10245.189
D5826   1152769.254    19303015.092      105581.147     1152769.090    27185724.316      148697.079
D5926   1021954.798    17112539.246       78586.574     1021954.656    24100730.943      110677.278
> 2019  1 10  9 52  3.8000000  0 8                     
D3704   1106442.180    18527273.584       43983.851     1106442.039    26093195.405       61945.087
D3903   1178516.039    19734142.673      101741.510     1178515.872    27792910.050      143289.799
D4003    843352.671    14121862.260       84397.527      843352.542    19888761.241      118863.602
D4103    780187.364    13064165.254       26769.936      780187.248    18399135.879       37700.886
D5627    822590.963    13774209.159       62896.536      822590.834    19399138.255       88583.739
D5727    496691.020     8317045.117        6911.532      496690.945    11713449.775        9734.257
D5826   1151508.196    19281898.863      105580.466     1151508.034    27155984.901      148694.784
D5926   1021016.215    17096821.931       78417.883     1021016.061    24078595.487      110442.989
> 2019  1 10  9 52  4.0000000  0 8                     
D3704   1105916.850    18518476.814       43880.767     1105916.707    26080806.387       61798.824
D3903   1177300.831    19713794.370      101597.989     1177300.668    27764252.091      143089.234
D4003    842344.601    14104982.755       84284.188      842344.480    19864988.521      118704.191
D4103    779867.660    13058811.267       26623.586      779867.535    18391595.702       37496.671
D5627    821839.651    13761629.852       62716.325      821839.542    19381421.507       88326.997
D5727    496608.459     8315662.811        6673.886      496608.387    11711502.923        9398.833
D5826   1150247.193    19260782.770      105607.583     1150247.020    27126245.944      148734.975
D5926   1020079.534    17081138.355       78433.577     1020079.395    24056506.890      110461.453
> 2019  1 10  9 52  4.2000000  0 8                     
D3704   1105392.789    18509700.661       43744.247     1105392.634    26068446.622       61609.684
D3903   1176087.283    19693474.773      101626.536     1176087.137    27735634.244      143124.949
D4003    841337.877    14088125.917       84286.739      841337.766    19841247.682      118706.161
D4103    779549.639    13053486.550       26322.049      779549.522    18384096.368       37071.683
D5627    821090.592    13749086.587       62554.713      821090.478    19363756.108       88100.974
D5727    496528.762     8314328.034        6291.485      496528.686    11709623.157        8860.064
D5826   1148985.797    19239661.253      105510.471     1148985.631    27096498.949      148599.342
D5926   1019142.790    17065451.639       78296.055     1019142.636    24034414.599      110270.883
> 2019  1 10  9 52  4.4000000  0 8                     
D3704   1104870.251    18500951.811       43584.320     1104870.111    26056124.686       61380.555
D3903   1174873.548    19673149.465      101597.899     1174873.381    27707009.254      143088.187
D4003    840331.179    14071268.569       84163.986      840331.064    19817506.450      118533.628
D4103    779235.231    13048222.140       26226.825      779235.118    18376682.032       36938.118
D5627    820343.409    13736575.644       62404.407      820343.303    19346135.913       87885.764
D5727    496453.639     8313069.737        5988.497      496453.557    11707851.144        8434.904
D5826   1147725.522    19218559.159      105530.040     1147725.373    27066779.080      148623.495
D5926   1018207.582    17049792.428       78152.765     1018207.440    24012360.422      110067.451
> 2019  1 10  9 52  4.6000000  0 8                     
D3704   1104349.757    18492234.947       43494.623     1104349.598    26043848.575       61256.404
D3903   1173660.033    19652829.886      101649.572     1173659.875    27678391.617      143158.782
D4003    839325.934    14054435.772       84076.842      839325.819    19793799.725      118410.804
D4103    778921.941    13042976.775       26063.990      778921.838    18369294.408       36705.914
D5627    819598.141    13724094.762       62290.096      819598.014    19328558.760       87727.612
D5727    496382.082     8311872.038        5647.144      496382.008    11706164.163        7952.858
D5826   1146465.130    19197453.151      105467.388     1146464.968    27037054.381      148536.708
D5926   1017274.142    17034161.875       78090.657     1017273.997    23990346.932      109980.903
> 2019  1 10  9 52  4.8000000  0 8                     
D3704   1103830.259    18483536.023       43396.980     1103830.101    26031597.294       61121.264
D3903   1172445.975    19632499.971      101539.997     1172445.808    27649759.860      143006.782
D4003    838321.734    14037620.404       84051.424      838321.617    19770117.564      118373.715
D4103    778610.694    13037763.977       25896.254      778610.576    18361953.225       36472.348
D5627    818854.142    13711636.743       62124.144      818854.018    19311013.238       87493.969
D5727    496314.647     8310742.609        5374.503      496314.569    11704573.592        7568.928
D5826   1145205.437    19176359.673      105452.308     1145205.274    27007347.040      148516.982
D5926   1016341.411    17018543.744       78030.553     1016341.272    23968350.752      109893.203
> 2019  1 10  9 52  5.0000000  0 8                     
D3704   1103311.847    18474856.627       43246.315     1103311.709    26019373.041       60906.182
D3903   1171233.146    19612191.972      101551.394     1171232.990    27621158.504      143021.256
D4003    837317.882    14020810.119       83908.225      837317.751    19746442.821      118175.055
D4103    778301.359    13032584.726       25589.840      778301.250    18354658.755       36040.011
D5627    818112.122    13699211.914       61999.772      818112.002    19293514.444       87318.860
D5727    496250.466     8309667.708        5029.848      496250.385    11703059.806        7083.506
D5826   1143945.872    19155269.212      105454.232     1143945.722    26977643.643      148517.186
D5926   1015409.503    17002937.633       77924.157     1015409.343    23946372.111      109748.280
> 2019  1 10  9 52  5.2000000  0 8                     
D3704   1102795.332    18466207.364       43125.615     1102795.191    26007191.805       60736.169
D3903   1170020.235    19591881.693      101532.051     1170020.077    27592554.253      142995.583
D4003    836315.636    14004028.474       83811.997      836315.519    19722807.810      118037.256
D4103    777995.711    13027466.758       25558.797      777995.603    18347450.753       35994.321
D5627    817371.586    13686811.960       61858.830      817371.469    19276050.672       87119.173
D5727    496190.402     8308661.739        4754.317      496190.318    11701643.105        6696.948
D5826   1142686.370    19134178.366      105424.433     1142686.211    26947940.206      148475.868
D5926   1014478.697    16987352.802       77796.515     1014478.558    23924422.455      109565.921
> 2019  1 10  9 52  5.4000000  0 8                     
D3704   1102280.261    18457582.241       43021.895     1102280.114    25995044.571       60592.892
D3903   1168807.502    19571575.283      101448.902     1168807.354    27563955.136      142877.133
D4003    835314.618    13987266.075       83767.622      835314.494    19699200.359      117975.964
D4103    777690.502    13022354.999       25291.288      777690.378    18340251.889       35619.899
D5627    816632.774    13674440.194       61743.735      816632.651    19258626.837       86958.087
D5727    496133.578     8307710.875        4408.451      496133.504    11700303.715        6208.337
D5826   1141427.202    19113093.479      105341.081     1141427.040    26918245.032      148358.312
D5926   1013549.504    16971793.499       77622.264     1013549.365    23902509.271      109320.831
> 2019  1 10  9 52  5.6000000  0 8                     
D3704   1101766.332    18448977.862       42928.027     1101766.205    25982925.992       60455.716
D3903   1167595.808    19551285.503      101473.898     1167595.659    27535379.709      142912.531
D4003    834314.089    13970512.550       83695.162      834313.969    19675605.166      117874.068
D4103    777388.407    13017296.741       25127.324      777388.288    18333127.909       35389.813
D5627    815895.302    13662091.447       61556.047      815895.182    19241235.220       86692.827
D5727    496080.937     8306829.185        4037.559      496080.860    11699062.048        5685.636
D5826   1140169.034    19092025.263      105368.819     1140168.868    26888573.370      148398.516
D5926   1012622.382    16956269.046       77643.252     1012622.245    23880645.105      109349.669
> 2019  1 10  9 52  5.8000000  0 8                     
D3704   1101253.695    18440392.256       42805.692     1101253.545    25970834.849       60286.655
D3903   1166383.808    19530990.723      101489.014     1166383.660    27506797.203      142933.352
D4003    833314.420    13953773.518       83642.489      833314.305    19652030.352      117798.214
D4103    777088.243    13012271.277       24975.861      777088.135    18326049.947       35173.205
D5627    815160.104    13649780.238       61438.460      815159.978    19223896.654       86528.927
D5727    496032.737     8306021.673        3765.904      496032.654    11697924.920        5304.325
D5826   1138910.497    19070951.499      105277.284     1138910.336    26858893.667      148270.550
D5926   1011695.034    16940740.395       77562.713     1011694.892    23858775.171      109236.413
> 2019  1 10  9 52  6.0000000  0 8                     
D3704   1100742.408    18431831.118       42629.808     1100742.263    25958777.518       60037.483
D3903   1165171.644    19510692.920      101446.356     1165171.493    27478210.533      142872.407
D4003    832315.437    13937045.020       83535.586      832315.313    19628470.709      117648.467
D4103    776790.001    13007276.104       24799.197      776789.876    18319015.306       34926.901
D5627    814426.251    13637492.546       61273.825      814426.134    19206590.869       86295.684
D5727    495987.739     8305268.492        3429.843      495987.660    11696864.055        4830.482
D5826   1137653.020    19049896.042      105272.411     1137652.872    26829239.557      148261.162
D5926   1010768.642    16925227.853       77411.202     1010768.497    23836927.888      109023.001
> 2019  1 10  9 52  6.2000000  0 8                     
D3704   1100233.272    18423305.156       42502.756     1100233.119    25946770.021       59860.277
D3903   1163960.019    19490403.649      101316.007     1163959.857    27449636.051      142691.087
D4003    831317.703    13920337.903       83405.600      831317.577    19604941.016      117465.591
D4103    776493.782    13002316.265       24572.739      776493.662    18312029.925       34607.754
D5627    813694.413    13625237.781       61088.784      813694.293    19189331.732       86034.921
D5727    495946.773     8304582.524        3134.524      495946.694    11695897.959        4414.803
D5826   1136395.688    19028841.560      105292.643     1136395.532    26799587.324      148291.032
D5926   1009844.060    16909745.613       77387.517     1009843.913    23815123.288      108990.185
> 2019  1 10  9 52  6.4000000  0 8                     
D3704   1099725.594    18414804.605       42338.149     1099725.449    25934797.966       59629.249
D3903   1162749.874    19470140.448      101433.151     1162749.721    27421097.834      142854.771
D4003    830321.515    13903656.783       83434.357      830321.389    19581447.898      117506.113
D4103    776200.276    12997401.717       24414.887      776200.159    18305108.375       34384.380
D5627    812964.789    13613020.024       61050.593      812964.665    19172124.748       85981.751
D5727    495909.326     8303955.619        2798.841      495909.249    11695014.998        3941.491
D5826   1135138.068    19007783.031      105193.026     1135137.914    26769929.118      148151.836
D5926   1008919.743    16894268.109       77223.890     1008919.597    23793325.251      108761.738
> 2019  1 10  9 52  6.6000000  0 8                     
D3704   1099219.855    18406336.975       42323.156     1099219.724    25922872.116       59605.640
D3903   1161538.374    19449853.818      101335.360     1161538.218    27392526.880      142715.548
D4003    829324.983    13886969.912       83231.949      829324.856    19557946.675      117222.656
D4103    775908.692    12992518.740       24277.330      775908.568    18298231.499       34193.003
D5627    812235.601    13600809.905       60819.036      812235.478    19154928.398       85655.278
D5727    495875.907     8303395.851        2485.173      495875.828    11694226.700        3500.552
D5826   1133881.599    18986744.426      105214.332     1133881.458    26740298.751      148178.777
D5926   1007997.312    16878823.331       77065.039     1007997.185    23771572.903      108532.688
> 2019  1 10  9 52  6.8000000  0 8                     
D3704   1098714.381    18397872.344       42175.554     1098714.242    25910950.988       59398.154
D3903   1160328.093    19429586.745      101334.593     1160327.923    27363983.770      142718.524
D4003    828330.814    13870323.522       83191.475      828330.700    19534502.144      117163.915
D4103    775618.669    12987663.274       24058.151      775618.560    18291392.898       33882.038
D5627    811509.191    13588646.098       60731.888      811509.066    19137797.342       85532.583
D5727    495846.207     8302898.816        2137.730      495846.132    11693526.590        3010.415
D5826   1132624.981    18965701.559      105125.887     1132624.827    26710662.995      148056.283
D5926   1007076.960    16863410.323       77041.421     1007076.806    23749866.366      108504.803
> 2019  1 10  9 52  7.0000000  0 8                     
D3704   1098210.656    18389437.233       42024.317     1098210.513    25899071.358       59184.745
D3903   1159117.683    19409319.827      101291.793     1159117.531    27335440.065      142655.943
D4003    827337.187    13853685.227       83140.481      827337.072    19511069.361      117090.690
D4103    775331.343    12982851.643       23904.704      775331.228    18284616.490       33667.171
D5627    810783.820    13576499.720       60561.058      810783.694    19120690.826       85292.025
D5727    495820.684     8302471.270        1831.257      495820.607    11692924.507        2578.987
D5826   1131369.348    18944676.382      105176.629     1131369.198    26681051.739      148127.334
D5926   1006156.706    16848002.039       76928.719     1006156.572    23728165.405      108342.914
> 2019  1 10  9 52  7.2000000  0 8                     
D3704   1097708.751    18381032.370       41850.588     1097708.600    25887234.409       58940.731
D3903   1157907.863    19389061.468      101276.884     1157907.711    27306908.876      142634.825
D4003    826344.218    13837057.131       83081.220      826344.089    19487651.223      117010.347
D4103    775045.807    12978070.703       23702.992      775045.697    18277883.056       33382.502
D5627    810060.488    13564387.509       60324.681      810060.361    19103632.421       84959.398
D5727    495798.815     8302105.019        1564.775      495798.737    11692408.710        2204.183
D5826   1130113.123    18923641.056      105077.010     1130112.975    26651426.272      147985.829
D5926   1005237.907    16832616.295       76823.514     1005237.765    23706496.823      108196.152
> 2019  1 10  9 52  7.4000000  0 8                     
D3704   1097208.899    18372662.252       41863.831     1097208.746    25875446.262       58959.996
D3903   1156698.225    19368806.092      101229.227     1156698.071    27278381.911      142567.199
D4003    825351.849    13820440.887       82879.071      825351.734    19464249.154      116724.011
D4103    774762.700    12973330.104       23527.005      774762.590    18271206.556       33134.240
D5627    809339.970    13552322.573       60355.224      809339.844    19086640.541       85002.383
D5727    495780.111     8301792.064        1178.992      495780.037    11691967.873        1659.837
D5826   1128858.130    18902625.654      105060.470     1128857.972    26621829.106      147964.226
D5926   1004320.316    16817251.593       76795.778     1004320.178    23684857.592      108155.209
> 2019  1 10  9 52  7.6000000  0 8                     
D3704   1096708.868    18364289.486       41615.505     1096708.718    25863654.263       58610.423
D3903   1155489.173    19348560.246      101269.248     1155489.014    27249868.472      142624.354
D4003    824361.952    13803865.073       82898.072      824361.835    19440904.351      116750.619
D4103    774481.710    12968624.703       23352.636      774481.596    18264579.708       32889.147
D5627    808619.088    13540251.528       60132.399      808618.963    19069640.065       84690.055
