     3.02           OBSERVATION DATA    M: Mixed            RINEX VERSION / TYPE
BUPT PLAN 6.0                           20210329 120000 UTC PGM / RUN BY / DATE 
                                                            MARKER NAME         
                                                            MARKER NUMBER       
                                                            MARKER TYPE         
                                                            OBSERVER / AGENCY   
                                                            REC # / TYPE / VERS 
                                                            ANT # / TYPE        
  4076128.1056   519876.3642  4878092.5196                  APPROX POSITION XYZ 
        0.0000        0.0000        0.0000                  ANTENNA: DELTA H/E/N 
D    6 C5D L5D D5D C7D L7D D7D                              SYS / # / OBS TYPES  
    30.000                                                  INTERVAL            
  2019     1    10     9    51   54.0000000     GPS         TIME OF FIRST OBS   
  2019     1    10     9    54   44.0000000     GPS         TIME OF LAST OBS   
                                                            END OF HEADER       
> 2019  1 10  9 51 54.0000000  0 8                     
D3704   1133898.703    18987036.915       50348.791     1133898.717    26740700.772       70910.175
D3903   1238356.771    20736171.668      103959.742     1238356.565    29204130.031      146413.561
D4003    893827.422    14967058.990       88872.790      893827.340    21079109.036      125165.766
D4103    798382.199    13368840.165       35595.797      798382.095    18828229.423       50131.821
D5627    861317.608    14422683.847       69954.175      861317.318    20312432.881       98520.271
D5727    505353.535     8462095.795       22223.223      505353.565    11917741.389       31298.144
D5826   1213700.215    20323299.839      106689.320     1213699.950    28622659.764      150254.691
D5926   1068266.364    17888016.125       81928.213     1068266.117    25192899.943      115386.691
> 2019  1 10  9 51 54.2000000  0 8                     
D3704   1133297.361    18976967.157       50045.353     1133297.206    26726518.737       70482.807
D3903   1237115.042    20715379.720      103777.441     1237114.918    29174847.319      146157.494
D4003    892765.893    14949284.432       88647.962      892765.800    21054075.883      124847.288
D4103    797957.042    13361721.005       35280.581      797956.973    18818203.059       49688.052
D5627    860482.103    14408693.011       69701.307      860482.015    20292728.827       98164.073
D5727    505088.194     8457651.151       21868.479      505088.145    11911481.761       30800.342
D5826   1212426.007    20301961.975      106456.890     1212425.796    28592608.826      149931.400
D5926   1067287.614    17871630.482       81757.577     1067287.582    25169822.604      115144.369
> 2019  1 10  9 51 54.4000000  0 8                     
D3704   1132699.538    18966958.086       49968.737     1132699.454    26712422.176       70372.024
D3903   1235875.524    20694624.231      103783.555     1235875.331    29145615.820      146162.727
D4003    891707.102    14931554.839       88668.189      891706.902    21029106.425      124877.640
D4103    797535.783    13354664.889       35172.241      797535.749    18808265.448       49535.415
D5627    859649.704    14394752.750       69556.007      859649.422    20273096.012       97960.177
D5727    504827.091     8453277.455       21622.953      504826.863    11905321.692       30449.058
D5826   1211154.412    20280670.597      106477.924     1211154.207    28562622.546      149960.266
D5926   1066311.203    17855278.967       81672.815     1066311.143    25146793.730      115023.945
> 2019  1 10  9 51 54.6000000  0 8                     
D3704   1132102.870    18956964.339       49890.984     1132102.625    26698347.771       70268.860
D3903   1234636.077    20673867.520      103736.055     1234635.664    29116383.275      146100.788
D4003    890648.009    14913821.201       88496.945      890647.926    21004130.897      124637.020
D4103    797115.632    13347630.441       34989.902      797115.522    18798358.365       49279.161
D5627    858818.863    14380841.549       69451.561      858818.687    20253503.977       97815.934
D5727    504568.760     8448952.864       21301.669      504568.599    11899231.881       30001.398
D5826   1209882.604    20259375.012      106438.219     1209882.480    28532630.493      149905.311
D5926   1065335.844    17838944.404       81574.530     1065335.627    25123788.941      114887.073
> 2019  1 10  9 51 54.8000000  0 8                     
D3704   1131506.995    18946986.142       49733.811     1131506.826    26684293.999       70040.313
D3903   1233396.873    20653120.309      103738.099     1233396.849    29087163.118      146100.891
D4003    889591.102    14896121.812       88454.976      889590.965    20979203.493      124576.594
D4103    796697.690    13340632.461       34845.642      796697.660    18788502.533       49075.111
D5627    857989.241    14366951.236       69382.435      857989.085    20233940.790       97714.876
D5727    504314.250     8444692.531       20965.910      504314.199    11893231.601       29531.685
D5826   1208611.417    20238087.368      106431.246     1208611.159    28502649.431      149896.429
D5926   1064361.392    17822629.498       81465.313     1064361.269    25100811.527      114732.138
> 2019  1 10  9 51 55.0000000  0 8                     
D3704   1130912.884    18937039.380       49601.317     1130912.760    26670285.937       69857.646
D3903   1232157.878    20632372.690      103679.549     1232157.758    29057942.939      146015.848
D4003    888534.618    14878430.817       88456.453      888534.530    20954288.174      124580.172
D4103    796281.543    13333663.332       34647.471      796281.452    18778687.511       48793.555
D5627    857160.506    14353074.750       69202.868      857160.432    20214397.815       97463.333
D5727    504063.925     8440499.349       20706.705      504063.737    11887325.264       29161.095
D5826   1207340.119    20216801.119      106294.683     1207339.920    28472670.145      149697.130
D5926   1063388.491    17806336.435       81432.326     1063388.392    25077865.099      114687.726
> 2019  1 10  9 51 55.2000000  0 8                     
D3704   1130320.536    18927119.116       49546.183     1130320.355    26656314.407       69777.198
D3903   1230919.596    20611636.780      103602.783     1230919.381    29028739.770      145914.785
D4003    887478.016    14860739.526       88320.445      887477.979    20929372.140      124385.937
D4103    795867.739    13326733.838       34378.451      795867.641    18768928.800       48420.267
D5627    856334.059    14339234.176       69094.712      856333.792    20194905.148       97311.759
D5727    503816.490     8436358.008       20371.921      503816.533    11881493.045       28691.614
D5826   1206070.646    20195542.183      106376.519     1206070.461    28442730.719      149817.692
D5926   1062415.761    17790049.970       81345.271     1062415.578    25054927.554      114562.909
> 2019  1 10  9 51 55.4000000  0 8                     
D3704   1129728.705    18917209.880       49363.675     1129728.581    26642358.968       69522.519
D3903   1229681.960    20590916.223      103729.442     1229681.954    28999556.813      146087.311
D4003    886423.173    14843075.438       88237.991      886423.099    20904494.953      124271.727
D4103    795457.074    13319858.148       34310.179      795457.063    18759244.746       48321.732
D5627    855508.836    14325415.234       68952.243      855508.585    20175442.796       97107.960
D5727    503573.229     8432283.623       20055.876      503573.207    11875754.722       28243.962
D5826   1204799.945    20174266.879      106381.079     1204799.897    28412767.180      149824.849
D5926   1061444.142    17773780.916       81217.316     1061444.095    25032014.972      114383.660
> 2019  1 10  9 51 55.6000000  0 8                     
D3704   1129139.171    18907337.145       49278.199     1129138.922    26628454.464       69404.291
D3903   1228443.285    20570170.335      103573.827     1228443.070    28970339.350      145868.730
D4003    885369.308    14825427.839       88255.469      885369.190    20879640.607      124296.086
D4103    795047.218    13312996.112       34114.302      795047.182    18749580.400       48044.098
D5627    854685.206    14311624.785       68878.342      854684.946    20156021.204       97006.531
D5727    503333.803     8428272.448       19739.714      503333.717    11870105.930       27803.348
D5826   1203529.481    20152990.663      106301.786     1203529.200    28382802.211      149713.496
D5926   1060474.203    17757537.452       81183.877     1060473.990    25009138.240      114337.451
> 2019  1 10  9 51 55.8000000  0 8                     
D3704   1128550.479    18897481.505       49172.321     1128550.291    26614573.606       69248.178
D3903   1227206.090    20549455.569      103594.230     1227205.915    28941165.604      145900.364
D4003    884315.112    14807776.746       88057.225      884315.013    20854781.390      124016.794
D4103    794639.825    13306173.251       33998.815      794639.741    18739971.580       47885.333
D5627    853862.541    14297849.117       68689.834      853862.391    20136619.898       96740.252
D5727    503097.905     8424324.505       19498.669      503097.871    11864545.260       27459.154
D5826   1202259.667    20131730.306      106307.231     1202259.517    28352859.511      149716.367
D5926   1059504.555    17741300.677       81074.048     1059504.293    24986270.750      114182.163
> 2019  1 10  9 51 56.0000000  0 8                     
D3704   1127963.230    18887647.041       49093.299     1127963.181    26600723.970       69142.707
D3903   1225968.725    20528736.723      103573.640     1225968.722    28911985.532      145867.804
D4003    883263.373    14790165.301       88118.375      883263.294    20829978.031      124103.721
D4103    794233.855    13299373.489       33786.055      794233.688    18730394.514       47581.153
D5627    853041.993    14284111.150       68575.288      853042.007    20117271.848       96580.612
D5727    502865.059     8420424.772       19152.174      502864.814    11859053.430       26975.626
D5826   1200990.115    20110468.860      106217.505     1200989.825    28322916.238      149593.816
D5926   1058536.252    17725085.867       80972.788     1058536.079    24963434.317      114041.064
> 2019  1 10  9 51 56.2000000  0 8                     
D3704   1127376.977    18877828.381       48896.078     1127376.761    26586895.429       68865.251
D3903   1224731.767    20508021.995      103634.498     1224731.475    28882811.971      145956.940
D4003    882210.969    14772541.626       87952.268      882210.814    20805157.287      123869.312
D4103    793830.345    13292616.278       33564.804      793830.115    18720878.283       47272.095
D5627    852222.995    14270396.092       68518.939      852223.017    20097955.726       96498.622
D5727    502636.311     8416594.337       18803.349      502636.220    11853658.304       26482.405
D5826   1199721.324    20089225.359      106238.113     1199721.240    28292997.475      149621.640
D5926   1057568.999    17708891.310       80906.222     1057568.846    24940626.105      113944.417
> 2019  1 10  9 51 56.4000000  0 8                     
D3704   1126792.907    18868049.166       48831.084     1126792.731    26573122.379       68770.657
D3903   1223493.855    20487295.096      103514.430     1223493.772    28853620.583      145786.589
D4003    881160.401    14754951.172       87945.136      881160.191    20780383.424      123858.679
D4103    793429.197    13285903.317       33441.499      793429.227    18711423.864       47096.819
D5627    851404.592    14256692.305       68317.335      851404.415    20078656.001       96218.408
D5727    502411.639     8412833.667       18637.563      502411.708    11848361.823       26246.119
D5826   1198452.423    20067977.736      106190.991     1198452.207    28263073.147      149556.111
D5926   1056602.711    17692710.065       80821.530     1056602.562    24917837.221      113827.486
> 2019  1 10  9 51 56.6000000  0 8                     
D3704   1126209.641    18858282.949       48693.445     1126209.579    26559368.247       68578.503
D3903   1222257.557    20466592.210      103530.284     1222257.373    28824463.265      145808.109
D4003    880110.047    14737362.145       87893.521      880109.837    20755611.689      123786.130
D4103    793029.884    13279215.017       33258.255      793029.878    18702004.500       46839.503
D5627    850588.624    14243028.838       68212.524      850588.427    20059412.320       96065.272
D5727    502189.064     8409106.154       18166.018      502188.999    11843112.600       25584.758
D5826   1197184.301    20046739.538      106196.253     1197183.985    28233161.925      149563.413
D5926   1055637.322    17676545.759       80753.555     1055637.110    24895071.724      113728.854
> 2019  1 10  9 51 56.8000000  0 8                     
D3704   1125627.966    18848544.260       48544.280     1125627.783    26545652.547       68368.416
D3903   1221020.931    20445886.153      103532.397     1221020.812    28795301.643      145812.048
D4003    879060.234    14719783.440       87683.490      879060.098    20730854.463      123489.599
D4103    792632.762    13272563.366       33071.475      792632.460    18692636.600       46578.161
D5627    849773.955    14229386.333       68112.961      849773.762    20040199.265       95927.435
D5727    501972.226     8405472.951       17918.712      501972.204    11837995.648       25236.904
D5826   1195915.738    20025500.287      106175.805     1195915.485    28203249.242      149535.544
D5926   1054672.874    17660395.048       80660.166     1054672.672    24872325.953      113597.226
> 2019  1 10  9 51 57.0000000  0 8                     
D3704   1125048.233    18838835.404       48481.761     1125048.149    26531978.863       68279.648
D3903   1219784.422    20425179.674      103459.929     1219784.279    28766139.234      145708.639
D4003    878012.974    14702246.742       87742.452      878012.858    20706156.543      123577.483
D4103    792237.606    13265949.071       32942.836      792237.597    18683320.968       46394.219
D5627    848960.316    14215763.741       67944.612      848960.251    20021013.778       95690.299
D5727    501758.086     8401889.208       17580.728      501758.037    11832948.267       24759.200
D5826   1194647.620    20004265.126      106053.718     1194647.368    28173342.133      149360.750
D5926   1053709.632    17644263.015       80505.927     1053709.448    24849606.508      113385.354
> 2019  1 10  9 51 57.2000000  0 8                     
D3704   1124469.235    18829139.052       48393.571     1124469.041    26518322.934       68154.690
D3903   1218548.616    20404487.688      103439.199     1218548.500    28736997.506      145682.126
D4003    876964.925    14684698.252       87621.339      876964.742    20681441.046      123398.021
D4103    791844.260    13259360.504       32761.246      791844.053    18674042.124       46139.683
D5627    848148.836    14202174.818       67882.433      848148.829    20001875.718       95605.465
D5727    501548.144     8398373.063       17338.507      501548.006    11827996.427       24418.484
D5826   1193380.804    19983054.383      106159.345     1193380.718    28143469.983      149512.613
D5926   1052747.802    17628161.830       80473.013     1052747.765    24826929.437      113335.625
> 2019  1 10  9 51 57.4000000  0 8                     
D3704   1123891.237    18819460.337       48167.438     1123891.010    26504691.996       67841.386
D3903   1217313.215    20383799.848      103424.069     1217313.133    28707861.081      145659.339
D4003    875918.544    14667173.984       87568.496      875918.384    20656761.442      123331.383
D4103    791452.980    13252808.254       32512.024      791452.776    18664814.187       45790.176
D5627    847338.154    14188598.332       67749.541      847337.899    19982754.625       95415.400
D5727    501341.110     8394905.361       16912.219      501340.917    11823112.730       23819.254
D5826   1192112.993    19961822.514      106052.934     1192112.759    28113567.461      149360.373
D5926   1051786.742    17612067.227       80372.242     1051786.581    24804262.312      113193.915
> 2019  1 10  9 51 57.6000000  0 8                     
D3704   1123315.903    18809826.850       48137.363     1123315.573    26491123.719       67793.531
D3903   1216077.859    20363115.034      103421.104     1216077.699    28678729.213      145651.769
D4003    874872.423    14649660.285       87490.427      874872.355    20632095.165      123215.542
D4103    791064.701    13246305.850       32388.202      791064.529    18655656.152       45613.833
D5627    846528.852    14175048.424       67558.456      846528.818    19963671.545       95148.033
D5727    501139.033     8391522.918       16707.337      501139.005    11818348.879       23530.121
D5826   1190846.275    19940611.927      106074.053     1190846.180    28083695.386      149391.935
D5926   1050826.702    17595992.779       80262.353     1050826.672    24781623.529      113036.098
> 2019  1 10  9 51 57.8000000  0 8                     
D3704   1122740.752    18800199.377       47969.627     1122740.792    26477565.012       67555.826
D3903   1214842.702    20342430.813      103403.118     1214842.463    28649598.859      145630.343
D4003    873827.543    14632162.200       87404.296      873827.564    20607452.057      123100.292
D4103    790677.749    13239828.209       32239.138      790677.682    18646533.385       45404.737
D5627    845721.958    14161536.732       67503.209      845721.782    19944641.939       95067.419
D5727    500939.627     8388181.450       16417.224      500939.359    11813642.855       23120.631
D5826   1189579.277    19919397.116      106019.371     1189579.185    28053816.999      149316.458
D5926   1049868.204    17579940.308       80262.395     1049867.984    24759016.310      113040.917
> 2019  1 10  9 51 58.0000000  0 8                     
D3704   1122167.934    18790605.452       47913.245     1122167.789    26464053.847       67482.435
D3903   1213607.678    20321750.190      103366.771     1213607.430    28620472.791      145579.461
D4003    872783.566    14614681.340       87368.057      872783.342    20582831.998      123045.789
D4103    790292.672    13233380.382       32013.239      790292.656    18637452.438       45085.671
D5627    844915.768    14148036.090       67272.972      844915.801    19925628.455       94749.107
D5727    500743.382     8384898.005       16079.334      500743.407    11809018.729       22646.453
D5826   1188312.919    19898193.242      106022.564     1188312.831    28023953.707      149314.011
D5926   1048909.512    17563887.829       80110.248     1048909.293    24736408.126      112823.818
> 2019  1 10  9 51 58.2000000  0 8                     
D3704   1121595.536    18781022.803       47717.359     1121595.491    26450557.360       67202.960
D3903   1212373.044    20301076.836      103353.191     1212372.861    28591356.898      145558.623
D4003    871740.046    14597207.729       87317.942      871739.887    20558222.841      122975.530
D4103    789910.318    13226977.734       31869.610      789910.168    18628435.304       44884.969
D5627    844112.207    14134581.496       67249.309      844112.082    19906678.634       94709.110
D5727    500551.259     8381682.138       15780.138      500551.316    11804489.439       22224.159
D5826   1187046.680    19876988.729      105916.295     1187046.540    27994090.905      149172.701
D5926   1047952.648    17547865.780       80045.235     1047952.496    24713843.363      112733.513
> 2019  1 10  9 51 58.4000000  0 8                     
D3704   1121025.721    18771479.331       47703.295     1121025.505    26437116.768       67183.202
D3903   1211138.529    20280406.197      103260.789     1211138.430    28562245.174      145429.141
D4003    870697.086    14579744.141       87185.811      870697.053    20533627.735      122790.800
D4103    789529.728    13220603.812       31747.195      789529.634    18619458.310       44710.252
D5627    843308.986    14121131.634       67067.098      843308.979    19887736.812       94454.466
D5727    500362.922     8378526.111       15342.148      500362.849    11800044.607       21608.280
D5826   1185781.635    19855805.470      105980.742     1185781.444    27964256.365      149260.636
D5926   1046996.531    17531856.733       79917.567     1046996.451    24691296.660      112552.367
> 2019  1 10  9 51 58.6000000  0 8                     
D3704   1120456.140    18761938.672       47516.504     1120455.913    26423680.128       66922.798
D3903   1209905.162    20259754.040      103322.650     1209905.007    28533159.346      145518.014
D4003    869655.716    14562306.978       87125.356      869655.649    20509069.575      122702.754
D4103    789150.466    13214254.373       31477.732      789150.347    18610516.260       44334.336
D5627    842507.965    14107718.215       66974.607      842507.827    19868845.918       94324.102
D5727    500179.617     8375457.681       15162.164      500179.520    11795722.951       21353.474
D5826   1184515.742    19834609.322      105955.469     1184515.537    27934404.238      149223.538
D5926   1046042.088    17515873.219       79872.078     1046042.006    24668786.187      112489.862
> 2019  1 10  9 51 58.8000000  0 8                     
D3704   1119888.414    18752435.371       47410.533     1119888.345    26410295.568       66770.207
D3903   1208671.267    20239089.510      103320.568     1208671.024    28504055.743      145510.818
D4003    868615.219    14544881.907       87057.696      868615.097    20484529.024      122610.139
D4103    788774.604    13207958.826       31360.185      788774.368    18601649.392       44165.609
D5627    841707.934    14094323.293       66751.544      841707.992    19849981.098       94013.034
D5727    499998.520     8372425.248       14855.595      499998.410    11791452.256       20919.687
D5826   1183250.190    19813418.228      105856.608     1183250.070    27904559.530      149084.021
D5926   1045088.012    17499898.803       79741.498     1045087.970    24646288.214      112303.566
> 2019  1 10  9 51 59.0000000  0 8                     
D3704   1119322.074    18742953.265       47259.166     1119322.005    26396941.527       66556.741
D3903   1207437.104    20218425.396      103269.462     1207436.889    28474953.579      145440.823
D4003    867575.408    14527470.368       86961.699      867575.252    20460006.996      122474.397
D4103    788399.963    13201686.790       31158.367      788399.756    18592816.271       43883.932
D5627    840910.618    14080972.984       66752.866      840910.660    19831178.491       94009.175
D5727    499821.081     8369454.129       14459.718      499821.053    11787268.319       20366.157
D5826   1181985.981    19792246.906      105915.606     1181985.784    27874742.726      149168.073
D5926   1044135.590    17483950.504       79629.053     1044135.547    24623827.501      112147.020
> 2019  1 10  9 51 59.2000000  0 8                     
D3704   1118757.702    18733501.432       47194.835     1118757.556    26383630.179       66468.976
D3903   1206203.724    20197771.504      103222.255     1206203.596    28445865.415      145376.359
D4003    866536.656    14510078.028       86921.008      866536.543    20435512.117      122416.240
D4103    788027.842    13195455.116       30973.952      788027.656    18584039.484       43622.929
D5627    840113.518    14067622.411       66524.197      840113.413    19812376.656       93689.641
D5727    499648.395     8366562.186       14188.111      499648.350    11783195.087       19983.551
D5826   1180720.895    19771063.785      105755.775     1180720.631    27844909.111      148941.612
D5926   1043184.539    17468024.693       79636.623     1043184.444    24601398.097      112158.964
> 2019  1 10  9 51 59.4000000  0 8                     
D3704   1118194.037    18724062.464       46993.534     1118193.976    26370336.383       66182.524
D3903   1204970.639    20177127.053      103199.671     1204970.563    28416790.143      145342.772
D4003    865498.399    14492693.827       86837.050      865498.280    20411028.869      122296.420
D4103    787657.881    13189260.326       30830.519      787657.811    18575314.898       43419.289
D5627    839318.921    14054317.572       66411.917      839318.783    19793638.728       93534.295
D5727    499478.843     8363724.563       13897.589      499478.787    11779198.377       19572.906
D5826   1179457.707    19749912.630      105800.764     1179457.673    27815120.789      149007.912
D5926   1042233.384    17452097.369       79488.432     1042233.355    24578966.304      111949.723
> 2019  1 10  9 51 59.6000000  0 8                     
D3704   1117632.662    18714663.758       46996.748     1117632.642    26357099.879       66190.841
D3903   1203738.096    20156487.119      103173.640     1203737.957    28387721.588      145304.642
D4003    864461.441    14475326.416       86751.821      864461.232    20386569.585      122180.859
D4103    787289.650    13183094.222       30606.905      787289.393    18566631.040       43105.422
D5627    838525.805    14041035.188       66352.360      838525.578    19774931.869       93448.924
D5727    499312.879     8360945.046       13550.039      499312.733    11775283.796       19082.733
D5826   1178194.033    19728752.477      105865.519     1178193.852    27785319.207      149097.569
D5926   1041283.934    17436199.682       79373.071     1041283.785    24556576.360      111784.802
> 2019  1 10  9 51 59.8000000  0 8                     
D3704   1117071.428    18705264.408       46811.096     1117071.280    26343861.710       65927.476
D3903   1202505.878    20135852.391      103198.364     1202505.691    28358660.660      145341.822
D4003    863425.113    14457976.052       86657.484      863425.077    20362133.413      122045.450
D4103    786924.101    13176972.841       30508.196      786924.004    18558009.956       42965.705
D5627    837733.256    14027764.716       66187.037      837733.002    19756242.084       93217.339
D5727    499150.988     8358235.038       13279.240      499151.013    11771467.249       18700.992
D5826   1176929.604    19707579.374      105736.437     1176929.338    27755499.693      148914.853
D5926   1040335.959    17420325.068       79315.446     1040335.829    24534219.399      111705.931
> 2019  1 10  9 52  0.0000000  0 8                     
D3704   1116512.270    18695902.189       46638.704     1116512.153    26330676.215       65682.388
D3903   1201273.329    20115212.718      103131.492     1201273.049    28329592.296      145246.502
D4003    862390.072    14440644.555       86631.056      862390.041    20337724.323      122007.571
D4103    786559.696    13170871.202       30255.367      786559.523    18549416.815       42610.812
D5627    836942.614    14014527.309       66015.567      836942.421    19737598.617       92973.557
D5727    498992.579     8355579.190       12884.966      498992.325    11767727.051       18148.060
D5826   1175666.613    19686432.086      105721.387     1175666.575    27725716.722      148893.189
D5926   1039388.599    17404461.979       79174.203     1039388.473    24511878.213      111504.789
> 2019  1 10  9 52  0.2000000  0 8                     
D3704   1115955.306    18686574.448       46619.573     1115955.123    26317539.738       65660.140
D3903   1200041.286    20094586.419      103094.226     1200041.291    28300542.995      145195.702
D4003    861355.313    14423318.344       86526.636      861355.258    20313322.809      121860.111
D4103    786198.379    13164820.128       30109.778      786198.178    18540894.652       42407.039
D5627    836154.158    14001324.195       65892.016      836154.088    19719003.905       92797.255
D5727    498838.602     8353002.197       12663.545      498838.507    11764097.439       17833.562
D5826   1174404.005    19665287.809      105723.174     1174403.880    27695938.084      148898.133
D5926   1038442.918    17388627.138       79173.159     1038442.809    24489577.255      111505.914
> 2019  1 10  9 52  0.4000000  0 8                     
D3704   1115398.424    18677250.533       46476.772     1115398.225    26304407.710       65453.897
D3903   1198810.104    20073967.574      103093.439     1198809.937    28271503.855      145193.965
D4003    860321.977    14406013.017       86432.995      860321.840    20288950.787      121731.206
D4103    785838.727    13158798.173       29918.165      785838.478    18532413.245       42134.391
D5627    835367.179    13988145.792       65773.403      835366.982    19700444.454       92635.237
D5727    498687.237     8350469.488       12322.600      498687.215    11760530.727       17355.333
D5826   1173141.290    19644143.174      105658.233     1173141.016    27666158.458      148805.742
D5926   1037497.330    17372792.506       79035.568     1037497.232    24467276.073      111310.186
> 2019  1 10  9 52  0.6000000  0 8                     
D3704   1114843.291    18667955.179       46279.817     1114843.150    26291316.930       65180.020
D3903   1197578.801    20053348.886      103037.604     1197578.741    28242465.062      145111.193
D4003    859289.681    14388726.418       86430.308      859289.425    20264604.546      121722.606
D4103    785481.285    13152814.540       29752.672      785481.226    18523986.366       41905.125
D5627    834581.474    13974991.112       65709.097      834581.394    19681917.407       92542.160
D5727    498540.043     8348004.967       11985.262      498540.155    11757059.660       16879.166
D5826   1171879.289    19623011.527      105610.452     1171879.180    27636397.309      148737.922
D5926   1036553.356    17356985.393       78984.929     1036553.223    24445014.036      111239.584
> 2019  1 10  9 52  0.8000000  0 8                     
D3704   1114290.577    18658699.216       46194.002     1114290.322    26278280.926       65058.875
D3903   1196348.237    20032741.365      103059.203     1196348.054    28213442.823      145146.995
D4003    858257.235    14371440.356       86327.267      858257.189    20240260.025      121582.433
D4103    785126.023    13146864.005       29548.861      785125.738    18515605.342       41613.111
D5627    833796.691    13961849.292       65469.255      833796.624    19663408.975       92205.496
D5727    498396.978     8345607.915       11672.743      498397.013    11753683.827       16440.487
D5826   1170617.806    19601889.437      105664.284     1170617.724    27606649.725      148816.455
D5926   1035610.025    17341188.407       78772.595     1035609.770    24422766.119      110940.977
> 2019  1 10  9 52  1.0000000  0 8                     
D3704   1113738.806    18649460.415       46109.622     1113738.656    26265269.151       64938.225
D3903   1195117.114    20012129.525      103055.013     1195117.057    28184413.424      145139.572
D4003    857226.169    14354174.903       86273.879      857226.121    20215943.538      121505.564
D4103    784773.040    13140954.233       29412.345      784772.975    18507282.719       41422.592
D5627    833014.645    13948755.441       65318.511      833014.488    19644967.876       91992.173
D5727    498257.622     8343273.366       11321.246      498257.538    11750395.729       15944.613
D5826   1169355.769    19580756.580      105564.373     1169355.588    27576886.434      148667.375
D5926   1034669.112    17325433.888       78793.677     1034668.862    24400577.923      110968.302
> 2019  1 10  9 52  1.2000000  0 8                     
D3704   1113187.979    18640238.491       46021.956     1113187.891    26252281.506       64815.907
D3903   1193886.389    19991518.522      103010.403     1193886.210    28155385.510      145076.668
D4003    856195.841    14336920.127       86063.375      856195.695    20191642.425      121211.696
D4103    784421.801    13135071.764       29194.138      784421.707    18498998.201       41117.684
D5627    832234.575    13935691.739       65285.630      832234.578    19626569.441       91946.912
D5727    498122.371     8341009.117       11080.007      498122.260    11747206.807       15604.583
D5826   1168095.001    19559643.706      105603.197     1168094.799    27547152.959      148731.509
D5926   1033728.037    17309675.153       78662.518     1033727.873    24378384.263      110789.225
> 2019  1 10  9 52  1.4000000  0 8                     
D3704   1112638.399    18631034.100       45808.068     1112638.221    26239318.325       64513.899
D3903   1192655.887    19970916.441      102950.576     1192655.845    28126370.176      144991.767
D4003    855167.870    14319707.452       86078.321      855167.731    20167400.086      121228.153
D4103    784073.132    13129232.937       29010.355      784072.950    18490774.664       40857.382
D5627    831454.904    13922634.613       65114.551      831454.696    19608180.059       91704.686
D5727    497990.022     8338793.116       10732.873      497990.014    11744085.890       15114.089
D5826   1166833.554    19538523.066      105541.101     1166833.529    27517406.657      148639.939
D5926   1032788.454    17293942.649       78559.637     1032788.228    24356226.418      110640.215
> 2019  1 10  9 52  1.6000000  0 8                     
D3704   1112091.342    18621872.486       45731.145     1112091.076    26226415.545       64406.815
D3903   1191426.244    19950326.326      103009.316     1191426.198    28097371.823      145077.014
D4003    854139.774    14302491.788       86023.784      854139.486    20143154.455      121152.277
D4103    783726.678    13123430.866       28897.967      783726.364    18482603.188       40698.246
D5627    830677.234    13909611.703       64970.342      830677.000    19589839.122       91500.796
D5727    497861.847     8336646.541       10403.500      497861.784    11741063.073       14652.412
D5826   1165572.997    19517414.846      105566.767     1165572.917    27487678.669      148676.664
D5926   1031850.254    17278230.722       78479.418     1031850.001    24334098.375      110528.055
> 2019  1 10  9 52  1.8000000  0 8                     
D3704   1111545.110    18612726.257       45618.409     1111544.874    26213534.182       64246.239
D3903   1190196.001    19929724.463      102890.480     1190195.702    28068356.420      144905.305
D4003    853112.277    14285287.031       85921.260      853112.119    20118924.000      121007.326
D4103    783381.401    13117651.272       28680.648      783381.373    18474463.539       40392.330
D5627    829901.082    13896617.635       64819.143      829901.018    19571538.962       91288.472
D5727    497737.575     8334565.841       10105.611      497737.477    11738132.590       14231.564
D5826   1164312.161    19496301.492      105394.975     1164311.912    27457943.337      148435.295
D5926   1030912.738    17262534.838       78432.714     1030912.726    24311992.764      110461.141
> 2019  1 10  9 52  2.0000000  0 8                     
D3704   1111000.323    18603602.575       45434.027     1111000.108    26200684.934       63989.113
D3903   1188967.089    19909146.367      102951.839     1188966.918    28039375.359      144995.069
D4003    852086.121    14268102.779       85832.231      852085.944    20094722.535      120881.897
D4103    783038.822    13111915.143       28464.542      783038.722    18466385.073       40089.856
D5627    829126.924    13883653.806       64724.155      829126.679    19553281.268       91156.341
D5727    497616.905     8332544.719        9783.625      497616.900    11735286.277       13779.570
D5826   1163053.362    19475222.497      105499.879     1163053.117    27428256.278      148581.862
D5926   1029975.977    17246848.296       78303.318     1029975.957    24289900.536      110278.849
> 2019  1 10  9 52  2.2000000  0 8                     
D3704   1110457.514    18594515.770       45381.967     1110457.483    26187887.112       63914.523
D3903   1187737.445    19888555.999      102843.029     1187737.251    28010376.345      144840.557
D4003    851060.959    14250936.333       85747.654      851060.728    20070546.155      120764.901
D4103    782698.889    13106222.234       28365.339      782698.771    18458367.101       39948.272
D5627    828353.866    13870708.975       64614.158      828353.771    19535050.000       91001.241
D5727    497500.128     8330587.994        9446.246      497499.878    11732530.363       13304.087
D5826   1161793.284    19454122.522      105414.165     1161793.121    27398539.905      148461.006
D5926   1029040.726    17231187.632       78122.359     1029040.576    24267844.766      110026.694
> 2019  1 10  9 52  2.4000000  0 8                     
D3704   1109915.465    18585439.376       45278.735     1109915.371    26175104.207       63767.706
D3903   1186509.075    19867987.393      102849.777     1186508.853    27981408.234      144851.764
D4003    850036.750    14233786.802       85695.706      850036.612    20046393.175      120691.845
D4103    782360.122    13100549.166       28144.797      782359.911    18450377.447       39637.326
D5627    827581.964    13857786.144       64425.225      827581.970    19516849.751       90732.825
D5727    497387.249     8328698.745        9207.799      497387.214    11729869.546       12969.547
D5826   1160534.255    19433039.689      105363.024     1160534.099    27368847.704      148391.750
D5926   1028107.567    17215563.160       78160.341     1028107.563    24245839.427      110077.421
> 2019  1 10  9 52  2.6000000  0 8                     
D3704   1109374.673    18576383.630       45074.951     1109374.623    26162350.666       63482.903
D3903   1185280.642    19847417.438      102873.172     1185280.468    27952437.881      144879.990
D4003    849013.186    14216647.661       85622.577      849013.043    20022254.806      120588.114
D4103    782023.802    13094920.207       27935.896      782023.859    18442449.982       39345.719
D5627    826812.656    13844901.099       64278.911      826812.553    19498703.186       90528.674
D5727    497277.158     8326857.185        8789.895      497277.210    11727275.637       12379.805
D5826   1159275.720    19411967.084      105411.477     1159275.502    27339169.354      148457.450
D5926   1027174.071    17199931.092       78027.549     1027173.916    24223823.943      109890.784
> 2019  1 10  9 52  2.8000000  0 8                     
D3704   1108836.263    18567368.639       45008.966     1108836.125    26149654.085       63389.336
D3903   1184052.046    19826842.803      102763.713     1184051.853    27923461.883      144729.871
D4003    847990.458    14199523.146       85529.739      847990.342    19998137.183      120454.728
D4103    781690.248    13089333.028       27806.860      781690.193    18434580.838       39161.482
D5627    826044.853    13832045.316       64162.286      826044.729    19480597.452       90366.231
D5727    497172.272     8325099.206        8515.392      497172.167    11724799.676       11991.844
D5826   1158016.692    19390884.789      105336.277     1158016.516    27309477.864      148353.608
D5926   1026242.231    17184325.582       77886.048     1026242.147    24201845.786      109694.755
> 2019  1 10  9 52  3.0000000  0 8                     
D3704   1108298.692    18558366.846       44885.465     1108298.448    26136976.218       63216.594
D3903   1182824.552    19806290.061      102772.516     1182824.465    27894515.909      144742.508
D4003    846968.916    14182417.198       85469.367      846968.722    19974046.238      120373.454
D4103    781358.143    13083771.656       27549.949      781358.101    18426748.542       38799.840
D5627    825278.543    13819212.859       64015.939      825278.342    19462524.205       90154.453
D5727    497070.476     8323396.128        8159.034      497070.426    11722401.307       11490.922
D5826   1156758.599    19369817.533      105291.665     1156758.321    27279807.142      148288.595
D5926   1025311.932    17168748.373       77832.663     1025311.718    24179906.835      109613.439
> 2019  1 10  9 52  3.2000000  0 8                     
D3704   1107762.657    18549389.753       44791.039     1107762.519    26124332.899       63081.930
D3903   1181597.064    19785735.558      102829.859     1181596.826    27865567.407      144820.258
D4003    845948.107    14165323.325       85337.978      845948.023    19949971.547      120186.868
D4103    781029.140    13078261.666       27467.178      781028.856    18418988.574       38685.020
D5627    824513.917    13806409.671       63890.619      824513.818    19444493.315       89983.322
D5727    496973.106     8321764.321        7933.186      496973.051    11720103.123       11172.805
D5826   1155500.957    19348759.200      105328.854     1155500.798    27250149.423      148340.145
D5926   1024382.286    17153181.840       77787.504     1024382.192    24157984.147      109555.646
> 2019  1 10  9 52  3.4000000  0 8                     
D3704   1107227.809    18540431.545       44611.467     1107227.623    26111716.513       62828.804
D3903   1180368.897    19765169.586      102733.687     1180368.734    27836603.355      144687.195
D4003    844928.812    14148255.729       85317.938      844928.662    19925934.173      120162.473
D4103    780700.993    13072768.230       27187.271      780700.719    18411251.570       38290.006
D5627    823750.827    13793631.547       63746.009      823750.723    19426496.650       89778.388
D5727    496878.320     8320177.683        7575.874      496878.270    11717868.562       10669.579
D5826   1154242.952    19327693.429      105246.609     1154242.819    27220481.394      148225.420
D5926   1023453.224    17137624.339       77573.913     1023453.050    24136073.018      109251.556
> 2019  1 10  9 52  3.6000000  0 8                     
D3704   1106694.860    18531509.252       44502.801     1106694.666    26099150.752       62674.367
D3903   1179141.750    19744622.849      102722.889     1179141.599    27807665.916      144671.764
D4003    843909.729    14131192.142       85203.715      843909.717    19901901.679      119995.777
D4103    780376.258    13067330.776       27055.494      780376.136    18403593.568       38104.586
D5627    822989.410    13780882.346       63637.792      822989.302    19408540.972       89624.116
D5727    496787.897     8318662.509        7240.482      496787.823    11715734.646       10198.443
D5826   1152985.908    19306644.107      105257.016     1152985.623    27190836.310      148242.556
D5926   1022526.507    17122109.557       77540.123     1022526.568    24114222.707      109207.286
> 2019  1 10  9 52  3.8000000  0 8                     
D3704   1106163.343    18522608.692       44367.518     1106163.017    26086615.879       62488.359
D3903   1177915.006    19724078.271      102683.553     1177914.686    27778731.563      144616.881
D4003    842892.058    14114151.399       85201.888      842892.011    19877902.523      119994.740
D4103    780053.034    13061919.677       26857.930      780053.022    18395972.651       37824.982
D5627    822229.369    13768154.787       63480.578      822229.213    19390616.149       89404.576
D5727    496701.413     8317214.412        6873.908      496701.216    11713694.957        9677.884
D5826   1151728.636    19285592.704      105176.390     1151728.527    27161187.799      148130.774
D5926   1021600.435    17106601.532       77485.104     1021600.392    24092381.250      109126.894
> 2019  1 10  9 52  4.0000000  0 8                     
D3704   1105633.312    18513735.188       44279.100     1105633.179    26074118.207       62360.969
D3903   1176688.324    19703541.560      102650.128     1176688.201    27749808.187      144568.468
D4003    841874.494    14097111.021       85022.573      841874.395    19853903.575      119746.463
D4103    779732.341    13056548.092       26707.625      779732.193    18388407.655       37613.609
D5627    821471.241    13755458.672       63308.337      821471.101    19372735.234       89161.676
D5727    496619.360     8315839.630        6685.441      496619.245    11711759.381        9416.948
D5826   1150472.399    19264557.426      105174.905     1150472.112    27131561.645      148122.154
D5926   1020675.014    17091104.511       77274.857     1020674.952    24070555.871      108830.484
> 2019  1 10  9 52  4.2000000  0 8                     
D3704   1105104.574    18504879.368       44112.950     1105104.366    26061646.013       62125.897
D3903   1175462.427    19683011.535      102635.800     1175462.256    27720894.494      144548.003
D4003    840858.985    14080106.506       84942.556      840858.792    19829954.283      119627.905
D4103    779413.278    13051206.567       26537.774      779413.193    18380884.933       37373.945
D5627    820715.006    13742797.004       63225.687      820714.745    19354902.899       89044.908
D5727    496539.387     8314502.542        6307.482      496539.387    11709875.991        8882.696
D5826   1149216.187    19243522.445      105149.571     1149216.124    27101937.214      148084.308
D5926   1019751.993    17075649.540       77320.892     1019751.976    24048789.774      108896.407
> 2019  1 10  9 52  4.4000000  0 8                     
D3704   1104577.625    18496056.778       44025.666     1104577.403    26049220.834       62002.546
D3903   1174236.475    19662484.375      102622.411     1174236.389    27691984.893      144530.329
D4003    839844.406    14063117.995       84882.343      839844.327    19806028.702      119546.142
D4103    779096.378    13045899.012       26323.467      779096.306    18373410.144       37074.513
D5627    819959.861    13730151.867       63019.443      819959.706    19337093.917       88753.937
D5727    496464.119     8313241.046        5969.269      496464.098    11708099.452        8407.787
D5826   1147960.484    19222492.531      105103.088     1147960.277    27072320.352      148030.566
D5926   1018828.577    17060185.362       77119.901     1018828.386    24027010.493      108612.010
> 2019  1 10  9 52  4.6000000  0 8                     
D3704   1104051.754    18487251.645       43908.089     1104051.651    26036820.325       61840.707
D3903   1173010.853    19641959.893      102596.308     1173010.654    27663078.827      144492.087
D4003    838830.588    14046141.526       84844.876      838830.489    19782119.473      119490.980
D4103    778781.914    13040634.318       26141.498      778781.883    18365995.242       36815.530
D5627    819207.144    13717547.978       62925.995      819206.990    19319343.130       88623.156
D5727    496392.767     8312047.192        5602.363      496392.595    11706417.894        7889.659
D5826   1146705.102    19201471.913      105073.173     1146704.825    27042714.239      147976.412
D5926   1017907.406    17044761.381       77022.673     1017907.414    24005288.091      108477.025
> 2019  1 10  9 52  4.8000000  0 8                     
D3704   1103527.250    18478470.027       43751.214     1103527.132    26024452.183       61619.353
D3903   1171785.305    19621440.631      102591.019     1171785.354    27634180.410      144485.783
D4003    837817.069    14029172.551       84733.629      837817.086    19758221.277      119336.645
D4103    778469.728    13035406.019       25940.329      778469.679    18358632.136       36535.931
D5627    818455.567    13704962.779       62753.628      818455.406    19301618.498       88380.077
D5727    496325.912     8310926.719        5334.983      496325.886    11704839.962        7512.866
D5826   1145450.066    19180457.279      105084.715     1145449.946    27013118.957      147998.092
D5926   1016987.535    17029356.847       77028.270     1016987.346    23983592.686      108485.024
> 2019  1 10  9 52  5.0000000  0 8                     
D3704   1103004.749    18469719.785       43684.750     1103004.617    26012128.313       61522.643
D3903   1170560.177    19600922.427      102506.298     1170559.910    27605283.253      144366.241
D4003    836805.188    14012225.825       84627.972      836804.932    19734353.948      119187.838
D4103    778159.998    13030217.953       25782.492      778159.752    18351324.949       36309.736
D5627    817706.055    13692412.054       62701.803      817705.800    19283942.483       88307.176
D5727    496262.163     8309859.723        5001.887      496262.112    11703337.389        7046.031
D5826   1144194.946    19159440.336      104997.197     1144194.723    26983519.338      147875.528
D5926   1016067.328    17013951.193       76860.088     1016067.365    23961895.681      108246.311
> 2019  1 10  9 52  5.2000000  0 8                     
D3704   1102482.949    18460982.835       43491.888     1102482.881    25999823.784       61251.456
D3903   1169335.791    19580421.168      102487.535     1169335.579    27576410.005      144342.227
D4003    835794.340    13995300.231       84496.122      835794.162    19710516.381      119001.830
D4103    777851.897    13025061.455       25623.251      777851.898    18344063.002       36088.184
D5627    816957.034    13679871.693       62431.539      816956.984    19266281.048       87926.991
D5727    496202.306     8308859.345        4719.673      496202.284    11701928.183        6644.802
D5826   1142940.863    19138440.896      105018.217     1142940.811    26953944.233      147902.450
D5926   1015149.535    16998579.175       76707.796     1015149.421    23940246.419      108032.250
> 2019  1 10  9 52  5.4000000  0 8                     
D3704   1101963.569    18452284.457       43381.682     1101963.372    25987573.493       61096.653
D3903   1168111.597    19559923.661      102543.280     1168111.534    27547541.559      144416.387
D4003    834785.131    13978401.007       84581.353      834785.014    19686716.015      119121.316
D4103    777545.925    13019936.804       25373.932      777545.856    18336845.365       35734.272
D5627    816211.488    13667385.385       62342.612      816211.312    19248695.650       87799.619
D5727    496146.069     8307915.411        4354.835      496145.988    11700599.223        6134.295
D5826   1141686.691    19117437.253      104946.905     1141686.419    26924363.743      147803.347
D5926   1014233.243    16983237.616       76665.111     1014233.115    23918639.969      107973.088
> 2019  1 10  9 52  5.6000000  0 8                     
D3704   1101445.472    18443608.121       43256.880     1101445.275    25975354.162       60923.738
D3903   1166886.887    19539415.005      102449.562     1166886.799    27518658.282      144287.673
D4003    833774.949    13961484.736       84314.756      833774.678    19662891.752      118746.081
D4103    777242.914    13014862.018       25179.408      777242.752    18329698.511       35461.043
D5627    815466.904    13654916.863       62241.221      815466.784    19231135.726       87661.122
D5727    496094.038     8307044.444        4146.481      496093.916    11699372.364        5840.766
D5826   1140433.042    19096447.872      104968.913     1140432.779    26894803.073      147837.622
D5926   1013317.546    16967904.594       76611.159     1013317.487    23897045.351      107896.539
> 2019  1 10  9 52  5.8000000  0 8                     
D3704   1100928.727    18434956.745       43183.082     1100928.546    25963169.415       60816.127
D3903   1165663.232    19518925.092      102435.559     1165663.020    27489800.747      144265.521
D4003    832767.862    13944621.785       84308.642      832767.640    19639142.535      118737.775
D4103    776942.049    13009826.136       25124.094      776941.976    18322606.302       35384.134
D5627    814723.359    13642468.619       62105.303      814723.299    19213603.501       87466.266
D5727    496044.644     8306215.148        3691.820      496044.479    11698204.210        5199.572
D5826   1139179.452    19075454.089      104850.623     1139179.109    26865235.549      147669.124
D5926   1012402.504    16952582.362       76422.292     1012402.384    23875466.043      107626.365
> 2019  1 10  9 52  6.0000000  0 8                     
D3704   1100412.951    18426320.128       42960.922     1100412.806    25951006.189       60507.731
D3903   1164439.629    19498437.980      102404.082     1164439.590    27460947.643      144224.777
D4003    831760.967    13927760.056       84240.946      831760.752    19615394.980      118641.008
D4103    776642.040    13004801.318       24895.997      776641.864    18315529.476       35064.182
D5627    813981.651    13630047.558       61837.603      813981.478    19196110.248       87090.853
D5727    496000.476     8305476.783        3432.042      496000.454    11697164.296        4835.042
D5826   1137926.933    19054483.965      104856.395     1137926.712    26835701.724      147673.416
D5926   1011489.930    16937297.904       76329.721     1011489.699    23853940.770      107503.971
> 2019  1 10  9 52  6.2000000  0 8                     
D3704   1099899.756    18417727.944       42923.940     1099899.603    25938904.643       60451.899
D3903   1163216.574    19477957.164      102362.715     1163216.519    27432102.688      144165.625
D4003    830754.749    13910911.867       84137.175      830754.499    19591666.779      118495.792
D4103    776344.642    12999822.118       24588.836      776344.572    18308516.639       34629.984
D5627    813243.026    13617680.038       61836.167      813242.862    19178692.078       87084.490
D5727    495959.433     8304790.375        3069.553      495959.306    11696197.288        4320.904
D5826   1136674.526    19033512.686      104858.782     1136674.465    26806167.041      147681.302
D5926   1010578.088    16922031.959       76307.519     1010577.980    23832439.976      107470.139
> 2019  1 10  9 52  6.4000000  0 8                     
D3704   1099387.101    18409143.156       42726.903     1099387.054    25926814.263       60174.949
D3903   1161993.872    19457484.621      102408.007     1161993.867    27403269.563      144225.994
D4003    829749.838    13894084.432       84083.860      829749.675    19567967.620      118422.906
D4103    776050.996    12994904.351       24535.493      776050.952    18301590.643       34555.224
D5627    812504.527    13605312.804       61683.046      812504.451    19161275.180       86873.801
D5727    495922.750     8304176.464        2778.198      495922.661    11695333.107        3913.745
D5826   1135422.019    19012540.929      104801.235     1135422.043    26776630.780      147597.648
D5926   1009666.675    16906770.455       76190.210     1009666.591    23810945.948      107302.753
> 2019  1 10  9 52  6.6000000  0 8                     
D3704   1098876.866    18400597.775       42724.676     1098876.676    25914779.274       60170.400
D3903   1160770.892    19437003.020      102351.350     1160770.781    27374424.364      144148.978
D4003    828745.579    13877267.660       84030.393      828745.434    19544283.039      118343.671
D4103    775757.938    12989997.252       24306.365      775757.858    18294679.598       34230.612
D5627    811767.794    13592976.195       61402.423      811767.657    19143900.419       86476.758
D5727    495889.500     8303620.825        2442.394      495889.490    11694550.358        3438.866
D5826   1134170.338    18991580.682      104811.035     1134170.385    26747111.251      147609.719
D5926   1008756.642    16891532.413       76045.591     1008756.413    23789485.397      107097.301
> 2019  1 10  9 52  6.8000000  0 8                     
D3704   1098366.545    18392052.840       42495.849     1098366.423    25902745.194       59849.344
D3903   1159548.213    19416532.750      102294.206     1159548.156    27345594.568      144067.249
D4003    827741.834    13860461.582       83836.545      827741.806    19520614.305      118076.174
D4103    775467.598    12985135.979       24098.204      775467.596    18287833.475       33939.730
D5627    811034.402    13580695.710       61418.324      811034.231    19126605.068       86500.455
D5727    495860.520     8303132.346        2196.340      495860.369    11693862.585        3095.653
D5826   1132918.754    18970618.475      104768.309     1132918.322    26717589.307      147554.274
D5926   1007848.373    16876323.295       75949.626     1007848.184    23768065.937      106965.305
> 2019  1 10  9 52  7.0000000  0 8                     
D3704   1097858.951    18383553.671       42369.380     1097858.846    25890775.325       59671.902
D3903   1158326.525    19396073.909      102327.797     1158326.404    27316781.118      144113.728
D4003    826740.539    13843694.273       83775.181      826740.476    19496999.070      117983.271
D4103    775179.758    12980316.338       23981.234      775179.710    18281045.529       33774.113
D5627    810300.795    13568412.046       61126.197      810300.697    19109304.977       86087.544
D5727    495834.069     8302693.078        1816.164      495834.099    11693243.454        2554.856
D5826   1131667.252    18949664.813      104714.449     1131667.048    26688078.452      147477.634
D5926   1006941.302    16861133.370       75948.451     1006941.138    23746672.876      106965.567
> 2019  1 10  9 52  7.2000000  0 8                     
D3704   1097352.926    18375079.795       42269.252     1097352.673    25878840.944       59529.683
D3903   1157104.424    19375608.349      102221.260     1157104.235    27287958.373      143965.201
D4003    825739.889    13826939.236       83781.800      825739.803    19473402.416      117996.118
D4103    774893.441    12975520.092       23790.749      774893.198    18274290.707       33505.545
D5627    809570.748    13556186.806       61051.850      809570.538    19092087.468       85984.639
D5727    495812.519     8302329.845        1451.962      495812.297    11692732.483        2045.756
D5826   1130416.446    18928721.923      104680.596     1130416.264    26658582.925      147425.937
D5926   1006034.121    16845943.680       75761.359     1006033.980    23725279.763      106699.166
> 2019  1 10  9 52  7.4000000  0 8                     
D3704   1096848.057    18366625.944       42195.355     1096847.998    25866935.008       59427.934
D3903   1155883.534    19355164.097      102210.121     1155883.254    27259165.333      143951.558
D4003    824739.143    13810182.876       83606.727      824739.102    19449803.192      117749.434
D4103    774609.162    12970761.942       23465.409      774609.123    18267589.598       33047.218
D5627    808841.531    13543976.436       60933.654      808841.449    19074890.540       85816.829
D5727    495795.106     8302039.453        1207.093      495795.071    11692323.332        1700.535
D5826   1129166.228    18907785.804      104693.386     1129165.983    26629097.738      147447.606
D5926   1005129.305    16830791.408       75624.963     1005129.118    23703939.930      106507.324
> 2019  1 10  9 52  7.6000000  0 8                     
D3704   1096344.174    18358186.873       41969.481     1096343.983    25855049.421       59108.272
D3903   1154662.709    19334722.073      102212.151     1154662.456    27230375.021      143950.364
D4003    823740.652    13793461.531       83575.889      823740.437    19426253.306      117705.832
D4103    774329.162    12966068.860       23462.065      774328.884    18260980.154       33043.390
D5627    808113.711    13531789.706       60762.962      808113.570    19057727.174       85576.473
