     3.02           OBSERVATION DATA    M: Mixed            RINEX VERSION / TYPE
BUPT PLAN 6.0                           20210329 120000 UTC PGM / RUN BY / DATE 
                                                            MARKER NAME         
                                                            MARKER NUMBER       
                                                            MARKER TYPE         
                                                            OBSERVER / AGENCY   
                                                            REC # / TYPE / VERS 
                                                            ANT # / TYPE        
  4076128.1056   519876.3642  4878092.5196                  APPROX POSITION XYZ 
        0.0000        0.0000        0.0000                  ANTENNA: DELTA H/E/N 
D    6 C5D L5D D5D C7D L7D D7D                              SYS / # / OBS TYPES  
    30.000                                                  INTERVAL            
  2019     1    10     9    51   54.0000000     GPS         TIME OF FIRST OBS   
  2019     1    10     9    54   44.0000000     GPS         TIME OF LAST OBS   
                                                            END OF HEADER       
> 2019  1 10  9 51 54.0000000  0 8                     
D3704   1133898.219    18987024.300       51305.066     1133898.016    26740687.866       72256.395
D3903   1238357.006    20736171.846      105970.701     1238356.796    29204135.157      149246.362
D4003    893827.194    14967056.410       90426.272      893827.043    21079102.950      127355.051
D4103    798381.925    13368836.544       36206.082      798381.852    18828217.076       50993.890
D5627    861317.589    14422682.296       71051.575      861317.470    20312424.488      100065.423
D5727    505354.374     8462111.174       22260.990      505354.297    11917758.563       31351.868
D5826   1213700.717    20323305.735      106026.920     1213700.539    28622678.795      149326.523
D5926   1068266.187    17888020.175       80098.399     1068265.960    25192887.318      112808.926
> 2019  1 10  9 51 54.2000000  0 8                     
D3704   1133285.410    18976763.287       51175.104     1133285.292    26726236.587       72073.245
D3903   1237091.266    20714977.706      105814.963     1237091.065    29174285.885      149024.598
D4003    892747.114    14948971.156       90289.013      892746.954    21053631.939      127160.199
D4103    797949.434    13361595.328       35912.291      797949.354    18818018.298       50577.290
D5627    860468.926    14408471.981       70880.086      860468.811    20292411.404       99826.540
D5727    505088.473     8457658.976       21856.967      505088.402    11911488.189       30783.077
D5826   1212434.317    20302100.351      105828.167     1212434.128    28592813.491      149044.172
D5926   1067309.406    17872000.495       79871.617     1067309.342    25170325.533      112488.240
> 2019  1 10  9 51 54.4000000  0 8                     
D3704   1132674.129    18966528.266       51025.658     1132673.958    26711821.938       71863.199
D3903   1235827.432    20693814.713      105747.905     1235827.286    29144480.965      148930.514
D4003    891668.668    14930913.353       90238.904      891668.567    21028199.900      127087.536
D4103    797520.497    13354412.870       35714.943      797520.387    18807902.840       50298.157
D5627    859622.427    14394295.963       70763.297      859622.210    20272446.096       99660.007
D5727    504827.439     8453287.583       21519.729      504827.321    11905331.573       30306.890
D5826   1211170.304    20280934.718      105692.465     1211170.123    28563004.656      148852.587
D5926   1066355.434    17856026.172       79785.061     1066355.281    25147827.885      112366.238
> 2019  1 10  9 51 54.6000000  0 8                     
D3704   1132064.713    18956323.135       50869.370     1132064.560    26697449.298       71642.075
D3903   1234564.479    20672665.132      105763.228     1234564.304    29114694.862      148955.026
D4003    890590.916    14912865.572       90178.424      890590.747    21002782.392      127004.862
D4103    797093.948    13347269.881       35668.074      797093.908    18797843.209       50233.216
D5627    858777.218    14380143.304       70643.152      858777.047    20252514.094       99491.158
D5727    504570.454     8448983.637       21322.200      504570.291    11899270.196       30029.505
D5826   1209907.909    20259796.225      105803.026     1209907.806    28533234.139      149009.842
D5926   1065402.526    17840069.160       79708.802     1065402.311    25125354.637      112258.917
> 2019  1 10  9 51 54.8000000  0 8                     
D3704   1131457.196    18946149.261       50733.859     1131456.987    26683120.883       71453.393
D3903   1233301.189    20651512.486      105709.689     1233301.016    29084903.857      148879.796
D4003    889513.791    14894829.888       90074.197      889513.709    20977381.420      126858.526
D4103    796668.001    13340136.266       35317.994      796667.936    18787796.566       49741.235
D5627    857933.454    14366014.674       70442.108      857933.232    20232615.863       99207.844
D5727    504315.726     8444719.197       20871.364      504315.647    11893264.295       29396.175
D5826   1208644.199    20238635.620      105679.257     1208644.024    28503432.170      148834.695
D5926   1064450.447    17824127.399       79709.383     1064450.319    25102902.854      112260.382
> 2019  1 10  9 51 55.0000000  0 8                     
D3704   1130851.232    18936002.489       50627.904     1130850.984    26668830.204       71299.678
D3903   1232038.535    20630370.548      105732.427     1232038.390    29055127.898      148908.718
D4003    888437.945    14876815.048       89964.283      888437.840    20952009.715      126701.747
D4103    796246.115    13333072.668       35267.981      796245.971    18777848.319       49670.418
D5627    857092.047    14351926.252       70363.238      857091.927    20212774.294       99098.355
D5727    504066.410     8440544.924       20717.870      504066.352    11887385.060       29177.285
D5826   1207382.007    20217499.768      105637.145     1207381.845    28473665.231      148776.553
D5926   1063498.448    17808185.523       79494.734     1063498.273    25080450.778      111957.577
> 2019  1 10  9 51 55.2000000  0 8                     
D3704   1130246.551    18925876.908       50516.691     1130246.381    26654570.269       71147.194
D3903   1230775.690    20609224.063      105641.022     1230775.563    29025346.155      148781.407
D4003    887363.446    14858822.192       89943.832      887363.304    20926669.365      126672.675
D4103    795824.885    13326019.071       35098.881      795824.773    18767914.235       49432.888
D5627    856251.595    14337853.605       70290.986      856251.555    20192954.623       98993.421
D5727    503819.027     8436401.350       20381.185      503818.905    11881549.603       28704.472
D5826   1206120.291    20196372.339      105682.730     1206120.074    28443909.921      148840.280
D5926   1062548.989    17792286.576       79511.519     1062548.845    25058059.262      111982.420
> 2019  1 10  9 51 55.4000000  0 8                     
D3704   1129643.144    18915773.570       50391.727     1129643.008    26640340.830       70970.940
D3903   1229513.970    20588095.859      105673.267     1229513.810    28995589.873      148825.191
D4003    886289.133    14840833.425       89856.296      886289.022    20901334.830      126552.819
D4103    795405.617    13318999.295       34813.202      795405.519    18758027.657       49028.889
D5627    855412.138    14323795.407       70079.810      855412.000    20173155.939       98699.853
D5727    503575.588     8432325.113       20003.340      503575.488    11875808.708       28170.373
D5826   1204857.932    20175235.793      105650.079     1204857.854    28414141.865      148792.946
D5926   1061599.278    17776384.272       79362.697     1061599.091    25035662.778      111770.680
> 2019  1 10  9 51 55.6000000  0 8                     
D3704   1129041.265    18905695.224       50318.775     1129041.097    26626146.642       70868.007
D3903   1228251.832    20566961.205      105664.539     1228251.698    28965824.835      148815.851
D4003    885215.962    14822862.166       89770.932      885215.780    20876024.267      126430.362
D4103    794989.841    13312036.655       34705.598      794989.671    18748221.880       48879.064
D5627    854575.074    14309779.445       70023.703      854574.953    20153415.968       98617.741
D5727    503336.678     8428324.445       19739.870      503336.600    11870174.633       27802.299
D5826   1203596.140    20154105.777      105597.000     1203595.992    28384383.276      148718.538
D5926   1060651.340    17760511.733       79303.817     1060651.238    25013308.642      111688.645
> 2019  1 10  9 51 55.8000000  0 8                     
D3704   1128440.201    18895631.469       50115.854     1128440.059    26611973.041       70579.377
D3903   1226989.796    20545828.298      105628.577     1226989.560    28936061.665      148762.470
D4003    884143.685    14804907.980       89691.223      884143.585    20850738.194      126318.909
D4103    794575.313    13305095.535       34519.879      794575.221    18738446.067       48616.706
D5627    853738.811    14295774.705       69907.996      853738.589    20133692.420       98456.898
D5727    503100.849     8424376.471       19398.009      503100.770    11864614.174       27318.531
D5826   1202334.899    20132986.378      105625.064     1202334.773    28354639.568      148757.965
D5926   1059704.240    17744650.970       79187.875     1059704.084    24990970.913      111525.236
> 2019  1 10  9 51 56.0000000  0 8                     
D3704   1127841.697    18885608.299       50045.704     1127841.547    26597857.165       70485.351
D3903   1225728.137    20524702.582      105574.028     1225727.958    28906309.171      148687.221
D4003    883072.387    14786969.735       89668.760      883072.261    20825474.412      126285.589
D4103    794163.044    13298191.559       34345.358      794162.866    18728722.726       48369.795
D5627    852903.723    14281793.106       69750.338      852903.626    20114001.040       98233.606
D5727    502869.180     8420496.869       19162.793      502869.082    11859150.467       26989.450
D5826   1201073.378    20111861.365      105526.852     1201073.246    28324887.975      148623.568
D5926   1058758.359    17728813.395       79121.040     1058758.248    24968665.866      111433.130
> 2019  1 10  9 51 56.2000000  0 8                     
D3704   1127243.873    18875599.158       49928.912     1127243.776    26583760.095       70316.838
D3903   1224467.188    20503587.777      105561.017     1224466.960    28876571.727      148667.584
D4003    882001.455    14769035.983       89551.045      882001.284    20800217.295      126120.030
D4103    793752.839    13291322.488       34113.511      793752.681    18719048.767       48043.653
D5627    852070.718    14267843.038       69673.996      852070.510    20094354.319       98127.130
D5727    502640.229     8416664.311       18780.177      502640.216    11853752.577       26449.376
D5826   1199812.890    20090755.994      105525.002     1199812.722    28295163.261      148617.190
D5926   1057813.349    17712989.187       78960.136     1057813.205    24946379.240      111203.036
> 2019  1 10  9 51 56.4000000  0 8                     
D3704   1126647.618    18865613.375       49808.440     1126647.396    26569696.727       70148.867
D3903   1223206.376    20482475.573      105504.064     1223206.251    28846838.210      148589.110
D4003    880931.856    14751125.774       89414.022      880931.726    20774993.289      125928.587
D4103    793345.390    13284499.785       33982.517      793345.253    18709440.036       47861.596
D5627    851238.431    14253908.239       69506.623      851238.384    20074728.893       97891.186
D5727    502416.005     8412908.275       18506.509      502415.933    11848462.702       26064.124
D5826   1198552.485    20069650.994      105453.932     1198552.387    28265439.823      148518.707
D5926   1056870.292    17697197.159       78998.572     1056870.070    24924138.633      111259.139
> 2019  1 10  9 51 56.6000000  0 8                     
D3704   1126052.668    18855651.688       49665.471     1126052.504    26555666.954       69946.609
D3903   1221946.264    20461374.760      105579.034     1221946.084    28817120.388      148696.175
D4003    879863.841    14733242.970       89436.295      879863.731    20749807.571      125959.671
D4103    792939.507    13277703.282       33763.977      792939.342    18699867.717       47552.562
D5627    850408.297    14240006.914       69356.225      850408.121    20055150.656       97679.236
D5727    502194.940     8409206.973       18221.219      502194.859    11843249.877       25661.402
D5826   1197293.014    20048560.207      105521.772     1197292.813    28235736.082      148612.575
D5926   1055926.702    17681397.445       78821.506     1055926.561    24901886.805      111011.967
> 2019  1 10  9 51 56.8000000  0 8                     
D3704   1125459.452    18845718.593       49543.545     1125459.332    26541677.632       69778.015
D3903   1220685.136    20440258.953      105489.698     1220685.031    28787381.153      148567.627
D4003    878795.661    14715355.711       89378.068      878795.480    20724615.637      125875.130
D4103    792536.165    13270950.487       33583.103      792536.028    18690357.204       47295.677
D5627    849579.914    14226135.669       69294.702      849579.832    20035614.809       97592.477
D5727    501977.377     8405562.729       17890.531      501977.228    11838117.597       25195.699
D5826   1196032.570    20027455.853      105397.205     1196032.414    28206013.567      148437.734
D5926   1054985.247    17665633.144       78742.288     1054985.063    24879684.412      110895.786
> 2019  1 10  9 51 57.0000000  0 8                     
D3704   1124867.601    18835809.884       49386.008     1124867.503    26527722.029       69552.027
D3903   1219425.214    20419161.014      105397.795     1219425.021    28757667.627      148437.575
D4003    877728.270    14697480.097       89231.630      877728.065    20699440.611      125671.601
D4103    792135.060    13264233.866       33432.246      792134.967    18680898.069       47084.831
D5627    848752.199    14212276.729       69091.738      848752.095    20016096.313       97305.950
D5727    501763.622     8401984.623       17563.720      501763.546    11833078.457       24736.834
D5826   1194773.824    20006376.412      105444.117     1194773.603    28176326.020      148503.897
D5926   1054044.730    17649884.686       78687.619     1054044.622    24857505.254      110821.149
> 2019  1 10  9 51 57.2000000  0 8                     
D3704   1124277.861    18825932.683       49338.453     1124277.747    26513811.624       69485.636
D3903   1218166.378    20398081.455      105509.532     1218166.223    28727980.112      148597.424
D4003    876662.345    14679633.771       89191.130      876662.216    20674306.291      125614.468
D4103    791735.768    13257547.417       33296.060      791735.652    18671481.103       46894.601
D5627    847926.975    14198458.381       69072.904      847926.909    19996635.123       97280.404
D5727    501553.898     8398471.879       17270.956      501553.807    11828131.090       24323.599
D5826   1193514.359    19985287.589      105399.020     1193514.232    28146625.241      148439.803
D5926   1053104.960    17634147.162       78554.315     1053104.803    24835341.025      110633.754
> 2019  1 10  9 51 57.4000000  0 8                     
D3704   1123688.584    18816064.992       49137.718     1123688.380    26499914.497       69202.847
D3903   1216906.085    20376979.548      105387.512     1216906.002    28698260.628      148424.305
D4003    875597.070    14661795.545       89128.398      875596.930    20649183.397      125524.524
D4103    791338.045    13250888.205       33034.249      791337.903    18662102.183       46523.185
D5627    847101.989    14184643.800       68881.441      847101.906    19977179.043       97009.007
D5727    501347.586     8395017.688       16900.211      501347.494    11823266.370       23801.862
D5826   1192255.496    19964207.785      105306.259     1192255.321    28116937.280      148310.435
D5926   1052166.641    17618436.299       78487.359     1052166.528    24813214.274      110537.362
> 2019  1 10  9 51 57.6000000  0 8                     
D3704   1123101.693    18806237.449       49169.034     1123101.633    26486073.927       69251.212
D3903   1215647.397    20355902.046      105423.308     1215647.235    28668575.767      148473.960
D4003    874532.507    14643969.865       89009.768      874532.425    20624078.493      125358.796
D4103    790943.538    13244281.355       32854.347      790943.426    18652797.546       46271.971
D5627    846279.296    14170867.512       68782.861      846279.200    19957777.241       96874.090
D5727    501145.707     8391637.646       16684.827      501145.667    11818505.998       23498.897
D5826   1190997.703    19943146.533      105343.288     1190997.553    28087275.193      148360.786
D5926   1051229.334    17602738.828       78427.434     1051229.084    24791106.801      110455.248
> 2019  1 10  9 51 57.8000000  0 8                     
D3704   1122514.344    18796403.642       48913.910     1122514.179    26472223.685       68886.019
D3903   1214388.236    20334817.384      105359.025     1214388.058    28638880.975      148383.587
D4003    873469.384    14626167.912       88917.116      873469.291    20599006.733      125227.215
D4103    790551.091    13237710.486       32699.045      790551.031    18643543.152       46051.593
D5627    845457.735    14157110.940       68602.391      845457.582    19938402.423       96616.402
D5727    500946.461     8388300.681       16349.080      500946.376    11813806.219       23025.748
D5826   1189739.613    19922077.875      105347.577     1189739.363    28057603.036      148368.799
D5926   1050292.499    17587053.341       78192.150     1050292.386    24769015.752      110123.466
> 2019  1 10  9 51 58.0000000  0 8                     
D3704   1121930.177    18786620.860       48808.631     1121930.042    26458446.481       68741.995
D3903   1213129.852    20313745.579      105313.173     1213129.725    28609204.257      148321.405
D4003    872407.411    14608384.489       88906.027      872407.276    20573961.290      125213.651
D4103    790160.530    13231170.677       32518.774      790160.443    18634332.833       45798.759
D5627    844638.358    14143390.462       68558.316      844638.216    19919079.143       96555.717
D5727    500751.148     8385030.865       15957.300      500751.042    11809201.069       22473.560
D5826   1188481.299    19901008.360      105255.554     1188481.041    28027929.276      148237.425
D5926   1049358.638    17571414.911       78272.204     1049358.443    24746991.059      110234.753
> 2019  1 10  9 51 58.2000000  0 8                     
D3704   1121347.190    18776859.134       48635.256     1121347.016    26444698.082       68495.757
D3903   1211871.964    20292682.945      105369.180     1211871.838    28579539.976      148396.012
D4003    871345.440    14590603.283       88828.228      871345.326    20548918.560      125101.971
D4103    789772.157    13224666.922       32411.205      789771.979    18625173.081       45647.345
D5627    843819.462    14129678.799       68315.075      843819.376    19899767.999       96212.114
D5727    500560.597     8381839.405       15786.424      500560.555    11804706.357       22233.341
D5826   1187224.183    19879957.249      105272.099     1187223.999    27998281.791      148262.302
D5926   1048423.749    17555760.470       78114.058     1048423.631    24724944.108      110015.284
> 2019  1 10  9 51 58.4000000  0 8                     
D3704   1120766.284    18767132.083       48633.263     1120766.146    26430998.931       68494.036
D3903   1210613.592    20271609.109      105319.114     1210613.360    28549860.774      148328.267
D4003    870284.545    14572837.638       88664.261      870284.423    20523898.166      124873.137
D4103    789385.015    13218184.681       32101.481      789384.935    18616043.612       45209.684
D5627    843003.568    14116015.784       68347.246      843003.478    19880525.576       96259.146
D5727    500372.048     8378682.120       15356.317      500371.901    11800259.689       21627.367
D5826   1185966.720    19858902.829      105208.695     1185966.577    27968629.331      148172.821
D5926   1047490.692    17540137.659       78046.672     1047490.569    24702941.051      109919.466
> 2019  1 10  9 51 58.6000000  0 8                     
D3704   1120185.454    18757405.430       48434.656     1120185.257    26417300.124       68213.101
D3903   1209355.562    20250545.286      105225.425     1209355.355    28520195.120      148197.262
D4003    869225.484    14555104.786       88759.234      869225.349    20498923.539      125005.154
D4103    789001.629    13211764.385       31907.224      789001.517    18607001.675       44934.964
D5627    842187.208    14102346.334       68081.543      842187.106    19861273.747       95881.016
D5727    500188.637     8375610.856       15064.667      500188.506    11795934.215       21215.821
D5826   1184710.139    19837861.090      105217.402     1184710.014    27938994.767      148184.433
D5926   1046558.534    17524528.324       77899.921     1046558.359    24680957.158      109710.550
> 2019  1 10  9 51 58.8000000  0 8                     
D3704   1119606.961    18747718.499       48265.772     1119606.777    26403657.503       67977.632
D3903   1208098.677    20229500.201      105246.749     1208098.552    28490555.668      148227.408
D4003    868165.355    14537352.939       88478.345      868165.256    20473922.508      124608.559
D4103    788620.587    13205382.940       31789.423      788620.457    18598014.683       44772.260
D5627    841374.154    14088730.026       67991.044      841373.986    19842097.544       95755.919
D5727    500008.643     8372597.923       14849.208      500008.590    11791691.051       20913.308
D5826   1183453.422    19816817.610      105114.083     1183453.232    27909357.880      148039.490
D5926   1045628.094    17508948.340       77852.834     1045627.965    24659015.048      109644.294
> 2019  1 10  9 51 59.0000000  0 8                     
D3704   1119030.437    18738065.344       48227.737     1119030.268    26390061.977       67921.652
D3903   1206841.642    20208450.851      105256.081     1206841.466    28460910.186      148236.695
D4003    867108.580    14519657.270       88519.304      867108.495    20449000.796      124669.242
D4103    788240.819    13199025.055       31584.297      788240.742    18589060.231       44482.930
D5627    840562.039    14075131.817       67913.390      840561.887    19822946.360       95648.870
D5727    499831.272     8369628.082       14448.265      499831.208    11787508.390       20349.829
D5826   1182197.926    19795794.793      105191.595     1182197.794    27879749.982      148148.561
D5926   1044698.200    17493377.773       77753.181     1044698.080    24637086.189      109505.360
> 2019  1 10  9 51 59.2000000  0 8                     
D3704   1118454.369    18728419.797       48083.428     1118454.305    26376477.646       67718.586
D3903   1205584.460    20187399.635      105171.924     1205584.380    28431262.847      148121.083
D4003    866051.385    14501953.409       88404.609      866051.240    20424066.947      124504.761
D4103    787863.560    13192708.196       31462.533      787863.441    18580163.645       44310.117
D5627    839750.815    14061549.139       67752.522      839750.727    19803816.586       95418.785
D5727    499658.704     8366738.429       14154.550      499658.617    11783438.424       19933.294
D5826   1180941.564    19774756.474      105113.590     1180941.383    27850120.270      148038.301
D5926   1043769.524    17477827.137       77636.317     1043769.416    24615185.117      109340.480
> 2019  1 10  9 51 59.4000000  0 8                     
D3704   1117880.081    18718803.111       47949.588     1117879.959    26362933.929       67529.364
D3903   1204328.385    20166365.250      105200.914     1204328.200    28401638.631      148160.360
D4003    864995.446    14484272.487       88350.544      864995.372    20399165.995      124430.258
D4103    787487.834    13186415.689       31198.724      787487.727    18571301.621       43939.225
D5627    838941.658    14047998.634       67600.991      838941.521    19784732.829       95208.800
D5727    499489.679     8363907.519       13811.391      499489.601    11779451.765       19450.948
D5826   1179686.018    19753733.756      105072.070     1179685.907    27820512.610      147980.493
D5926   1042842.270    17462299.874       77589.707     1042842.104    24593317.021      109274.141
> 2019  1 10  9 51 59.6000000  0 8                     
D3704   1117307.387    18709213.194       47842.980     1117307.278    26349428.056       67380.018
D3903   1203071.848    20145325.068      105157.208     1203071.706    28372006.558      148099.771
D4003    863940.212    14466602.379       88237.271      863940.094    20374279.943      124270.439
D4103    787115.160    13180175.944       31033.325      787115.079    18562513.776       43707.535
D5627    838134.205    14034478.436       67499.165      838134.036    19765691.069       95063.389
D5727    499324.764     8361145.240       13512.886      499324.645    11775561.576       19032.077
D5826   1178431.107    19732719.342      105080.867     1178430.974    27790916.511      147990.882
D5926   1041915.535    17446781.932       77490.567     1041915.413    24571462.193      109135.156
> 2019  1 10  9 51 59.8000000  0 8                     
D3704   1116736.036    18699644.598       47702.671     1116735.805    26335952.053       67184.947
D3903   1201815.832    20124293.626      105200.845     1201815.714    28342386.604      148161.097
D4003    862886.286    14448954.924       88239.722      862886.174    20349425.856      124273.460
D4103    786744.485    13173969.279       30908.507      786744.393    18553772.269       43529.770
D5627    837327.962    14020978.603       67372.465      837327.902    19746678.392       94885.590
D5727    499163.344     8358442.663       13228.367      499163.261    11771755.160       18629.186
D5826   1177176.084    19711703.169      104989.167     1177175.881    27761318.335      147863.525
D5926   1040989.964    17431283.819       77334.976     1040989.915    24549635.162      108917.070
> 2019  1 10  9 52  0.0000000  0 8                     
D3704   1116166.181    18690104.064       47505.839     1116165.995    26322515.063       66905.312
D3903   1200559.319    20103253.457      105005.296     1200559.183    28312754.385      147887.403
D4003    861832.382    14431306.980       88015.663      861832.239    20324571.164      123958.259
D4103    786375.366    13167787.578       30635.047      786375.268    18545066.315       43147.548
D5627    836523.240    14007504.110       67248.901      836523.109    19727701.274       94709.894
D5727    499005.320     8355796.990       12919.127      499005.254    11768029.323       18196.002
D5826   1175922.047    19690705.336      105027.023     1175921.854    27731745.630      147917.126
D5926   1040066.311    17415816.824       77310.646     1040066.165    24527851.748      108879.392
> 2019  1 10  9 52  0.2000000  0 8                     
D3704   1115598.836    18680602.896       47466.680     1115598.642    26309134.001       66848.658
D3903   1199305.125    20082252.398      105127.651     1199304.973    28283176.904      148057.796
D4003    860781.159    14413703.848       88092.335      860780.974    20299779.512      124066.791
D4103    786009.380    13161660.569       30463.149      786009.279    18536436.805       42900.222
D5627    835720.080    13994054.330       67077.348      835719.973    19708759.295       94468.559
D5727    498851.030     8353213.164       12537.084      498850.911    11764390.122       17656.658
D5826   1174667.675    19669699.931      104901.749     1174667.440    27702162.205      147739.119
D5926   1039142.985    17400354.694       77194.650     1039142.838    24506075.869      108721.281
> 2019  1 10  9 52  0.4000000  0 8                     
D3704   1115031.970    18671109.560       47350.227     1115031.731    26295764.269       66687.716
D3903   1198049.511    20061226.867      105064.373     1198049.435    28253565.345      147969.297
D4003    859729.000    14396085.381       87868.741      859728.856    20274966.154      123753.578
D4103    785645.662    13155567.939       30308.665      785645.488    18527856.761       42686.136
D5627    834918.979    13980638.860       66934.420      834918.881    19689865.583       94269.919
D5727    498701.319     8350705.748       12335.111      498701.197    11760858.791       17372.405
D5826   1173414.712    19648719.581      104981.018     1173414.561    27672614.381      147852.353
D5926   1038220.880    17384915.764       77080.289     1038220.742    24484331.613      108556.393
> 2019  1 10  9 52  0.6000000  0 8                     
D3704   1114466.306    18661639.515       47168.371     1114466.172    26282426.726       66430.771
D3903   1196794.644    20040213.993      105035.874     1196794.519    28223971.485      147929.862
D4003    858679.392    14378511.632       87847.324      858679.302    20250215.438      123718.959
D4103    785283.652    13149506.206       30081.417      785283.583    18519319.534       42366.724
D5627    834119.434    13967251.976       66890.543      834119.351    19671011.599       94206.953
D5727    498553.915     8348238.725       11867.216      498553.858    11757384.310       16711.965
D5826   1172160.787    19627723.377      104896.168     1172160.621    27643043.910      147732.728
D5926   1037300.310    17369499.707       76973.326     1037300.129    24462620.335      108406.522
> 2019  1 10  9 52  0.8000000  0 8                     
D3704   1113902.957    18652205.840       47092.495     1113902.773    26269140.572       66323.807
D3903   1195540.067    20019206.818      105000.005     1195539.893    28194385.513      147877.922
D4003    857630.238    14360942.168       87817.600      857630.054    20225471.646      123678.836
D4103    784924.251    13143489.923       29939.170      784924.166    18510846.189       42164.362
D5627    833320.506    13953873.868       66683.726      833320.382    19652170.209       93914.908
D5727    498412.210     8345865.282       11653.610      498412.128    11754041.917       16414.408
D5826   1170907.899    19606744.144      104872.076     1170907.745    27613497.365      147697.885
D5926   1036380.937    17354105.041       76909.385     1036380.737    24440939.030      108317.439
> 2019  1 10  9 52  1.0000000  0 8                     
D3704   1113340.450    18642787.341       46913.670     1113340.294    26255875.811       66070.997
D3903   1194286.026    19998206.817      104978.808     1194285.833    28164809.929      147848.257
D4003    856581.361    14343378.648       87694.882      856581.195    20200735.879      123507.066
D4103    784566.738    13137502.089       29740.264      784566.649    18502413.317       41884.413
D5627    832524.001    13940537.123       66612.180      832523.933    19633387.227       93813.278
D5727    498273.031     8343534.560       11303.694      498272.971    11750759.035       15919.242
D5826   1169655.328    19585769.729      104886.713     1169655.188    27583957.788      147721.781
D5926   1035462.277    17338723.164       76792.577     1035462.163    24419275.542      108150.467
> 2019  1 10  9 52  1.2000000  0 8                     
D3704   1112780.209    18633404.607       46862.977     1112779.961    26242661.611       66000.672
D3903   1193032.128    19977211.055      104994.285     1193031.967    28135240.277      147871.594
D4003    855533.866    14325839.671       87595.870      855533.795    20176034.466      123367.516
D4103    784211.541    13131554.036       29558.430      784211.389    18494036.434       41630.390
D5627    831728.461    13927214.687       66373.701      831728.326    19614624.571       93478.837
D5727    498138.023     8341273.821       11020.569      498137.900    11747575.187       15520.311
D5826   1168402.526    19564792.386      104810.700     1168402.396    27554413.432      147607.777
D5926   1034545.118    17323364.649       76670.302     1034544.942    24397645.449      107982.300
> 2019  1 10  9 52  1.4000000  0 8                     
D3704   1112220.336    18624032.012       46700.646     1112220.221    26229461.477       65771.568
D3903   1191778.042    19956212.198      104850.986     1191777.924    28105665.959      147669.969
D4003    854487.678    14308320.497       87593.361      854487.546    20151360.963      123362.931
D4103    783858.420    13125642.350       29384.520      783858.298    18485710.356       41385.653
D5627    830935.675    13913939.946       66301.796      830935.566    19595928.804       93377.890
D5727    498006.454     8339069.707       10738.684      498006.350    11744471.125       15124.372
D5826   1167150.728    19543830.246      104818.192     1167150.554    27524891.876      147624.051
D5926   1033629.335    17308030.589       76668.583     1033629.194    24376048.989      107976.854
> 2019  1 10  9 52  1.6000000  0 8                     
D3704   1111662.622    18614691.883       46565.800     1111662.518    26216307.163       65580.659
D3903   1190525.654    19935242.001      104925.567     1190525.495    28076131.965      147770.944
D4003    853441.448    14290801.825       87470.143      853441.330    20126688.376      123190.767
D4103    783507.456    13119765.446       29182.624      783507.347    18477433.226       41099.036
D5627    830143.756    13900679.587       66242.676      830143.628    19577253.226       93294.601
D5727    497878.142     8336921.971       10307.542      497878.083    11741446.250       14516.614
D5826   1165898.777    19522866.608      104727.523     1165898.608    27495367.066      147495.285
D5926   1032713.595    17292696.872       76592.581     1032713.471    24354453.618      107869.689
> 2019  1 10  9 52  1.8000000  0 8                     
D3704   1111106.513    18605378.723       46395.196     1111106.315    26203191.032       65342.257
D3903   1189272.557    19914256.888      104851.280     1189272.366    28046577.776      147671.269
D4003    852396.705    14273307.796       87317.914      852396.588    20102050.223      122974.463
D4103    783158.964    13113928.921       29030.279      783158.803    18469213.418       40884.563
D5627    829352.560    13887431.052       65981.229      829352.365    19558594.306       92925.346
D5727    497755.114     8334860.462       10037.856      497754.949    11738542.928       14136.896
D5826   1164647.896    19501921.103      104716.034     1164647.815    27465868.009      147478.997
D5926   1031798.777    17277378.356       76372.430     1031798.672    24332879.681      107560.819
> 2019  1 10  9 52  2.0000000  0 8                     
D3704   1110552.288    18596099.683       46358.283     1110552.161    26190122.580       65289.325
D3903   1188020.121    19893286.632      104872.068     1188020.025    28017043.522      147697.400
D4003    851353.870    14255844.214       87260.297      851353.638    20077455.330      122893.285
D4103    782812.235    13108122.865       28763.039      782812.077    18461036.506       40509.880
D5627    828564.474    13874234.806       65942.004      828564.363    19540009.237       92870.779
D5727    497635.217     8332852.891        9701.781      497635.016    11735715.548       13663.296
D5826   1163397.177    19480977.896      104711.654     1163396.995    27436372.209      147473.072
D5926   1030886.654    17262103.870       76347.080     1030886.414    24311367.517      107523.613
> 2019  1 10  9 52  2.2000000  0 8                     
D3704   1109998.637    18586828.027       46163.514     1109998.443    26177064.715       65015.888
D3903   1186767.549    19872312.218      104829.040     1186767.428    27987504.042      147638.998
D4003    850311.627    14238392.154       87180.569      850311.477    20052876.673      122784.806
D4103    782468.645    13102370.257       28612.084      782468.442    18452934.530       40297.467
D5627    827776.874    13861046.405       65759.271      827776.773    19521435.081       92612.310
D5727    497519.250     8330912.535        9512.567      497519.217    11732982.889       13397.749
D5826   1162146.480    19460035.565      104692.460     1162146.315    27406877.595      147442.044
D5926   1029974.808    17246834.454       76227.108     1029974.596    24289862.794      107356.533
> 2019  1 10  9 52  2.4000000  0 8                     
D3704   1109447.198    18577595.324       46066.038     1109447.053    26164061.538       64877.708
D3903   1185515.485    19851346.410      104743.157     1185515.319    27957976.242      147515.638
D4003    849270.282    14220956.040       87141.681      849270.161    20028319.712      122725.581
D4103    782126.885    13096647.840       28421.543      782126.748    18444875.036       40026.714
D5627    826991.438    13847894.551       65639.589      826991.339    19502912.619       92445.305
D5727    497405.594     8329010.022        9083.799      497405.554    11730303.340       12794.071
D5826   1160896.112    19439097.073      104647.832     1160895.973    27377389.186      147383.823
D5926   1029064.291    17231589.032       76135.448     1029064.155    24268391.488      107225.148
> 2019  1 10  9 52  2.6000000  0 8                     
D3704   1108897.028    18568382.116       45906.274     1108896.825    26151085.996       64650.708
D3903   1184264.464    19830397.779      104803.617     1184264.363    27928473.115      147601.750
D4003    848229.537    14203527.704       87053.199      848229.386    20003774.596      122605.395
D4103    781787.376    13090963.532       28207.322      781787.335    18436869.694       39726.139
D5627    826207.436    13834766.634       65541.514      826207.276    19484423.558       92306.314
D5727    497297.124     8327193.262        8806.040      497297.071    11727744.525       12402.265
D5826   1159646.209    19418167.507      104611.162     1159646.036    27347912.422      147330.611
D5926   1028154.973    17216361.943       76036.366     1028154.847    24246946.458      107088.350
> 2019  1 10  9 52  2.8000000  0 8                     
D3704   1108348.797    18559200.862       45816.149     1108348.599    26138155.855       64526.870
D3903   1183012.695    19809437.055      104711.079     1183012.532    27898952.765      147471.363
D4003    847189.686    14186117.064       86930.799      847189.583    19979253.517      122429.792
D4103    781450.541    13085322.067       28104.654      781450.424    18428924.466       39581.203
D5627    825424.631    13821658.331       65353.645      825424.506    19465962.295       92041.496
D5727    497191.920     8325432.054        8479.570      497191.843    11725264.072       11941.841
D5826   1158396.770    19397245.274      104571.087     1158396.531    27318446.299      147273.624
D5926   1027246.832    17201154.670       75955.135     1027246.631    24225528.788      106970.539
> 2019  1 10  9 52  3.0000000  0 8                     
D3704   1107801.578    18550037.632       45717.440     1107801.380    26125250.481       64386.484
D3903   1181762.040    19788494.839      104763.199     1181761.911    27869458.492      147545.627
D4003    846151.395    14168730.905       86899.360      846151.277    19954767.559      122387.196
D4103    781114.831    13079701.137       27886.208      781114.791    18421008.225       39275.134
D5627    824644.099    13808587.602       65240.020      824643.918    19447553.996       91880.887
D5727    497090.688     8323736.140        8104.754      497090.559    11722875.704       11413.881
D5826   1157147.751    19376331.057      104568.244     1157147.583    27288991.574      147273.723
D5926   1026339.599    17185963.643       75796.693     1026339.514    24204134.680      106751.954
> 2019  1 10  9 52  3.2000000  0 8                     
D3704   1107255.492    18540894.144       45535.042     1107255.365    26112373.184       64130.622
D3903   1180510.736    19767542.199      104676.330     1180510.543    27839949.367      147422.843
D4003    845113.527    14151351.032       86744.667      845113.441    19930290.120      122167.535
D4103    780781.779    13074123.895       27649.686      780781.661    18413153.198       38939.119
D5627    823864.888    13795539.598       65049.590      823864.757    19429177.819       91616.274
D5727    496993.902     8322115.189        7860.480      496993.814    11720592.928       11071.931
D5826   1155898.678    19355417.408      104511.320     1155898.598    27259536.830      147189.005
D5926   1025434.201    17170804.304       75756.213     1025434.128    24182784.289      106689.796
> 2019  1 10  9 52  3.4000000  0 8                     
D3704   1106711.586    18531787.136       45366.258     1106711.474    26099547.059       63892.120
D3903   1179260.513    19746606.933      104704.208     1179260.340    27810464.798      147461.275
D4003    844077.391    14134002.099       86690.448      844077.287    19905856.613      122091.957
D4103    780451.517    13068593.958       27436.708      780451.416    18405365.375       38639.982
D5627    823087.892    13782529.680       65000.293      823087.699    19410854.564       91543.146
D5727    496899.937     8320543.093        7551.596      496899.926    11718378.542       10634.546
D5826   1154650.499    19334515.144      104503.920     1154650.333    27230099.029      147179.357
D5926   1024529.514    17155653.061       75619.126     1024529.356    24161446.330      106501.502
> 2019  1 10  9 52  3.6000000  0 8                     
D3704   1106169.728    18522713.884       45304.449     1106169.558    26086768.635       63805.399
D3903   1178009.872    19725666.092      104660.971     1178009.800    27780972.543      147400.804
D4003    843042.005    14116664.010       86642.348      843041.862    19881438.221      122022.580
D4103    780123.906    13063106.616       27400.881      780123.751    18397637.378       38591.942
D5627    822311.508    13769529.621       64816.472      822311.463    19392545.934       91285.333
D5727    496809.786     8319032.774        7171.268      496809.710    11716251.633       10100.737
D5826   1153402.289    19313614.360      104468.255     1153402.107    27200663.157      147128.410
D5926   1023626.252    17140529.236       75582.860     1023626.135    24140146.030      106448.964
> 2019  1 10  9 52  3.8000000  0 8                     
D3704   1105628.664    18513652.994       45184.081     1105628.494    26074007.556       63635.358
D3903   1176759.886    19704733.898      104607.307     1176759.730    27751492.382      147324.730
D4003    842007.123    14099335.540       86546.429      842007.025    19857033.705      121889.834
D4103    779796.530    13057626.440       27039.167      779796.432    18389918.990       38080.836
D5627    821537.329    13756566.327       64659.143      821537.211    19374288.868       91063.209
D5727    496724.078     8317598.521        6884.606      496724.091    11714231.485        9694.100
D5826   1152154.601    19292720.709      104402.175     1152154.410    27171237.475      147037.724
D5926   1022723.457    17125412.664       75439.837     1022723.353    24118856.237      106245.795
> 2019  1 10  9 52  4.0000000  0 8                     
D3704   1105088.957    18504616.178       45044.410     1105088.832    26061280.484       63439.302
D3903   1175510.496    19683812.436      104546.420     1175510.339    27722027.436      147241.078
D4003    840973.467    14082026.254       86414.141      840973.337    19832655.738      121701.624
D4103    779473.679    13052218.607       26933.304      779473.556    18382302.823       37932.698
D5627    820765.040    13743634.498       64576.589      820764.913    19356076.226       90947.892
D5727    496641.893     8316221.599        6552.497      496641.813    11712292.665        9229.566
D5826   1150907.548    19271840.274      104431.429     1150907.464    27141829.931      147077.520
D5926   1021822.468    17110324.697       75377.923     1021822.301    24097607.078      106159.573
> 2019  1 10  9 52  4.2000000  0 8                     
D3704   1104550.953    18495607.296       44841.831     1104550.809    26048592.624       63154.523
D3903   1174261.692    19662903.152      104580.262     1174261.630    27692579.221      147286.054
D4003    839941.319    14064743.426       86370.224      839941.259    19808315.414      121641.233
D4103    779151.929    13046831.946       26715.425      779151.793    18374716.283       37624.197
D5627    819993.746    13730719.180       64399.395      819993.611    19337886.648       90699.212
D5727    496563.650     8314911.100        6194.396      496563.563    11710446.752        8724.498
D5826   1149660.215    19250953.988      104393.705     1149660.078    27112414.427      147023.794
D5926   1020922.119    17095249.112       75216.140     1020921.997    24076375.163      105933.628
> 2019  1 10  9 52  4.4000000  0 8                     
D3704   1104015.369    18486638.930       44797.605     1104015.250    26035961.719       63091.025
D3903   1173012.696    19641987.100      104513.875     1173012.510    27663122.010      147195.646
D4003    838909.774    14047469.381       86235.774      838909.591    19783987.167      121450.820
D4103    778832.847    13041488.861       26530.138      778832.666    18367191.444       37363.980
D5627    819224.536    13717839.301       64253.421      819224.460    19319746.805       90491.415
D5727    496489.673     8313672.221        5999.889      496489.607    11708701.852        8449.783
D5826   1148413.352    19230075.247      104335.833     1148413.271    27083009.668      146944.339
D5926   1020023.729    17080205.884       75119.145     1020023.632    24055188.438      105793.869
> 2019  1 10  9 52  4.6000000  0 8                     
D3704   1103480.272    18477679.409       44644.674     1103480.120    26023343.514       62876.815
D3903   1171764.364    19621084.325      104505.638     1171764.147    27633682.881      147180.921
D4003    837879.705    14030222.226       86192.138      837879.668    19759697.003      121392.183
D4103    778515.970    13036182.833       26336.781      778515.889    18359718.648       37092.099
D5627    818457.176    13704988.617       64129.942      818456.999    19301648.522       90316.700
D5727    496417.931     8312472.243        5560.800      496417.871    11707011.896        7830.494
D5826   1147167.184    19209208.081      104287.663     1147167.126    27053620.800      146875.014
D5926   1019126.537    17065182.055       75070.484     1019126.368    24034029.664      105725.820
> 2019  1 10  9 52  4.8000000  0 8                     
D3704   1102947.059    18468750.474       44536.262     1102946.895    26010768.151       62721.919
D3903   1170516.166    19600183.197      104506.669     1170515.977    27604246.697      147184.787
D4003    836850.293    14012983.799       86110.524      836850.086    19735418.566      121275.111
D4103    778201.377    13030915.477       26176.107      778201.296    18352300.228       36865.213
D5627    817691.239    13692162.629       63996.228      817691.043    19283585.182       90131.737
D5727    496351.672     8311360.083        5325.187      496351.527    11705445.797        7499.904
D5826   1145921.592    19188350.548      104280.181     1145921.472    27024245.797      146865.067
D5926   1018229.994    17050167.959       74967.281     1018229.839    24012884.500      105585.912
> 2019  1 10  9 52  5.0000000  0 8                     
D3704   1102415.152    18459843.222       44371.023     1102414.981    25998223.767       62491.720
D3903   1169267.904    19579281.863      104458.363     1169267.704    27574809.739      147113.131
D4003    835821.770    13995761.694       86020.586      835821.652    19711163.544      121149.411
D4103    777888.750    13025680.256       25964.313      777888.668    18344927.185       36567.959
D5627    816926.810    13679363.383       63865.694      816926.667    19265558.835       89945.403
D5727    496287.972     8310295.046        4963.195      496287.948    11703945.816        6989.657
D5826   1144676.069    19167494.512      104260.450     1144675.907    26994872.784      146837.156
D5926   1017334.451    17035174.502       74853.419     1017334.292    23991767.318      105417.610
> 2019  1 10  9 52  5.2000000  0 8                     
D3704   1101885.205    18450969.017       44259.960     1101885.035    25985725.423       62334.442
D3903   1168020.325    19558390.191      104389.318     1168020.147    27545387.113      147019.721
D4003    834794.297    13978557.577       85972.363      834794.181    19686933.662      121079.209
D4103    777578.627    13020487.393       25766.973      777578.467    18337613.593       36289.337
D5627    816163.975    13666590.244       63745.459      816163.917    19247569.754       89778.010
D5727    496228.754     8309302.407        4581.917      496228.671    11702547.885        6454.203
D5826   1143430.855    19146642.422      104194.490     1143430.645    26965505.353      146745.320
D5926   1016440.486    17020203.818       74732.078     1016440.317    23970683.796      105249.728
> 2019  1 10  9 52  5.4000000  0 8                     
D3704   1101356.504    18442117.025       44120.614     1101356.386    25973258.535       62138.661
D3903   1166773.526    19537512.327      104434.064     1166773.348    27515983.169      147081.134
D4003    833767.482    13961363.104       85779.692      833767.325    19662717.820      120809.166
D4103    777270.911    13015333.999       25506.795      777270.811    18330355.726       35922.387
D5627    815402.667    13653841.152       63538.510      815402.557    19229614.152       89483.153
D5727    496173.949     8308386.023        4375.921      496173.906    11701257.044        6162.846
D5826   1142186.263    19125803.524      104194.065     1142186.144    26936156.289      146740.646
D5926   1015547.881    17005257.403       74666.884     1015547.749    23949633.850      105160.151
> 2019  1 10  9 52  5.6000000  0 8                     
D3704   1100829.501    18433292.902       43971.717     1100829.373    25960830.803       61927.373
D3903   1165526.167    19516625.514      104356.780     1165526.020    27486566.942      146974.448
D4003    832742.983    13944207.166       85716.998      832742.797    19638555.987      120721.199
D4103    776966.254    13010232.640       25407.877      776966.163    18323171.249       35783.642
D5627    814643.811    13641133.450       63439.696      814643.641    19211717.522       89347.264
D5727    496121.659     8307510.839        3935.127      496121.578    11700024.475        5541.805
D5826   1140941.821    19104964.711      104120.064     1140941.708    26906808.160      146640.964
D5926   1014656.020    16990324.026       74530.561     1014655.921    23928601.820      104966.886
> 2019  1 10  9 52  5.8000000  0 8                     
D3704   1100304.356    18424498.559       43864.262     1100304.208    25948445.328       61775.267
D3903   1164279.656    19495754.158      104325.209     1164279.548    27457172.053      146928.789
D4003    831719.112    13927063.766       85683.069      831719.045    19614411.747      120672.710
D4103    776662.777    13005151.064       25249.189      776662.640    18316014.520       35561.462
D5627    813886.050    13628445.511       63304.042      813885.965    19193848.069       89157.373
D5727    496074.746     8306723.814        3724.200      496074.573    11698916.114        5245.636
D5826   1139698.220    19084140.698      104177.761     1139698.039    26877479.967      146718.750
D5926   1013765.812    16975417.914       74408.924     1013765.712    23907608.443      104794.253
> 2019  1 10  9 52  6.0000000  0 8                     
D3704   1099780.542    18415725.706       43771.343     1099780.291    25936090.275       61646.481
D3903   1163033.590    19474889.117      104345.413     1163033.403    27427786.295      146953.040
D4003    830695.780    13909927.152       85597.384      830695.621    19590277.205      120552.923
D4103    776361.136    13000101.226       24953.972      776361.087    18308902.228       35145.202
D5627    813129.850    13615784.703       63100.932      813129.779    19176016.594       88869.487
D5727    496030.235     8305978.974        3339.827      496030.166    11697866.987        4702.983
D5826   1138453.965    19063305.146      104037.214     1138453.805    26848136.217      146525.861
D5926   1012877.138    16960536.129       74405.648     1012876.950    23886649.592      104788.996
> 2019  1 10  9 52  6.2000000  0 8                     
D3704   1099257.668    18406971.438       43556.004     1099257.504    25923760.978       61345.491
D3903   1161787.388    19454020.034      104276.650     1161787.291    27398395.687      146861.091
D4003    829673.364    13892807.676       85431.537      829673.296    19566166.621      120319.319
D4103    776063.084    12995110.432       24859.718      776062.985    18301873.187       35008.495
D5627    812376.252    13603164.516       63057.768      812376.131    19158242.697       88806.334
D5727    495990.380     8305311.009        3113.934      495990.275    11696926.390        4384.520
D5826   1137211.246    19042497.703      104072.512     1137211.118    26818831.045      146569.936
D5926   1011988.462    16945654.999       74208.072     1011988.345    23865691.793      104513.604
> 2019  1 10  9 52  6.4000000  0 8                     
D3704   1098737.355    18398260.237       43416.568     1098737.261    25911491.880       61143.767
D3903   1160541.882    19433164.704      104261.751     1160541.725    27369023.469      146839.967
D4003    828653.005    13875721.368       85427.956      828652.828    19542102.757      120312.516
D4103    775766.271    12990138.488       24572.575      775766.111    18294871.488       34608.518
D5627    811623.158    13590552.963       62785.925      811622.955    19140481.430       88425.329
D5727    495953.178     8304688.222        2717.768      495953.072    11696049.486        3828.656
D5826   1135968.280    19021683.201      104037.400     1135968.113    26789517.058      146521.781
D5926   1011102.108    16930813.385       74182.853     1011101.939    23844789.072      104476.360
> 2019  1 10  9 52  6.6000000  0 8                     
D3704   1098218.901    18389576.923       43447.099     1098218.722    25899263.127       61189.690
D3903   1159296.601    19412312.354      104218.814     1159296.412    27339655.475      146777.749
D4003    827632.620    13858635.777       85291.366      827632.554    19518040.254      120121.911
D4103    775472.620    12985223.973       24459.402      775472.629    18287949.785       34446.860
D5627    810873.195    13577995.778       62780.392      810873.106    19122796.365       88418.270
D5727    495920.661     8304144.668        2413.960      495920.647    11695283.755        3400.246
D5826   1134725.689    19000875.721      103953.687     1134725.544    26760212.701      146407.173
D5926   1010216.043    16915976.815       73988.582     1010215.887    23823893.800      104204.515
> 2019  1 10  9 52  6.8000000  0 8                     
D3704   1097700.006    18380887.504       43146.533     1097699.801    25887025.189       60767.374
D3903   1158051.795    19391468.591      104185.003     1158051.627    27310299.925      146731.885
D4003    826613.916    13841577.504       85197.495      826613.818    19494015.872      119988.924
D4103    775180.640    12980332.093       24212.121      775180.520    18281060.413       34101.490
D5627    810123.357    13565439.699       62562.248      810123.232    19105112.711       88111.455
D5727    495891.850     8303661.876        2071.561      495891.762    11694603.706        2916.720
D5826   1133484.038    18980084.984      103984.508     1133483.903    26730931.267      146446.397
D5926   1009332.337    16901179.098       73918.646     1009332.139    23803052.897      104103.891
> 2019  1 10  9 52  7.0000000  0 8                     
D3704   1097184.526    18372258.197       43105.007     1097184.494    25874871.714       60706.630
D3903   1156807.369    19370631.590      104183.750     1156807.244    27280953.548      146729.518
D4003    825596.375    13824538.005       85094.903      825596.218    19470018.087      119845.779
D4103    774891.403    12975489.669       23995.580      774891.234    18274240.115       33793.263
D5627    809376.078    13552927.250       62445.687      809376.006    19087490.420       87945.641
D5727    495867.084     8303247.564        1713.869      495867.045    11694020.362        2414.067
D5826   1132242.110    18959288.082      103948.643     1132241.965    26701641.988      146399.251
D5926   1008449.392    16886395.369       73865.373     1008449.288    23782232.119      104029.078
> 2019  1 10  9 52  7.2000000  0 8                     
D3704   1096669.779    18363637.196       42952.433     1096669.578    25862730.388       60493.819
D3903   1155562.980    19349794.840      104156.786     1155562.837    27251607.645      146688.893
D4003    824580.026    13807519.024       85094.861      824579.817    19446048.931      119845.276
D4103    774604.793    12970690.553       23859.397      774604.703    18267481.462       33604.221
D5627    808630.324    13540438.112       62330.748      808630.096    19069901.291       87784.320
D5727    495846.642     8302904.790        1522.651      495846.541    11693537.548        2144.875
D5826   1131000.485    18938498.353      103868.525     1131000.343    26672362.137      146285.337
D5926   1007567.191    16871622.294       73717.967     1007567.057    23761426.303      103821.959
> 2019  1 10  9 52  7.4000000  0 8                     
D3704   1096156.743    18355046.709       42733.182     1096156.586    25850631.624       60182.456
D3903   1154319.044    19328963.483      104111.296     1154318.886    27222269.866      146629.930
D4003    823563.607    13790500.052       84881.725      823563.470    19422079.876      119543.422
D4103    774319.743    12965918.673       23651.600      774319.730    18260760.618       33310.277
D5627    807885.831    13527971.963       62072.496      807885.664    19052344.427       87420.928
D5727    495828.427     8302600.260        1158.482      495828.418    11693108.574        1631.352
D5826   1129759.872    18917724.648      103868.573     1129759.731    26643105.070      146284.412
D5926   1006686.723    16856878.701       73629.693     1006686.571    23740661.912      103697.164
> 2019  1 10  9 52  7.6000000  0 8                     
D3704   1095646.385    18346500.073       42728.530     1095646.173    25838595.133       60179.865
D3903   1153075.459    19308141.224      104117.925     1153075.253    27192943.880      146633.578
D4003    822549.763    13773523.707       84902.750      822549.730    19398171.191      119574.596
D4103    774037.332    12961188.353       23444.863      774037.115    18254098.563       33017.537
D5627    807144.489    13515557.463       62027.026      807144.292    19034860.242       87357.079
