     3.02           OBSERVATION DATA    M: Mixed            RINEX VERSION / TYPE
BUPT PLAN 6.0                           20210329 120000 UTC PGM / RUN BY / DATE 
                                                            MARKER NAME         
                                                            MARKER NUMBER       
                                                            MARKER TYPE         
                                                            OBSERVER / AGENCY   
                                                            REC # / TYPE / VERS 
                                                            ANT # / TYPE        
  4076128.1056   519876.3642  4878092.5196                  APPROX POSITION XYZ 
        0.0000        0.0000        0.0000                  ANTENNA: DELTA H/E/N 
D    6 C5D L5D D5D C7D L7D D7D                              SYS / # / OBS TYPES  
    30.000                                                  INTERVAL            
  2019     1    10     9    51   54.0000000     GPS         TIME OF FIRST OBS   
  2019     1    10     9    54   44.0000000     GPS         TIME OF LAST OBS   
                                                            END OF HEADER       
> 2019  1 10  9 51 54.0000000  0 8                     
D3704   1133898.102    18987020.214       49781.499     1133897.953    26740687.353       70112.105
D3903   1238356.301    20736163.228      102869.649     1238356.139    29204122.160      144878.301
D4003    893826.739    14967046.645       87976.776      893826.614    21079090.547      123902.916
D4103    798381.414    13368823.280       35191.967      798381.300    18828205.991       49562.826
D5627    861316.742    14422669.274       69268.201      861316.615    20312407.733       97554.574
D5727    505353.734     8462101.647       22260.330      505353.660    11917742.503       31349.689
D5826   1213700.108    20323296.623      106995.980     1213699.936    28622654.892      150689.877
D5926   1068266.242    17888019.206       82869.370     1068266.080    25192891.437      116711.094
> 2019  1 10  9 51 54.2000000  0 8                     
D3704   1133303.464    18977063.914       49570.677     1133303.328    26726664.932       69813.001
D3903   1237127.629    20715589.298      102722.823     1237127.468    29175146.500      144671.360
D4003    892775.973    14949451.290       87813.552      892775.842    21054309.964      123674.171
D4103    797961.096    13361784.887       35023.813      797960.979    18818293.426       49325.325
D5627    860489.423    14408815.634       69082.047      860489.293    20292896.818       97291.617
D5727    505087.893     8457649.581       21884.747      505087.811    11911472.565       30821.678
D5826   1212422.146    20301897.427      106879.438     1212421.976    28592516.917      150527.233
D5926   1067276.434    17871445.332       82732.261     1067276.278    25169549.218      116519.731
> 2019  1 10  9 51 54.4000000  0 8                     
D3704   1132711.419    18967149.778       49379.350     1132711.277    26712702.331       69541.896
D3903   1235900.717    20695044.734      102741.500     1235900.555    29146212.228      144698.607
D4003    891727.117    14931888.579       87759.142      891726.991    21029575.130      123598.345
D4103    797542.810    13354780.124       34811.388      797542.684    18808428.361       49028.617
D5627    859664.355    14394999.225       68983.906      859664.213    20273438.494       97158.183
D5727    504826.505     8453272.632       21663.314      504826.423    11905308.230       30511.052
D5826   1211145.524    20280521.539      106863.373     1211145.370    28562411.470      150500.288
D5926   1066288.205    17854898.880       82624.627     1066288.069    25146245.272      116364.379
> 2019  1 10  9 51 54.6000000  0 8                     
D3704   1132121.715    18957273.908       49286.502     1132121.554    26698793.952       69415.382
D3903   1234673.549    20674496.434      102666.897     1234673.395    29117272.506      144592.160
D4003    890678.884    14914336.751       87750.994      890678.769    21004855.461      123583.758
D4103    797126.977    13347817.846       34666.238      797126.863    18798622.637       48821.701
D5627    858840.295    14381202.444       68868.715      858840.183    20254006.858       96990.193
D5727    504567.721     8448939.969       21187.989      504567.648    11899206.019       29839.676
D5826   1209869.242    20259148.865      106733.240     1209869.066    28532311.412      150322.224
D5926   1065301.390    17838373.955       82557.819     1065301.242    25122972.396      116272.538
> 2019  1 10  9 51 54.8000000  0 8                     
D3704   1131532.975    18947416.608       49217.356     1131532.830    26684910.876       69315.257
D3903   1233447.319    20653963.054      102628.948     1233447.162    29088354.074      144538.032
D4003    889630.855    14896786.552       87610.283      889630.725    20980138.709      123387.262
D4103    796712.963    13340884.599       34468.299      796712.840    18788858.297       48542.717
D5627    858017.807    14367428.701       68752.416      858017.677    20234608.819       96829.124
D5727    504314.680     8444702.371       21056.263      504314.600    11893238.084       29654.763
D5826   1208594.336    20237802.217      106765.610     1208594.183    28502246.968      150363.884
D5926   1064315.296    17821862.391       82431.549     1064315.155    25099717.888      116092.153
> 2019  1 10  9 51 55.0000000  0 8                     
D3704   1130945.155    18937573.137       49098.357     1130945.003    26671047.825       69148.973
D3903   1232221.566    20633437.265      102666.854     1232221.399    29059446.468      144592.810
D4003    888584.449    14879264.496       87537.367      888584.317    20955461.257      123284.892
D4103    796301.320    13333990.939       34342.355      796301.186    18779149.754       48367.788
D5627    857196.616    14353678.217       68616.015      857196.490    20215242.994       96637.489
D5727    504063.191     8440491.119       20695.481      504063.110    11887307.131       29148.152
D5826   1207319.178    20216449.095      106740.675     1207319.015    28472174.191      150328.497
D5926   1063330.798    17805376.081       82426.207     1063330.643    25076499.458      116086.684
> 2019  1 10  9 51 55.2000000  0 8                     
D3704   1130358.711    18927753.465       49066.091     1130358.563    26657218.030       69104.205
D3903   1230995.313    20612903.894      102668.345     1230995.148    29030527.906      144594.497
D4003    887538.902    14861757.022       87598.764      887538.773    20930804.278      123371.184
D4103    795891.098    13327122.468       34183.100      795890.974    18769476.196       48142.356
D5627    856377.038    14339955.014       68511.544      856376.921    20195915.497       96488.375
D5727    503815.960     8436352.023       20437.277      503815.891    11881477.501       28782.516
D5826   1206044.327    20195100.960      106741.598     1206044.151    28442108.491      150333.421
D5926   1062346.293    17788890.840       82319.727     1062346.141    25053282.121      115936.395
> 2019  1 10  9 51 55.4000000  0 8                     
D3704   1129772.630    18917940.247       48804.644     1129772.492    26643397.189       68733.527
D3903   1229769.056    20592370.225      102617.644     1229768.889    29001609.006      144522.899
D4003    886492.629    14844237.270       87429.308      886492.500    20906130.042      123133.226
D4103    795482.816    13320285.848       33954.481      795482.693    18759847.725       47820.707
D5627    855558.775    14326252.706       68342.069      855558.650    20176617.822       96250.598
D5727    503571.882     8432264.567       20080.443      503571.806    11875720.998       28279.848
D5826   1204769.341    20173752.640      106704.963     1204769.183    28412041.807      150278.008
D5926   1061363.071    17772426.895       82152.784     1061362.919    25030094.842      115702.357
> 2019  1 10  9 51 55.6000000  0 8                     
D3704   1129189.755    18908179.319       48740.619     1129189.606    26629650.483       68644.330
D3903   1228543.411    20571846.696      102627.143     1228543.241    28972704.427      144536.262
D4003    885448.356    14826751.408       87376.913      885448.232    20881503.397      123055.966
D4103    795077.255    13313494.952       33841.222      795077.134    18750283.584       47660.470
D5627    854742.505    14312584.292       68263.917      854742.379    20157367.702       96140.442
D5727    503332.069     8428248.479       19754.061      503331.987    11870065.028       27821.778
D5826   1203494.923    20152411.647      106639.094     1203494.750    28381986.206      150187.980
D5926   1060381.806    17755996.338       82145.381     1060381.664    25006954.370      115690.081
> 2019  1 10  9 51 55.8000000  0 8                     
D3704   1128607.612    18898431.195       48658.201     1128607.461    26615921.617       68528.112
D3903   1227317.653    20551321.267      102503.288     1227317.480    28943797.174      144362.928
D4003    884404.827    14809276.025       87282.600      884404.680    20856892.204      122928.578
D4103    794673.071    13306726.707       33637.292      794672.947    18740751.490       47373.618
D5627    853927.172    14298931.508       68156.426      853927.045    20138139.613       95989.042
D5727    503096.100     8424297.667       19492.011      503096.025    11864500.673       27452.433
D5826   1202221.198    20131083.828      106644.820     1202221.034    28351948.610      150195.022
D5926   1059400.692    17739567.262       82104.008     1059400.544    24983816.354      115632.724
> 2019  1 10  9 51 56.0000000  0 8                     
D3704   1128026.459    18888699.554       48535.925     1128026.303    26602215.995       68356.814
D3903   1226093.336    20530820.610      102550.224     1226093.170    28914924.589      144428.983
D4003    883362.238    14791819.505       87221.876      883362.114    20832306.488      122839.427
D4103    794271.310    13299999.249       33551.778      794271.186    18731276.766       47253.286
D5627    853113.124    14285300.223       67922.279      853112.995    20118941.805       95660.823
D5727    502863.271     8420399.264       19129.513      502863.200    11859010.186       26940.636
D5826   1200947.439    20109754.865      106616.493     1200947.276    28321909.605      150155.724
D5926   1058420.042    17723146.460       81960.543     1058419.895    24960689.809      115430.221
> 2019  1 10  9 51 56.2000000  0 8                     
D3704   1127446.734    18878992.369       48442.283     1127446.582    26588544.632       68224.697
D3903   1224868.461    20510310.565      102569.649     1224868.300    28886038.792      144456.043
D4003    882320.499    14774375.130       87183.426      882320.367    20807738.603      122787.330
D4103    793870.567    13293288.894       33265.229      793870.444    18721826.109       46849.605
D5627    852301.819    14271715.767       67842.301      852301.701    20099809.640       95545.675
D5727    502634.814     8416573.362       18900.352      502634.738    11853622.059       26618.366
D5826   1199673.999    20088431.566      106569.017     1199673.841    28291878.460      150087.130
D5926   1057441.121    17706754.351       81831.883     1057440.972    24937603.765      115249.446
> 2019  1 10  9 51 56.4000000  0 8                     
D3704   1126868.136    18869303.913       48288.705     1126867.986    26574899.693       68007.584
D3903   1223643.364    20489796.635      102499.317     1223643.207    28857147.583      144355.550
D4003    881279.149    14756938.445       87116.348      881279.027    20783181.137      122690.639
D4103    793473.251    13286635.848       33166.132      793473.127    18712456.188       46711.622
D5627    851491.555    14258147.307       67772.894      851491.428    20080700.505       95449.785
D5727    502409.079     8412793.291       18526.675      502409.000    11848298.386       26092.488
D5826   1198401.185    20067117.763      106652.296     1198401.017    28261861.034      150207.330
D5926   1056463.722    17690387.975       81793.549     1056463.574    24914553.876      115195.615
> 2019  1 10  9 51 56.6000000  0 8                     
D3704   1126291.401    18859646.172       48163.723     1126291.245    26561298.176       67834.518
D3903   1222419.156    20469296.772      102444.119     1222418.990    28828276.473      144280.324
D4003    880238.676    14739515.175       87009.907      880238.544    20758643.009      122541.097
D4103    793077.064    13280002.621       33003.744      793076.954    18703113.863       46480.347
D5627    850682.057    14244592.728       67603.675      850681.935    20061610.548       95210.066
D5727    502187.793     8409087.956       18225.778      502187.715    11843079.888       25668.151
D5826   1197127.276    20045787.303      106537.694     1197127.124    28231819.568      150043.610
D5926   1055486.775    17674029.265       81706.925     1055486.630    24891514.753      115072.008
> 2019  1 10  9 51 56.8000000  0 8                     
D3704   1125716.057    18850013.427       48081.044     1125715.921    26547731.272       67714.690
D3903   1221195.522    20448807.948      102501.060     1221195.368    28799420.408      144357.224
D4003    879199.462    14722113.194       86941.827      879199.324    20734134.790      122447.848
D4103    792682.905    13273401.873       32838.027      792682.786    18693817.794       46246.478
D5627    849874.627    14231071.993       67476.131      849874.500    20042568.535       95030.525
D5727    501970.120     8405442.801       18019.628      501970.039    11837946.258       25378.364
D5826   1195854.816    20024479.765      106511.034     1195854.659    28201810.846      150006.557
D5926   1054510.918    17657687.880       81663.912     1054510.762    24868500.351      115013.445
> 2019  1 10  9 51 57.0000000  0 8                     
D3704   1125141.816    18840397.218       47987.208     1125141.672    26534188.335       67583.250
D3903   1219971.320    20428307.736      102400.482     1219971.150    28770548.964      144217.528
D4003    878160.971    14704724.829       86949.051      878160.849    20709645.220      122454.957
D4103    792290.741    13266834.267       32593.289      792290.610    18684568.498       45905.050
D5627    849068.718    14217576.767       67410.303      849068.586    20023562.430       94938.704
D5727    501754.891     8401838.875       17571.195      501754.811    11832870.585       24746.799
D5826   1194582.657    20003177.558      106491.391     1194582.500    28171809.535      149979.358
D5926   1053535.506    17641355.098       81529.174     1053535.356    24845497.662      114822.879
> 2019  1 10  9 51 57.2000000  0 8                     
D3704   1124568.672    18830799.777       47843.103     1124568.525    26520671.685       67381.150
D3903   1218748.253    20407827.640      102414.087     1218748.084    28741705.458      144236.042
D4003    877122.499    14687335.018       86796.694      877122.366    20685154.229      122242.514
D4103    791901.390    13260315.609       32482.793      791901.273    18675387.488       45746.875
D5627    848263.565    14204094.707       67189.059      848263.435    20004574.689       94627.888
D5727    501545.018     8398324.636       17326.070      501544.939    11827921.225       24401.640
D5826   1193310.717    19981879.280      106511.682     1193310.564    28141813.664      150007.547
D5926   1052561.730    17625049.263       81467.346     1052561.580    24822533.087      114736.967
> 2019  1 10  9 51 57.4000000  0 8                     
D3704   1123997.220    18821231.156       47731.837     1123997.077    26507195.455       67222.041
D3903   1217525.045    20387344.822      102419.380     1217524.872    28712858.250      144245.225
D4003    876085.773    14669975.680       86772.440      876085.649    20660705.726      122207.164
D4103    791513.445    13253819.051       32307.349      791513.322    18666238.113       45501.153
D5627    847461.027    14190656.895       67089.939      847460.906    19985649.112       94486.609
D5727    501338.070     8394859.422       16994.562      501337.993    11823040.897       23934.494
D5826   1192038.547    19960576.943      106474.313     1192038.395    28111812.154      149953.465
D5926   1051588.654    17608755.794       81340.813     1051588.512    24799585.693      114556.856
> 2019  1 10  9 51 57.6000000  0 8                     
D3704   1123427.179    18811684.789       47562.734     1123427.020    26493751.046       66986.847
D3903   1216301.715    20366860.946      102382.236     1216301.552    28684009.205      144191.199
D4003    875049.378    14652621.192       86704.213      875049.252    20636264.293      122111.615
D4103    791127.550    13247357.581       32205.642      791127.431    18657137.883       45358.671
D5627    846659.731    14177238.907       67016.387      846659.605    19966751.790       94383.450
D5727    501135.091     8391460.510       16716.285      501135.013    11818253.999       23542.889
D5826   1190766.874    19939282.081      106423.196     1190766.710    28081821.461      149882.411
D5926   1050617.153    17592487.631       81266.720     1050617.005    24776674.322      114454.471
> 2019  1 10  9 51 57.8000000  0 8                     
D3704   1122859.056    18802172.242       47568.490     1122858.906    26480353.677       66993.577
D3903   1215078.887    20346384.499      102368.048     1215078.720    28655170.965      144173.181
D4003    874013.779    14635280.349       86614.077      874013.655    20611841.970      121984.793
D4103    790742.843    13240916.452       31906.236      790742.735    18648066.149       44934.028
D5627    845859.299    14163835.630       66874.500      845859.171    19947875.100       94183.840
D5727    500935.425     8388117.253       16440.889      500935.349    11813545.421       23154.487
D5826   1189495.779    19917997.441      106310.113     1189495.611    28051844.979      149724.466
D5926   1049646.471    17576234.287       81221.808     1049646.332    24753783.428      114387.848
> 2019  1 10  9 51 58.0000000  0 8                     
D3704   1122290.912    18792658.544       47382.509     1122290.760    26466954.962       66730.828
D3903   1213856.162    20325910.889      102372.412     1213856.006    28626336.329      144174.792
D4003    872979.253    14617957.534       86584.409      872979.133    20587445.011      121942.710
D4103    790361.813    13234535.205       31811.943      790361.692    18639079.343       44804.687
D5627    845060.554    14150460.730       66676.402      845060.427    19929038.332       93906.049
D5727    500739.067     8384829.075       16011.767      500738.988    11808914.523       22550.632
D5826   1188225.990    19896735.419      106425.626     1188225.829    28021900.086      149888.206
D5926   1048676.440    17559989.925       81109.899     1048676.283    24730905.858      114233.494
> 2019  1 10  9 51 58.2000000  0 8                     
D3704   1121725.017    18783182.042       47264.309     1121724.855    26453608.796       66565.424
D3903   1212633.539    20305436.407      102291.047     1212633.357    28597501.370      144066.385
D4003    871945.091    14600640.652       86489.584      871944.972    20563056.469      121808.971
D4103    789981.792    13228172.816       31648.215      789981.686    18630118.406       44570.555
D5627    844264.134    14137125.449       66630.744      844264.017    19910257.122       93837.615
D5727    500547.817     8381626.722       15809.697      500547.740    11804404.397       22265.968
D5826   1186954.785    19875450.294      106326.342     1186954.641    27991922.444      149744.001
D5926   1047707.635    17543767.946       81004.571     1047707.486    24708059.159      114084.733
> 2019  1 10  9 51 58.4000000  0 8                     
D3704   1121160.497    18773729.180       47177.646     1121160.335    26440295.711       66446.275
D3903   1211411.677    20284978.198      102266.549     1211411.521    28568688.093      144027.625
D4003    870912.068    14583342.735       86345.997      870911.949    20538694.675      121605.597
D4103    789603.847    13221843.173       31445.155      789603.726    18621204.295       44286.698
D5627    843468.401    14123799.300       66420.193      843468.259    19891489.599       93545.102
D5727    500358.983     8378464.782       15421.729      500358.907    11799951.203       21719.091
D5826   1185684.916    19854185.025      106316.607     1185684.750    27961973.644      149731.019
D5926   1046740.102    17527567.031       80899.304     1046739.958    24685242.213      113934.519
> 2019  1 10  9 51 58.6000000  0 8                     
D3704   1120596.913    18764293.651       46994.716     1120596.775    26427006.456       66185.237
D3903   1210190.253    20264524.888      102296.600     1210190.088    28539882.568      144071.609
D4003    869880.800    14566073.536       86351.834      869880.670    20514373.556      121614.689
D4103    789228.255    13215554.142       31260.615      789228.138    18612346.955       44026.384
D5627    842675.044    14110515.262       66384.421      842674.913    19872780.579       93493.478
D5727    500174.799     8375380.437       15188.007      500174.720    11795607.385       21390.812
D5826   1184415.138    19832921.704      106318.741     1184414.958    27932027.440      149738.580
D5926   1045773.893    17511387.171       80870.775     1045773.738    24662455.309      113895.842
> 2019  1 10  9 51 58.8000000  0 8                     
D3704   1120035.631    18754894.708       46988.745     1120035.488    26413769.409       66177.666
D3903   1208968.413    20244065.568      102246.011     1208968.252    28511068.247      144000.929
D4003    868849.432    14548803.169       86252.314      868849.299    20490050.618      121476.647
D4103    788854.882    13209302.019       31111.742      788854.764    18603541.678       43816.778
D5627    841882.158    14097238.378       66162.740      841882.025    19854081.883       93181.519
D5727    499993.377     8372342.835       14832.051      499993.302    11791329.223       20889.019
D5826   1183145.178    19811657.956      106228.918     1183145.022    27902079.724      149607.467
D5926   1044807.973    17495213.016       80757.296     1044807.820    24639676.140      113736.951
> 2019  1 10  9 51 59.0000000  0 8                     
D3704   1119474.391    18745496.959       46850.613     1119474.251    26400533.876       65980.707
D3903   1207747.158    20223616.365      102203.127     1207747.006    28482268.061      143939.020
D4003    867819.180    14531552.706       86236.498      867819.063    20465755.289      121452.674
D4103    788483.284    13203079.671       30937.745      788483.167    18594778.322       43570.762
D5627    841091.911    14084005.829       66092.366      841091.779    19835445.579       93084.531
D5727    499816.222     8369376.425       14497.789      499816.148    11787151.419       20418.384
D5826   1181876.449    19790412.172      106300.739     1181876.278    27872158.231      149709.752
D5926   1043843.378    17479061.556       80634.287     1043843.233    24616928.750      113562.931
> 2019  1 10  9 51 59.2000000  0 8                     
D3704   1118914.884    18736126.836       46636.364     1118914.726    26387337.735       65682.396
D3903   1206526.467    20203175.740      102183.226     1206526.311    28453480.257      143910.495
D4003    866789.176    14514305.407       86119.738      866789.059    20441464.754      121287.865
D4103    788113.798    13196892.122       30762.875      788113.672    18586064.170       43327.016
D5627    840302.432    14070787.356       65979.185      840302.319    19816828.673       92922.026
D5727    499643.055     8366476.867       14211.601      499642.983    11783067.742       20014.944
D5826   1180606.824    19769152.024      106185.841     1180606.647    27842216.281      149552.099
D5926   1042880.278    17462934.699       80589.245     1042880.136    24594216.164      113500.237
> 2019  1 10  9 51 59.4000000  0 8                     
D3704   1118357.818    18726799.563       46550.810     1118357.671    26374201.255       65560.320
D3903   1205306.030    20182739.095      102222.814     1205305.867    28424698.158      143968.246
D4003    865760.578    14497081.459       86080.625      865760.459    20417207.181      121231.615
D4103    787746.313    13190739.547       30609.899      787746.201    18577398.767       43110.637
D5627    839514.411    14057591.519       65782.863      839514.291    19798244.268       92645.518
D5727    499473.320     8363634.547       13892.597      499473.246    11779064.754       19565.344
D5826   1179338.428    19747914.856      106182.692     1179338.281    27812305.861      149540.524
D5926   1041917.690    17446816.850       80525.398     1041917.557    24571516.117      113409.123
> 2019  1 10  9 51 59.6000000  0 8                     
D3704   1117801.828    18717489.401       46521.584     1117801.679    26361089.191       65521.298
D3903   1204085.053    20162294.532      102236.643     1204084.898    28395904.508      143986.895
D4003    864732.487    14479865.334       85922.081      864732.356    20392960.858      121010.594
D4103    787380.687    13184617.567       30374.585      787380.582    18568776.639       42776.997
D5627    838728.735    14044434.947       65674.311      838728.608    19779715.164       92494.489
D5727    499307.406     8360856.028       13574.172      499307.327    11775151.685       19116.658
D5826   1178070.314    19726678.318      106166.219     1178070.137    27782397.756      149521.564
D5926   1040955.907    17430711.770       80405.020     1040955.772    24548834.292      113237.146
> 2019  1 10  9 51 59.8000000  0 8                     
D3704   1117246.115    18708185.084       46355.238     1117245.981    26347984.932       65283.496
D3903   1202863.938    20141847.203      102061.409     1202863.786    28367107.130      143737.088
D4003    863706.213    14462680.918       85914.546      863706.088    20368758.739      120999.895
D4103    787017.949    13178542.650       30299.379      787017.830    18560221.240       42672.465
D5627    837944.292    14031300.085       65556.635      837944.173    19761216.267       92327.056
D5727    499145.303     8358141.193       13318.308      499145.217    11771328.353       18757.720
D5826   1176802.252    19705445.074      106137.052     1176802.080    27752493.443      149479.824
D5926   1039995.644    17414630.767       80279.145     1039995.487    24526186.863      113063.919
> 2019  1 10  9 52  0.0000000  0 8                     
D3704   1116692.508    18698914.037       46193.145     1116692.361    26334928.233       65055.845
D3903   1201645.020    20121434.922      102167.492     1201644.844    28338359.712      143891.839
D4003    862680.032    14445498.009       85849.283      862679.913    20344558.760      120906.859
D4103    786656.061    13172482.774       30073.994      786655.941    18551686.747       42356.226
D5627    837161.313    14018188.758       65431.740      837161.188    19742750.855       92151.860
D5727    498986.207     8355477.532       12880.468      498986.128    11767576.809       18141.011
D5826   1175534.561    19684217.664      106083.727     1175534.388    27722597.479      149406.410
D5926   1039036.746    17398574.937       80235.482     1039036.602    24503574.079      113000.614
> 2019  1 10  9 52  0.2000000  0 8                     
D3704   1116140.816    18689675.408       46113.937     1116140.660    26321917.064       64945.147
D3903   1200424.652    20101001.423      102018.701     1200424.497    28309581.344      143678.676
D4003    861654.668    14428328.152       85750.243      861654.546    20320377.388      120767.649
D4103    786296.825    13166467.976       29886.094      786296.713    18543215.502       42091.921
D5627    836379.802    14005102.410       65294.694      836379.677    19724320.483       91960.094
D5727    498832.344     8352901.438       12671.166      498832.269    11763948.607       17845.344
D5826   1174267.449    19663000.918      106109.456     1174267.290    27692716.197      149442.326
D5926   1038078.432    17382527.841       80159.098     1038078.285    24480973.956      112892.280
> 2019  1 10  9 52  0.4000000  0 8                     
D3704   1115590.041    18680452.620       46025.622     1115589.883    26308928.034       64822.126
D3903   1199206.184    20080597.683      102121.993     1199206.021    28280845.609      143825.728
D4003    860630.478    14411178.103       85731.668      860630.355    20296223.858      120740.886
D4103    785939.822    13160490.757       29761.910      785939.721    18534797.117       41914.032
D5627    835599.885    13992043.471       65148.677      835599.771    19705928.465       91753.361
D5727    498681.011     8350367.205       12357.729      498680.933    11760379.538       17404.394
D5826   1173000.041    19641779.027      106149.452     1172999.893    27662827.732      149495.804
D5926   1037121.056    17366496.022       80010.042     1037120.899    24458395.500      112684.832
> 2019  1 10  9 52  0.6000000  0 8                     
D3704   1115040.274    18671247.496       45871.257     1115040.126    26295963.609       64603.980
D3903   1197986.429    20060173.284      102019.572     1197986.270    28252080.463      143680.206
D4003    859606.530    14394031.770       85584.830      859606.401    20272075.681      120536.418
D4103    785584.404    13154538.375       29525.019      785584.290    18526414.311       41580.497
D5627    834821.749    13979013.736       64984.704      834821.636    19687577.792       91519.995
D5727    498533.405     8347895.659       11955.425      498533.329    11756898.659       16837.138
D5826   1171732.252    19620549.137      105974.287     1171732.092    27632928.571      149249.264
D5926   1036165.375    17350494.013       79938.301     1036165.230    24435858.534      112581.854
> 2019  1 10  9 52  0.8000000  0 8                     
D3704   1114492.377    18662073.244       45778.762     1114492.232    26283042.813       64472.973
D3903   1196767.940    20039769.370      102034.157     1196767.775    28223344.422      143702.358
D4003    858584.257    14376914.804       85547.076      858584.141    20247968.398      120479.885
D4103    785231.812    13148633.371       29363.233      785231.685    18518098.211       41355.923
D5627    834045.655    13966016.795       64904.233      834045.523    19669273.793       91411.497
D5727    498390.626     8345504.574       11717.680      498390.547    11753531.232       16503.468
D5826   1170466.551    19599354.279      105970.322     1170466.378    27603078.718      149246.683
D5926   1035210.618    17334506.353       79891.279     1035210.468    24413342.163      112517.503
> 2019  1 10  9 52  1.0000000  0 8                     
D3704   1113945.609    18652917.492       45616.542     1113945.462    26270148.218       64244.067
D3903   1195549.223    20019362.539      102032.679     1195549.065    28194603.950      143699.514
D4003    857562.549    14359805.389       85455.198      857562.419    20223872.421      120352.485
D4103    784881.041    13142760.724       29214.769      784880.928    18509827.027       41143.501
D5627    833270.357    13953035.948       64753.796      833270.246    19650991.494       91196.126
D5727    498250.648     8343161.038       11374.692      498250.574    11750230.538       16020.083
D5826   1169200.794    19578160.215      105949.137     1169200.635    27573229.381      149215.412
D5926   1034256.358    17318528.097       79795.161     1034256.219    24390838.662      112381.814
> 2019  1 10  9 52  1.2000000  0 8                     
D3704   1113400.794    18643794.184       45534.471     1113400.641    26257299.405       64128.543
D3903   1194330.549    19998956.003      102000.384     1194330.392    28165864.048      143653.634
D4003    856541.871    14342714.349       85432.748      856541.742    20199801.924      120322.924
D4103    784532.157    13136917.770       29036.840      784532.031    18501598.327       40895.864
D5627    832496.975    13940085.189       64656.122      832496.856    19632752.269       91058.255
D5727    498114.778     8340886.100       11032.511      498114.707    11747026.521       15537.909
D5826   1167935.339    19556970.387      105997.250     1167935.182    27543386.299      149283.734
D5926   1033303.258    17302569.065       79610.767     1033303.127    24368362.300      112120.667
> 2019  1 10  9 52  1.4000000  0 8                     
D3704   1112856.957    18634687.290       45447.502     1112856.798    26244473.697       64008.903
D3903   1193112.274    19978555.926      101985.546     1193112.115    28137133.321      143633.273
D4003    855521.390    14325627.799       85331.616      855521.281    20175737.339      120175.865
D4103    784185.297    13131110.402       28928.743      784185.182    18493419.154       40742.038
D5627    831724.771    13927153.964       64424.395      831724.641    19614540.618       90733.213
D5727    497983.003     8338679.598       10810.858      497982.933    11743918.940       15225.372
D5826   1166669.290    19535770.937      105945.323     1166669.140    27513529.552      149211.296
D5926   1032352.409    17286646.912       79689.804     1032352.274    24345938.166      112232.084
> 2019  1 10  9 52  1.6000000  0 8                     
D3704   1112314.062    18625597.789       45233.065     1112313.921    26231671.916       63702.815
D3903   1191894.158    19958158.817      101911.248     1191894.001    28108406.666      143529.569
D4003    854502.275    14308561.476       85171.986      854502.146    20151702.166      119954.044
D4103    783839.782    13125324.654       28611.271      783839.665    18485270.746       40296.762
D5627    830955.289    13914269.086       64362.034      830955.160    19596393.975       90646.464
D5727    497853.889     8336517.426       10408.501      497853.816    11740873.865       14658.846
D5826   1165403.838    19514581.873      105896.225     1165403.700    27483687.293      149136.967
D5926   1031400.613    17270708.951       79441.384     1031400.475    24323491.749      111883.239
> 2019  1 10  9 52  1.8000000  0 8                     
D3704   1111773.867    18616551.176       45178.885     1111773.710    26218931.353       63629.409
D3903   1190676.898    19937776.567      101942.399     1190676.751    28079700.752      143569.698
D4003    853484.965    14291527.079       85193.116      853484.842    20127711.357      119983.120
D4103    783497.997    13119602.400       28525.504      783497.893    18477211.394       40172.760
D5627    830186.515    13901396.679       64189.556      830186.395    19578264.682       90402.450
D5727    497729.575     8334435.726       10139.760      497729.501    11737942.096       14279.174
D5826   1164139.149    19493402.628      105920.458     1164138.979    27453859.900      149178.224
D5926   1030451.749    17254820.674       79400.619     1030451.616    24301115.102      111824.823
> 2019  1 10  9 52  2.0000000  0 8                     
D3704   1111234.221    18607515.399       45058.609     1111234.072    26206205.471       63456.588
D3903   1189459.394    19917388.088      101895.415     1189459.224    28050986.813      143508.707
D4003    852467.425    14274488.456       85105.783      852467.302    20103714.733      119861.523
D4103    783157.345    13113897.299       28329.635      783157.228    18469176.842       39898.741
D5627    829419.839    13888558.768       64146.364      829419.720    19560184.192       90341.848
D5727    497608.512     8332407.774        9802.666      497608.427    11735086.261       13807.780
D5826   1162873.927    19472218.536      105818.219     1162873.786    27424024.255      149027.946
D5926   1029503.406    17238940.550       79346.017     1029503.271    24278750.137      111746.551
> 2019  1 10  9 52  2.2000000  0 8                     
D3704   1110696.128    18598503.677       44956.924     1110695.959    26193514.154       63318.055
D3903   1188242.273    19897009.005      101854.040     1188242.126    28022285.071      143445.750
D4003    851450.881    14257467.299       85080.588      851450.769    20079742.428      119821.546
D4103    782818.970    13108231.372       28164.400      782818.855    18461197.094       39666.469
D5627    828653.671    13875729.495       63950.337      828653.554    19542115.823       90065.719
D5727    497491.360     8330447.241        9461.509      497491.292    11732324.705       13324.433
D5826   1161610.142    19451054.893      105754.060     1161609.976    27394218.665      148943.697
D5926   1028555.762    17223071.347       79286.006     1028555.612    24256400.827      111663.484
> 2019  1 10  9 52  2.4000000  0 8                     
D3704   1110159.090    18589512.293       44776.626     1110158.939    26180850.543       63063.319
D3903   1187025.807    19876638.197      101866.642     1187025.643    27993595.921      143465.775
D4003    850434.791    14240451.181       84891.683      850434.653    20055778.119      119561.664
D4103    782482.554    13102598.492       27999.436      782482.445    18453263.800       39432.756
D5627    827889.846    13862939.427       63794.786      827889.731    19524102.679       89844.633
D5727    497378.381     8328554.939        9185.708      497378.306    11729659.818       12936.982
D5826   1160346.913    19429904.081      105834.964     1160346.775    27364429.926      149051.523
D5926   1027608.786    17207214.146       79056.584     1027608.633    24234068.130      111343.600
> 2019  1 10  9 52  2.6000000  0 8                     
D3704   1109624.233    18580556.967       44745.683     1109624.094    26168237.879       63016.194
D3903   1185809.113    19856264.868      101825.420     1185808.950    27964902.766      143408.408
D4003    849420.747    14223472.845       84844.424      849420.635    20031865.787      119491.904
D4103    782148.155    13096998.604       27809.414      782148.040    18445377.249       39164.817
D5627    827127.948    13850180.470       63663.982      827127.817    19506133.752       89663.462
D5727    497268.663     8326717.797        8830.864      497268.589    11727072.422       12437.187
D5826   1159082.928    19408737.088      105780.443     1159082.765    27334619.622      148980.756
D5926   1026664.439    17191402.829       79072.889     1026664.312    24211799.410      111362.277
> 2019  1 10  9 52  2.8000000  0 8                     
D3704   1109089.867    18571607.831       44538.255     1109089.710    26155634.640       62727.340
D3903   1184592.887    19835899.784      101803.463     1184592.732    27936221.085      143375.879
D4003    848407.377    14206503.960       84804.767      848407.264    20007967.406      119434.682
D4103    781816.037    13091436.722       27627.821      781815.913    18437544.285       38911.295
D5627    826367.508    13837447.674       63543.774      826367.388    19488201.060       89493.192
D5727    497163.185     8324951.625        8557.647      497163.112    11724584.985       12051.491
D5826   1157819.388    19387580.999      105724.561     1157819.251    27304823.470      148896.950
D5926   1025720.044    17175588.251       78903.035     1025719.906    24189526.955      111124.383
> 2019  1 10  9 52  3.0000000  0 8                     
D3704   1108557.866    18562700.180       44488.119     1108557.719    26143089.172       62654.681
D3903   1183376.979    19815539.092      101768.429     1183376.818    27907545.909      143329.264
D4003    847394.527    14189543.006       84709.871      847394.401    19984080.469      119303.138
D4103    781486.012    13085911.157       27424.299      781485.898    18429762.026       38623.393
D5627    825608.537    13824738.919       63381.044      825608.419    19470302.421       89263.805
D5727    497061.001     8323240.095        8226.570      497060.921    11722174.686       11586.165
D5826   1156556.689    19366436.087      105720.657     1156556.536    27275044.080      148893.857
D5926   1024777.633    17159807.644       78902.478     1024777.494    24167302.078      111124.352
> 2019  1 10  9 52  3.2000000  0 8                     
D3704   1108026.534    18553802.556       44348.975     1108026.379    26130558.236       62458.804
D3903   1182161.396    19795185.406      101774.077     1182161.252    27878880.056      143333.486
D4003    846382.738    14172601.032       84620.234      846382.618    19960219.842      119175.412
D4103    781158.460    13080426.297       27315.115      781158.346    18422037.348       38468.657
D5627    824851.517    13812062.710       63264.252      824851.399    19452449.660       89099.539
D5727    496962.738     8321594.781        7846.062      496962.660    11719857.453       11050.388
D5826   1155293.956    19345291.956      105685.812     1155293.806    27245265.309      148842.957
D5926   1023835.202    17144027.148       78737.055     1023835.070    24145077.208      110888.619
> 2019  1 10  9 52  3.4000000  0 8                     
D3704   1107496.861    18544932.761       44189.547     1107496.699    26118066.475       62238.339
D3903   1180945.873    19774830.591      101727.447     1180945.714    27850213.359      143270.949
D4003    845372.071    14155676.985       84589.800      845371.943    19936384.760      119133.788
D4103    780832.246    13074963.274       27101.820      780832.123    18414343.616       38169.508
D5627    824095.884    13799409.860       63057.714      824095.768    19434629.753       88807.999
D5727    496869.017     8320025.569        7630.145      496868.940    11717647.376       10745.870
D5826   1154031.701    19324154.793      105636.393     1154031.539    27215496.718      148775.820
D5926   1022894.842    17128279.738       78634.434     1022894.692    24122899.484      110747.615
> 2019  1 10  9 52  3.6000000  0 8                     
D3704   1106968.953    18536094.852       44117.436     1106968.819    26105618.807       62132.461
D3903   1179730.800    19754485.101      101697.122     1179730.653    27821559.169      143225.181
D4003    844361.726    14138759.025       84515.718      844361.600    19912558.002      119028.887
D4103    780508.537    13069542.910       26887.390      780508.415    18406709.715       37866.867
D5627    823342.740    13786798.317       63019.201      823342.621    19416868.153       88754.596
D5727    496777.889     8318499.540        7290.074      496777.811    11715498.202       10267.526
D5826   1152769.951    19303027.515      105648.056     1152769.799    27185741.554      148789.709
D5926   1021955.586    17112552.851       78599.313     1021955.450    24100749.961      110694.522
> 2019  1 10  9 52  3.8000000  0 8                     
D3704   1106442.054    18527271.364       43963.222     1106441.911    26093192.315       61916.455
D3903   1178516.193    19734145.677      101736.212     1178516.033    27792914.133      143282.076
D4003    843352.284    14121855.882       84329.174      843352.157    19888752.224      118767.267
D4103    780187.411    13064165.432       26760.646      780187.286    18399136.341       37689.804
D5627    822590.028    13774194.477       62856.756      822589.913    19399117.234       88523.630
D5727    496690.802     8317041.525        6895.347      496690.728    11713444.697        9710.986
D5826   1151508.150    19281897.904      105598.417     1151507.985    27155983.612      148721.698
D5926   1021016.875    17096832.988       78452.712     1021016.720    24078611.056      110490.024
> 2019  1 10  9 52  4.0000000  0 8                     
D3704   1105916.956    18518478.720       43905.474     1105916.814    26080809.024       61833.955
D3903   1177301.057    19713798.434      101669.369     1177300.898    27764257.717      143189.658
D4003    842345.033    14104990.047       84326.741      842344.913    19864998.771      118761.935
D4103    779867.749    13058813.303       26539.831      779867.633    18391598.380       37377.282
D5627    821839.330    13761623.126       62677.393      821839.201    19381412.508       88274.565
D5727    496608.451     8315662.456        6678.696      496608.375    11711502.500        9406.229
D5826   1150246.876    19260778.220      105559.338     1150246.714    27126239.272      148667.257
D5926   1020079.847    17081142.446       78389.210     1020079.691    24056513.052      110401.724
> 2019  1 10  9 52  4.2000000  0 8                     
D3704   1105392.588    18509697.625       43712.336     1105392.438    26068442.233       61561.679
D3903   1176086.660    19693464.561      101601.556     1176086.518    27735619.786      143090.998
D4003    841337.876    14088124.699       84229.281      841337.747    19841246.384      118626.712
D4103    779550.778    13053505.337       26470.226      779550.657    18384122.924       37281.219
D5627    821090.654    13749087.647       62584.075      821090.540    19363757.595       88140.839
D5727    496528.675     8314326.716        6288.996      496528.601    11709621.254        8857.670
D5826   1148986.048    19239666.353      105525.532     1148985.896    27096505.820      148618.324
D5926   1019143.539    17065464.604       78318.763     1019143.391    24034432.707      110300.940
> 2019  1 10  9 52  4.4000000  0 8                     
D3704   1104870.536    18500955.158       43645.556     1104870.375    26056129.897       61469.921
D3903   1174873.181    19673144.249      101602.639     1174873.028    27707001.586      143093.529
D4003    840331.813    14071278.843       84282.498      840331.693    19817521.042      118699.964
D4103    779234.570    13048211.292       26208.399      779234.461    18376666.680       36909.649
D5627    820343.171    13736570.832       62393.295      820343.053    19346129.427       87872.364
D5727    496453.544     8313068.917        5963.491      496453.474    11707849.720        8398.484
D5826   1147725.670    19218561.247      105541.120     1147725.515    27066782.156      148641.670
D5926   1018208.125    17049800.851       78171.828     1018207.973    24012372.519      110096.636
> 2019  1 10  9 52  4.6000000  0 8                     
D3704   1104349.204    18492226.047       43491.294     1104349.050    26043835.913       61251.573
D3903   1173659.655    19652823.722      101581.727     1173659.500    27678382.880      143063.686
D4003    839325.173    14054422.343       84025.717      839325.047    19793781.049      118340.184
D4103    778921.586    13042969.612       25998.407      778921.466    18369284.750       36616.562
D5627    819597.959    13724092.173       62259.642      819597.839    19328554.954       87684.375
D5727    496382.327     8311876.219        5720.579      496382.254    11706170.023        8056.310
D5826   1146465.058    19197453.022      105388.930     1146464.912    27037053.822      148425.969
D5926   1017274.377    17034166.485       78113.485     1017274.242    23990353.192      110011.986
> 2019  1 10  9 52  4.8000000  0 8                     
D3704   1103829.751    18483527.788       43340.989     1103829.597    26031585.599       61041.936
D3903   1172446.392    19632507.376      101566.825     1172446.232    27649770.143      143043.241
D4003    838321.536    14037617.200       84050.836      838321.420    19770113.012      118374.232
D4103    778611.020    13037769.931       25893.223      778610.910    18361961.438       36465.993
D5627    818854.336    13711640.245       62122.817      818854.216    19311018.079       87490.781
D5727    496314.013     8310732.103        5344.470      496313.937    11704558.761        7527.216
D5826   1145206.310    19176375.236      105534.845     1145206.161    27007368.628      148629.695
D5926   1016341.410    17018543.788       77975.690     1016341.272    23968350.795      109818.520
> 2019  1 10  9 52  5.0000000  0 8                     
D3704   1103312.023    18474859.590       43266.842     1103311.885    26019377.211       60935.349
D3903   1171233.288    19612194.011      101613.733     1171233.127    27621161.495      143108.347
D4003    837317.645    14020807.033       83878.477      837317.527    19746438.166      118130.489
D4103    778301.793    13032591.286       25624.408      778301.673    18354668.239       36089.497
D5627    818112.377    13699215.681       62048.926      818112.249    19293519.923       87387.443
D5727    496250.171     8309663.209        5042.249      496250.097    11703053.318        7100.529
D5826   1143945.880    19155268.267      105471.095     1143945.714    26977642.689      148541.388
D5926   1015410.069    17002948.650       77970.544     1015409.932    23946387.090      109811.404
> 2019  1 10  9 52  5.2000000  0 8                     
D3704   1102795.255    18466206.222       43162.685     1102795.115    26007190.142       60788.374
D3903   1170019.657    19591871.265      101482.169     1170019.487    27592539.826      142926.217
D4003    836315.846    14004031.337       83844.768      836315.719    19722812.068      118085.583
D4103    777995.705    13027466.405       25531.283      777995.593    18347450.340       35956.358
D5627    817371.276    13686805.896       61845.123      817371.146    19276042.434       87100.927
D5727    496189.974     8308654.759        4693.385      496189.893    11701633.212        6610.327
D5826   1142686.161    19134174.049      105341.348     1142685.990    26947934.411      148361.813
D5926   1014478.785    16987354.541       77807.126     1014478.650    23924424.810      109579.615
> 2019  1 10  9 52  5.4000000  0 8                     
D3704   1102279.740    18457573.685       42988.829     1102279.597    25995032.467       60543.773
D3903   1168807.489    19571574.831      101510.861     1168807.337    27563954.582      142964.353
D4003    835314.362    13987262.384       83811.432      835314.247    19699194.951      118036.351
D4103    777690.797    13022360.148       25361.795      777690.676    18340259.069       35717.999
D5627    816632.591    13674436.871       61738.691      816632.465    19258622.249       86952.669
D5727    496133.906     8307716.082        4398.392      496133.828    11700311.147        6194.918
D5826   1141427.884    19113105.779      105415.051     1141427.735    26918262.049      148462.009
D5926   1013549.508    16971793.116       77670.795     1013549.362    23902508.887      109391.157
> 2019  1 10  9 52  5.6000000  0 8                     
D3704   1101766.294    18448975.919       42891.027     1101766.148    25982923.712       60405.672
D3903   1167595.056    19551272.659      101447.215     1167594.903    27535361.712      142874.429
D4003    834313.354    13970500.097       83669.611      834313.232    19675587.681      117837.644
D4103    777387.902    13017287.789       25110.220      777387.775    18333115.469       35367.321
D5627    815895.122    13662089.133       61568.183      815895.012    19241231.715       86708.644
D5727    496081.359     8306836.404        4133.546      496081.284    11699072.163        5821.776
D5826   1140168.849    19092022.769      105319.629     1140168.692    26888569.647      148327.254
D5926   1012621.739    16956258.957       77622.476     1012621.611    23880630.655      109318.574
> 2019  1 10  9 52  5.8000000  0 8                     
D3704   1101254.028    18440397.713       42794.200     1101253.877    25970842.578       60269.297
D3903   1166383.393    19530983.216      101465.285     1166383.237    27506786.826      142900.560
D4003    833314.005    13953766.175       83598.544      833313.885    19652020.152      117738.302
D4103    777087.887    13012265.745       24976.564      777087.785    18326042.005       35175.597
D5627    815159.822    13649775.497       61393.538      815159.696    19223889.986       86463.644
D5727    496031.981     8306009.695        3724.480      496031.908    11697907.808        5244.688
D5826   1138910.967    19070958.843      105211.508     1138910.798    26858904.196      148178.855
D5926   1011694.701    16940734.462       77488.325     1011694.554    23858766.941      109134.382
> 2019  1 10  9 52  6.0000000  0 8                     
D3704   1100742.919    18431838.873       42638.027     1100742.762    25958788.718       60051.185
D3903   1165171.491    19510690.159      101399.608     1165171.337    27478206.714      142807.847
D4003    832315.480    13937046.466       83559.761      832315.367    19628472.492      117682.651
D4103    776789.588    13007270.432       24764.798      776789.481    18319006.885       34877.708
D5627    814426.575    13637496.789       61299.535      814426.441    19206597.258       86333.471
D5727    495987.521     8305264.799        3404.323      495987.442    11696858.870        4795.206
D5826   1137654.244    19049916.541      105363.898     1137654.096    26829268.425      148389.240
D5926   1010769.104    16925236.797       77473.747     1010768.977    23836940.064      109110.200
> 2019  1 10  9 52  6.2000000  0 8                     
D3704   1100233.612    18423311.268       42540.309     1100233.465    25946778.481       59911.662
D3903   1163960.381    19490410.237      101386.839     1163960.227    27449645.144      142790.085
D4003    831317.452    13920334.514       83462.683      831317.338    19604935.962      117545.619
D4103    776493.806    13002317.473       24597.745      776493.698    18312031.344       34641.845
D5627    813694.376    13625236.882       61151.346      813694.252    19189330.563       86123.668
D5727    495946.837     8304583.934        3134.462      495946.764    11695899.829        4414.259
D5826   1136395.846    19028843.762      105244.473     1136395.683    26799590.577      148224.568
D5926   1009843.806    16909742.048       77317.139     1009843.669    23815118.024      108890.441
> 2019  1 10  9 52  6.4000000  0 8                     
D3704   1099725.537    18414803.206       42388.630     1099725.385    25934796.149       59698.568
D3903   1162749.416    19470132.869      101402.747     1162749.264    27421087.127      142811.249
D4003    830320.595    13903641.978       83369.389      830320.478    19581426.838      117413.975
D4103    776200.040    12997397.924       24451.627      776199.925    18305102.974       34437.448
D5627    812963.983    13613006.613       60966.389      812963.861    19172105.830       85864.259
D5727    495909.407     8303957.042        2838.446      495909.331    11695016.977        3997.350
D5826   1135138.753    19007794.867      105216.041     1135138.605    26769945.663      148183.304
D5926   1008920.350    16894278.620       77239.344     1008920.210    23793339.936      108782.507
> 2019  1 10  9 52  6.6000000  0 8                     
D3704   1099219.256    18406325.480       42269.522     1099219.103    25922856.435       59531.738
D3903   1161538.303    19449852.320      101305.153     1161538.143    27392524.878      142676.816
D4003    829324.861    13886968.100       83277.190      829324.738    19557944.043      117284.737
D4103    775907.971    12992507.598       24236.896      775907.861    18298215.485       34133.617
D5627    812235.763    13600813.335       60819.433      812235.651    19154932.978       85654.964
D5727    495875.512     8303389.353        2451.449      495875.435    11694217.507        3452.101
D5826   1133882.042    18986751.659      105176.646     1133881.899    26740309.003      148125.943
D5926   1007997.769    16878830.751       77104.678     1007997.638    23771583.435      108589.216
> 2019  1 10  9 52  6.8000000  0 8                     
D3704   1098714.366    18397871.576       42141.343     1098714.219    25910950.088       59350.607
D3903   1160328.253    19429591.289      101400.901     1160328.110    27363989.514      142809.554
D4003    828330.207    13870312.662       83191.378      828330.083    19534487.095      117164.110
D4103    775618.515    12987660.219       24040.501      775618.398    18291388.762       33858.175
D5627    811509.378    13588649.448       60724.128      811509.256    19137801.985       85521.505
D5727    495846.247     8302899.063        2189.522      495846.166    11693527.087        3083.998
D5826   1132625.866    18965716.330      105198.641     1132625.711    26710683.814      148157.224
D5926   1007076.920    16863409.815       76988.229     1007076.769    23749865.591      108429.487
> 2019  1 10  9 52  7.0000000  0 8                     
D3704   1098211.028    18389443.307       42032.068     1098210.882    25899079.966       59196.190
D3903   1159117.131    19409311.109      101275.798     1159116.987    27335427.604      142631.931
D4003    827336.571    13853674.386       83130.523      827336.448    19511054.274      117078.532
D4103    775331.366    12982852.119       23851.206      775331.252    18284617.127       33591.408
D5627    810784.105    13576504.623       60572.400      810783.980    19120697.684       85307.954
D5727    495820.084     8302461.159        1828.043      495820.006    11692910.288        2574.846
D5826   1131369.416    18944676.602      105108.212     1131369.253    26681052.369      148031.383
D5926   1006157.315    16848012.169       76967.468     1006157.180    23728179.694      108397.545
> 2019  1 10  9 52  7.2000000  0 8                     
D3704   1097709.013    18381036.893       41909.542     1097708.864    25887240.728       59024.624
D3903   1157907.553    19389055.950      101325.437     1157907.396    27306901.217      142703.195
D4003    826343.656    13837048.282       83027.792      826343.536    19487638.567      116933.186
D4103    775046.483    12978081.878       23753.009      775046.371    18277898.845       33452.252
D5627    810060.639    13564390.143       60394.713      810060.513    19103636.093       85058.210
D5727    495798.240     8302095.550        1501.184      495798.164    11692395.318        2114.116
D5826   1130113.995    18923654.959      105141.548     1130113.836    26651446.093      148078.510
D5926   1005238.051    16832618.676       76865.881     1005237.908    23706500.185      108255.900
> 2019  1 10  9 52  7.4000000  0 8                     
D3704   1097208.427    18372654.985       41821.153     1097208.284    25875435.803       58898.729
D3903   1156697.335    19368790.862      101200.723     1156697.177    27278360.578      142526.934
D4003    825351.992    13820442.723       82988.864      825351.868    19464251.930      116879.277
D4103    774762.803    12973331.276       23518.545      774762.684    18271208.394       33123.654
D5627    809339.278    13552311.200       60284.250      809339.155    19086624.451       84902.410
D5727    495780.313     8301795.313        1249.896      495780.237    11691972.495        1760.508
D5826   1128858.169    18902626.650      105023.487     1128858.016    26621830.391      147911.000
D5926   1004319.952    16817245.500       76694.102     1004319.814    23684849.005      108012.329
> 2019  1 10  9 52  7.6000000  0 8                     
D3704   1096708.945    18364290.754       41669.949     1096708.795    25863656.058       58686.389
D3903   1155488.628    19348550.718      101205.097     1155488.463    27249855.192      142535.703
D4003    824360.761    13803844.950       82869.795      824360.642    19440876.075      116710.121
D4103    774481.867    12968627.567       23324.186      774481.757    18264583.664       32847.446
D5627    808619.245    13540254.350       60096.045      808619.123    19069643.969       84637.540
