     3.02           OBSERVATION DATA    M: Mixed            RINEX VERSION / TYPE
BUPT PLAN 6.0                           20210329 120000 UTC PGM / RUN BY / DATE 
                                                            MARKER NAME         
                                                            MARKER NUMBER       
                                                            MARKER TYPE         
                                                            OBSERVER / AGENCY   
                                                            REC # / TYPE / VERS 
                                                            ANT # / TYPE        
  4076128.1056   519876.3642  4878092.5196                  APPROX POSITION XYZ 
        0.0000        0.0000        0.0000                  ANTENNA: DELTA H/E/N 
D    6 C5D L5D D5D C7D L7D D7D                              SYS / # / OBS TYPES  
    30.000                                                  INTERVAL            
  2019     1    10     9    51   54.0000000     GPS         TIME OF FIRST OBS   
  2019     1    10     9    54   44.0000000     GPS         TIME OF LAST OBS   
                                                            END OF HEADER       
> 2019  1 10  9 51 54.0000000  0 8                     
D3704   1137285.127    19043740.559           0.000      1137285.074    26820562.314           0.000 
D3903   1226364.109    20535356.310           0.000      1226364.231    28921314.201           0.000 
D4003    878872.707    14716651.812           0.000       878872.629    20726442.052           0.000 
D4103    782524.624    13103302.915           0.000       782525.169    18454257.979           0.000 
D5627    861075.949    14418642.852           0.000       861075.883    20306732.624           0.000 
D5727    505668.144     8467365.258           0.000       505667.736    11925162.495           0.000 
D5826   1230610.110    20606453.899           0.000      1230609.990    29021440.962           0.000 
D5926   1087887.688    18216579.399           0.000      1087887.821    25655630.305           0.000 
> 2019  1 10  9 51 54.2000000  0 8                     
D3704   1136692.743    19033820.238           0.000      1136692.448    26806591.253           0.000 
D3903   1225096.645    20514133.047           0.000      1225096.641    28891424.672           0.000 
D4003    877791.268    14698543.169           0.000       877791.337    20700938.291           0.000 
D4103    782104.244    13096254.219           0.000       782104.121    18444330.633           0.000 
D5627    860202.202    14404008.892           0.000       860201.961    20286122.406           0.000 
D5727    505363.952     8462279.622           0.000       505364.293    11918000.086           0.000 
D5826   1229348.394    20585329.090           0.000      1229348.165    28991689.181           0.000 
D5926   1086935.467    18200629.091           0.000      1086934.854    25633166.348           0.000 
> 2019  1 10  9 51 54.4000000  0 8                     
D3704   1136101.845    19023925.112           0.000      1136101.320    26792655.251           0.000 
D3903   1223830.831    20492934.058           0.000      1223830.598    28861568.507           0.000 
D4003    876710.764    14680442.169           0.000       876710.354    20675445.378           0.000 
D4103    781686.408    13089263.853           0.000       781686.349    18434485.724           0.000 
D5627    859328.550    14389380.973           0.000       859328.054    20265521.122           0.000 
D5727    505064.006     8457250.694           0.000       505064.512    11910917.655           0.000 
D5826   1228087.949    20564216.718           0.000      1228087.947    28961955.359           0.000 
D5926   1085984.696    18184709.142           0.000      1085984.407    25610745.391           0.000 
> 2019  1 10  9 51 54.6000000  0 8                     
D3704   1135512.341    19014050.433           0.000      1135511.429    26778748.208           0.000 
D3903   1222563.813    20471720.078           0.000      1222564.024    28831691.368           0.000 
D4003    875631.026    14662365.467           0.000       875630.955    20649986.808           0.000 
D4103    781271.113    13082318.230           0.000       781271.230    18424703.647           0.000 
D5627    858456.524    14374780.374           0.000       858456.341    20244958.193           0.000 
D5727    504767.934     8452293.996           0.000       504767.944    11903936.585           0.000 
D5826   1226826.622    20543098.129           0.000      1226826.547    28932212.407           0.000 
D5926   1085033.028    18168780.223           0.000      1085033.091    25588312.037           0.000 
> 2019  1 10  9 51 54.8000000  0 8                     
D3704   1134924.938    19004221.121           0.000      1134924.562    26764904.512           0.000 
D3903   1221298.768    20450527.093           0.000      1221298.295    28801843.371           0.000 
D4003    874552.693    14644301.929           0.000       874551.885    20624546.634           0.000 
D4103    780857.963    13075399.996           0.000       780858.678    18414960.591           0.000 
D5627    857586.650    14360212.709           0.000       857586.396    20224441.465           0.000 
D5727    504474.723     8447373.130           0.000       504474.238    11897006.461           0.000 
D5826   1225565.756    20521992.360           0.000      1225565.864    28902488.165           0.000 
D5926   1084084.620    18152893.344           0.000      1084083.786    25565937.396           0.000 
> 2019  1 10  9 51 55.0000000  0 8                     
D3704   1134338.179    18994396.242           0.000      1134338.125    26751067.308           0.000 
D3903   1220033.207    20429340.793           0.000      1220032.702    28772005.956           0.000 
D4003    873473.386    14626231.516           0.000       873472.814    20599097.094           0.000 
D4103    780447.870    13068521.968           0.000       780447.774    18405273.991           0.000 
D5627    856717.444    14345666.590           0.000       856718.456    20203955.366           0.000 
D5727    504185.288     8442526.256           0.000       504184.962    11890180.034           0.000 
D5826   1224306.722    20500902.883           0.000      1224306.428    28872786.211           0.000 
D5926   1083136.746    18137020.499           0.000      1083136.044    25543582.445           0.000 
> 2019  1 10  9 51 55.2000000  0 8                     
D3704   1133752.849    18984603.911           0.000      1133753.354    26737276.191           0.000 
D3903   1218767.343    20408147.986           0.000      1218767.350    28742158.184           0.000 
D4003    872396.815    14608213.991           0.000       872397.159    20573721.471           0.000 
D4103    780037.760    13061664.196           0.000       780037.992    18395615.524           0.000 
D5627    855850.021    14331135.424           0.000       855850.210    20183489.971           0.000 
D5727    503899.300     8437746.228           0.000       503899.135    11883448.027           0.000 
D5826   1223046.471    20479800.443           0.000      1223046.359    28843065.767           0.000 
D5926   1082189.281    18121156.288           0.000      1082189.218    25521239.439           0.000 
> 2019  1 10  9 51 55.4000000  0 8                     
D3704   1133170.060    18974833.340           0.000      1133169.821    26723515.886           0.000 
D3903   1217502.580    20386965.382           0.000      1217501.672    28712325.577           0.000 
D4003    871321.122    14590193.243           0.000       871321.389    20548341.781           0.000 
D4103    779632.552    13054871.101           0.000       779632.095    18386048.312           0.000 
D5627    854983.634    14316633.270           0.000       854983.860    20163065.535           0.000 
D5727    503617.800     8433031.726           0.000       503618.165    11876808.139           0.000 
D5826   1221786.541    20458705.005           0.000      1221786.780    28813356.090           0.000 
D5926   1081243.347    18105320.335           0.000      1081242.694    25498936.945           0.000 
> 2019  1 10  9 51 55.6000000  0 8                     
D3704   1132587.799    18965080.915           0.000      1132587.858    26709780.712           0.000 
D3903   1216237.911    20365780.743           0.000      1216237.412    28682489.976           0.000 
D4003    870245.724    14572192.366           0.000       870245.811    20522990.049           0.000 
D4103    779227.785    13048097.323           0.000       779227.697    18376508.145           0.000 
D5627    854119.752    14302155.740           0.000       854119.302    20142675.929           0.000 
D5727    503338.918     8428362.302           0.000       503338.710    11870231.925           0.000 
D5826   1220526.851    20437610.754           0.000      1220526.886    28783647.343           0.000 
D5926   1080297.887    18089490.150           0.000      1080297.064    25476642.223           0.000 
> 2019  1 10  9 51 55.8000000  0 8                     
D3704   1132007.207    18955359.724           0.000      1132006.607    26696089.559           0.000 
D3903   1214973.548    20344615.080           0.000      1214972.968    28652680.734           0.000 
D4003    869172.086    14554199.278           0.000       869171.680    20497649.249           0.000 
D4103    778825.788    13041364.514           0.000       778826.059    18367026.103           0.000 
D5627    853256.512    14287706.084           0.000       853256.338    20122325.478           0.000 
D5727    503064.035     8423764.840           0.000       503064.704    11863757.241           0.000 
D5826   1219268.387    20416540.670           0.000      1219268.092    28753973.177           0.000 
D5926   1079353.112    18073677.221           0.000      1079354.161    25454371.539           0.000 
> 2019  1 10  9 51 56.0000000  0 8                     
D3704   1131428.342    18945670.942           0.000      1131428.019    26682444.612           0.000 
D3903   1213709.147    20323450.430           0.000      1213708.706    28622873.091           0.000 
D4003    868097.863    14536225.670           0.000       868098.266    20472335.659           0.000 
D4103    778424.649    13034664.077           0.000       778425.882    18357589.203           0.000 
D5627    852394.884    14273281.668           0.000       852395.319    20102010.817           0.000 
D5727    502792.074     8419209.999           0.000       502792.634    11857342.133           0.000 
D5826   1218010.699    20395466.798           0.000      1218009.740    28724293.646           0.000 
D5926   1078410.402    18057881.022           0.000      1078409.695    25432124.921           0.000 
> 2019  1 10  9 51 56.2000000  0 8                     
D3704   1130850.633    18936000.606           0.000      1130850.606    26668825.221           0.000 
D3903   1212445.383    20302282.704           0.000      1212444.941    28593061.188           0.000 
D4003    867026.067    14518268.832           0.000       867025.881    20447045.789           0.000 
D4103    778027.862    13028004.677           0.000       778027.906    18348210.559           0.000 
D5627    851534.624    14258873.233           0.000       851534.613    20081718.549           0.000 
D5727    502524.775     8414736.984           0.000       502525.245    11851042.411           0.000 
D5826   1216751.795    20374391.294           0.000      1216751.479    28694611.492           0.000 
D5926   1077468.850    18042110.176           0.000      1077467.837    25409913.708           0.000 
> 2019  1 10  9 51 56.4000000  0 8                     
D3704   1130275.384    18926357.221           0.000      1130274.806    26655243.783           0.000 
D3903   1211181.772    20281118.125           0.000      1211181.201    28563253.726           0.000 
D4003    865954.033    14500323.502           0.000       865954.207    20421772.291           0.000 
D4103    777633.093    13021395.021           0.000       777633.334    18338901.538           0.000 
D5627    850674.221    14244469.473           0.000       850674.478    20061432.629           0.000 
D5727    502260.895     8410308.851           0.000       502260.654    11844806.270           0.000 
D5826   1215493.697    20353324.124           0.000      1215493.074    28664941.405           0.000 
D5926   1076527.594    18026354.676           0.000      1076527.974    25387724.378           0.000 
> 2019  1 10  9 51 56.6000000  0 8                     
D3704   1129700.615    18916736.743           0.000      1129700.748    26641694.418           0.000 
D3903   1209918.484    20259973.748           0.000      1209918.634    28533474.677           0.000 
D4003    864883.871    14482398.487           0.000       864883.511    20396527.271           0.000 
D4103    777239.442    13014803.153           0.000       777239.202    18329617.703           0.000 
D5627    849817.609    14230123.445           0.000       849817.858    20041228.501           0.000 
D5727    502000.672     8405953.275           0.000       502000.901    11838672.067           0.000 
D5826   1214235.205    20332262.372           0.000      1214234.611    28635278.025           0.000 
D5926   1075587.905    18010620.629           0.000      1075587.475    25365564.810           0.000 
> 2019  1 10  9 51 56.8000000  0 8                     
D3704   1129127.410    18907141.681           0.000      1129126.797    26628180.976           0.000 
D3903   1208654.542    20238806.620           0.000      1208654.264    28503663.351           0.000 
D4003    863813.632    14464478.089           0.000       863813.560    20371289.044           0.000 
D4103    776848.649    13008251.918           0.000       776848.105    18320391.384           0.000 
D5627    848961.196    14215783.797           0.000       848961.108    20021032.485           0.000 
D5727    501744.760     8401663.252           0.000       501744.534    11832630.097           0.000 
D5826   1212979.021    20311226.375           0.000      1212979.453    28605651.979           0.000 
D5926   1074648.821    17994895.139           0.000      1074648.930    25343417.879           0.000 
> 2019  1 10  9 51 57.0000000  0 8                     
D3704   1128555.478    18897564.739           0.000      1128555.850    26614693.381           0.000 
D3903   1207392.321    20217676.470           0.000      1207392.788    28473904.681           0.000 
D4003    862745.479    14446590.936           0.000       862745.834    20346096.916           0.000 
D4103    776460.539    13001752.955           0.000       776460.297    18311238.243           0.000 
D5627    848107.024    14201479.445           0.000       848106.949    20000886.803           0.000 
D5727    501490.452     8397410.465           0.000       501490.456    11826640.529           0.000 
D5826   1211722.913    20290182.538           0.000      1211721.734    28576014.721           0.000 
D5926   1073710.931    17979188.959           0.000      1073710.595    25321297.627           0.000 
> 2019  1 10  9 51 57.2000000  0 8                     
D3704   1127985.677    18888019.431           0.000      1127985.342    26601250.062           0.000 
D3903   1206130.647    20196540.349           0.000      1206130.067    28444137.348           0.000 
D4003    861677.038    14428702.742           0.000       861677.028    20320903.939           0.000 
D4103    776073.028    12995270.685           0.000       776072.715    18302109.224           0.000 
D5627    847254.039    14187190.603           0.000       847253.694    19980762.767           0.000 
D5727    501241.424     8393236.033           0.000       501240.650    11820761.471           0.000 
D5826   1210464.076    20269126.428           0.000      1210465.333    28546359.911           0.000 
D5926   1072774.662    17963510.611           0.000      1072773.975    25299216.668           0.000 
> 2019  1 10  9 51 57.4000000  0 8                     
D3704   1127417.028    18878503.365           0.000      1127417.335    26587847.541           0.000 
D3903   1204868.637    20175417.619           0.000      1204868.570    28414388.773           0.000 
D4003    860611.104    14410848.214           0.000       860610.499    20295758.222           0.000 
D4103    775689.255    12988845.114           0.000       775689.353    18293059.280           0.000 
D5627    846401.753    14172922.897           0.000       846401.398    19960668.741           0.000 
D5727    500995.418     8389125.266           0.000       500995.422    11814971.846           0.000 
D5826   1209209.122    20248091.041           0.000      1209208.486    28516734.213           0.000 
D5926   1071838.296    17947844.723           0.000      1071839.091    25277153.506           0.000 
> 2019  1 10  9 51 57.6000000  0 8                     
D3704   1126849.956    18869008.980           0.000      1126850.048    26574476.500           0.000 
D3903   1203607.086    20154287.000           0.000      1203607.107    28384629.152           0.000 
D4003    859544.313    14392986.862           0.000       859544.148    20270602.805           0.000 
D4103    775307.692    12982453.274           0.000       775307.796    18284057.443           0.000 
D5627    845552.204    14158686.979           0.000       845551.425    19940619.365           0.000 
D5727    500754.305     8385078.822           0.000       500753.721    11809273.108           0.000 
D5826   1207952.551    20227050.993           0.000      1207951.790    28487102.230           0.000 
D5926   1070902.994    17932181.265           0.000      1070903.081    25255093.467           0.000 
> 2019  1 10  9 51 57.8000000  0 8                     
D3704   1126284.858    18859535.261           0.000      1126284.321    26561133.987           0.000 
D3903   1202345.376    20133161.968           0.000      1202345.327    28354877.242           0.000 
D4003    858479.524    14375158.128           0.000       858479.192    20245493.738           0.000 
D4103    774928.702    12976098.880           0.000       774928.435    18275108.081           0.000 
D5627    844702.565    14144468.512           0.000       844702.379    19920594.609           0.000 
D5727    500515.417     8381084.626           0.000       500515.891    11803647.794           0.000 
D5826   1206697.652    20206035.206           0.000      1206696.327    28457504.289           0.000 
D5926   1069971.546    17916563.620           0.000      1069970.708    25233098.583           0.000 
> 2019  1 10  9 51 58.0000000  0 8                     
D3704   1125721.104    18850094.552           0.000      1125720.581    26547838.144           0.000 
D3903   1201083.625    20112040.881           0.000      1201083.697    28325130.836           0.000 
D4003    857415.315    14357344.090           0.000       857415.984    20220404.743           0.000 
D4103    774550.309    12969774.302           0.000       774550.084    18266200.842           0.000 
D5627    843854.577    14130280.168           0.000       843854.746    19900612.079           0.000 
D5727    500281.344     8377159.795           0.000       500280.932    11798120.250           0.000 
D5826   1205441.267    20185005.614           0.000      1205441.211    28427886.710           0.000 
D5926   1069037.264    17900936.812           0.000      1069036.862    25211089.779           0.000 
> 2019  1 10  9 51 58.2000000  0 8                     
D3704   1125157.927    18840676.569           0.000      1125158.024    26534574.085           0.000 
D3903   1199823.615    20090934.871           0.000      1199823.371    28295406.042           0.000 
D4003    856352.748    14339553.442           0.000       856353.049    20195349.116           0.000 
D4103    774176.187    12963499.512           0.000       774175.890    18257363.620           0.000 
D5627    843009.220    14116112.240           0.000       843008.883    19880658.636           0.000 
D5727    500049.697     8373280.668           0.000       500049.520    11792656.988           0.000 
D5826   1204186.097    20163993.307           0.000      1204186.464    28398294.089           0.000 
D5926   1068106.220    17885343.202           0.000      1068106.429    25189128.411           0.000 
> 2019  1 10  9 51 58.4000000  0 8                     
D3704   1124597.024    18831284.545           0.000      1124596.928    26521346.410           0.000 
D3903   1198562.517    20069822.019           0.000      1198562.586    28265671.368           0.000 
D4003    855290.122    14321755.016           0.000       855289.225    20170282.166           0.000 
D4103    773802.755    12957252.371           0.000       773802.431    18248565.602           0.000 
D5627    842164.907    14101975.895           0.000       842164.660    19860749.114           0.000 
D5727    499822.288     8369477.080           0.000       499822.038    11787300.103           0.000 
D5826   1202931.496    20142978.336           0.000      1202930.610    28368697.085           0.000 
D5926   1067176.925    17869770.101           0.000      1067176.771    25167196.087           0.000 
> 2019  1 10  9 51 58.6000000  0 8                     
D3704   1124037.350    18821908.135           0.000      1124037.265    26508141.287           0.000 
D3903   1197302.668    20048723.016           0.000      1197302.431    28235956.801           0.000 
D4003    854229.291    14303990.162           0.000       854229.312    20145262.905           0.000 
D4103    773432.195    12951052.440           0.000       773431.866    18239833.673           0.000 
D5627    841321.064    14087848.186           0.000       841320.854    19840852.294           0.000 
D5727    499599.813     8365744.031           0.000       499599.094    11782042.599           0.000 
D5826   1201677.870    20121988.872           0.000      1201677.642    28339136.396           0.000 
D5926   1066246.858    17854201.773           0.000      1066246.593    25145270.166           0.000 
> 2019  1 10  9 51 58.8000000  0 8                     
D3704   1123479.348    18812571.594           0.000      1123479.370    26494991.764           0.000 
D3903   1196041.794    20027619.714           0.000      1196042.031    28206234.900           0.000 
D4003    853168.143    14286230.134           0.000       853168.541    20120250.155           0.000 
D4103    773064.185    12944885.323           0.000       773064.245    18231147.962           0.000 
D5627    840479.857    14073759.743           0.000       840479.455    19821010.580           0.000 
D5727    499379.579     8362058.676           0.000       499379.174    11776852.128           0.000 
D5826   1200423.859    20100988.619           0.000      1200423.284    28309560.189           0.000 
D5926   1065317.881    17838652.528           0.000      1065318.295    25123370.859           0.000 
> 2019  1 10  9 51 59.0000000  0 8                     
D3704   1122923.445    18803252.199           0.000      1122923.444    26481866.641           0.000 
D3903   1194783.934    20006543.921           0.000      1194783.366    28176552.787           0.000 
D4003    852109.979    14268508.443           0.000       852109.920    20095291.394           0.000 
D4103    772698.747    12938763.808           0.000       772698.868    18222526.792           0.000 
D5627    839640.227    14059700.519           0.000       839640.252    19801210.226           0.000 
D5727    499163.729     8358440.187           0.000       499163.094    11771755.884           0.000 
D5826   1199170.282    20079994.959           0.000      1199169.676    28279993.448           0.000 
D5926   1064390.977    17823139.309           0.000      1064391.662    25101522.469           0.000 
> 2019  1 10  9 51 59.2000000  0 8                     
D3704   1122368.250    18793956.957           0.000      1122367.758    26468775.629           0.000 
D3903   1193524.016    19985445.477           0.000      1193523.856    28146838.343           0.000 
D4003    851051.555    14250782.275           0.000       851051.101    20070326.673           0.000 
D4103    772334.918    12932670.976           0.000       772334.818    18213945.803           0.000 
D5627    838801.238    14045654.277           0.000       838801.193    19781427.968           0.000 
D5727    498950.577     8354876.741           0.000       498950.101    11766737.423           0.000 
D5826   1197916.445    20059004.717           0.000      1197916.769    28250431.581           0.000 
D5926   1063465.658    17807635.135           0.000      1063465.356    25079687.055           0.000 
> 2019  1 10  9 51 59.4000000  0 8                     
D3704   1121815.213    18784700.144           0.000      1121814.851    26455738.654           0.000 
D3903   1192264.938    19964370.303           0.000      1192264.589    28117156.699           0.000 
D4003    849994.267    14233081.407           0.000       849994.303    20045397.286           0.000 
D4103    771973.632    12926619.221           0.000       771973.582    18205422.498           0.000 
D5627    837963.652    14031633.259           0.000       837963.536    19761681.294           0.000 
D5727    498741.610     8351382.927           0.000       498742.153    11761816.929           0.000 
D5826   1196663.147    20038017.686           0.000      1196663.447    28220874.014           0.000 
D5926   1062540.561    17792146.660           0.000      1062540.391    25057873.451           0.000 
> 2019  1 10  9 51 59.6000000  0 8                     
D3704   1121263.150    18775452.267           0.000      1121263.193    26442714.237           0.000 
D3903   1191006.613    19943300.709           0.000      1191005.964    28087482.803           0.000 
D4003    848938.121    14215393.560           0.000       848937.982    20020486.389           0.000 
D4103    771614.692    12920607.907           0.000       771613.609    18196956.621           0.000 
D5627    837129.194    14017652.095           0.000       837128.021    19741990.558           0.000 
D5727    498537.019     8347957.879           0.000       498537.288    11756993.063           0.000 
D5826   1195410.793    20017046.232           0.000      1195410.409    28191338.631           0.000 
D5926   1061617.303    17776688.942           0.000      1061617.598    25036103.293           0.000 
> 2019  1 10  9 51 59.8000000  0 8                     
D3704   1120712.714    18766236.437           0.000      1120712.477    26429735.194           0.000 
D3903   1189748.696    19922230.137           0.000      1189748.148    28057808.207           0.000 
D4003    847883.323    14197728.354           0.000       847882.863    19995607.114           0.000 
D4103    771257.281    12914627.132           0.000       771256.942    18188533.352           0.000 
D5627    836293.929    14003669.737           0.000       836293.459    19722298.238           0.000 
D5727    498335.930     8344584.264           0.000       498335.585    11752241.769           0.000 
D5826   1194158.777    19996074.972           0.000      1194157.783    28161803.342           0.000 
D5926   1060693.461    17761220.398           0.000      1060693.497    25014317.861           0.000 
> 2019  1 10  9 52  0.0000000  0 8                     
D3704   1120163.076    18757043.778           0.000      1120163.010    26416788.194           0.000 
D3903   1188490.668    19901161.791           0.000      1188489.954    28028135.967           0.000 
D4003    846829.024    14180080.484           0.000       846829.523    19970752.630           0.000 
D4103    770903.206    12908695.948           0.000       770902.521    18180179.953           0.000 
D5627    835461.369    13989731.727           0.000       835460.980    19702668.603           0.000 
D5727    498138.576     8341278.234           0.000       498138.421    11747585.727           0.000 
D5826   1192906.826    19975110.489           0.000      1192906.098    28132277.475           0.000 
D5926   1059772.486    17745787.742           0.000      1059772.896    24992583.344           0.000 
> 2019  1 10  9 52  0.2000000  0 8                     
D3704   1119615.804    18747878.649           0.000      1119616.185    26403880.387           0.000 
D3903   1187232.963    19880108.881           0.000      1187232.746    27998485.889           0.000 
D4003    845775.475    14162437.938           0.000       845775.520    19945905.408           0.000 
D4103    770551.161    12902797.733           0.000       770550.898    18171873.008           0.000 
D5627    834630.125    13975810.778           0.000       834629.994    19683062.735           0.000 
D5727    497944.576     8338036.619           0.000       497944.807    11743020.569           0.000 
D5826   1191655.018    19954152.334           0.000      1191654.174    28102760.673           0.000 
D5926   1058852.057    17730381.705           0.000      1058851.893    24970885.714           0.000 
> 2019  1 10  9 52  0.4000000  0 8                     
D3704   1119070.470    18738745.198           0.000      1119070.999    26391017.260           0.000 
D3903   1185976.077    19859056.696           0.000      1185975.976    27968836.535           0.000 
D4003    844723.927    14144825.618           0.000       844723.521    19921100.911           0.000 
D4103    770201.599    12896945.684           0.000       770201.396    18163631.410           0.000 
D5627    833800.718    13961921.903           0.000       833800.241    19663501.938           0.000 
D5727    497754.242     8334844.174           0.000       497754.366    11738524.351           0.000 
D5826   1190404.177    19933209.493           0.000      1190402.976    28073265.394           0.000 
D5926   1057932.801    17714985.016           0.000      1057932.290    24949201.631           0.000 
> 2019  1 10  9 52  0.6000000  0 8                     
D3704   1118527.173    18729629.476           0.000      1118526.361    26378178.928           0.000 
D3903   1184718.679    19838012.117           0.000      1184719.223    27939197.848           0.000 
D4003    843672.324    14127216.349           0.000       843672.242    19896300.658           0.000 
D4103    769853.335    12891119.608           0.000       769852.954    18155426.458           0.000 
D5627    832972.742    13948064.001           0.000       832972.696    19643984.958           0.000 
D5727    497567.990     8331723.986           0.000       497568.032    11734129.876           0.000 
D5826   1189152.674    19912254.620           0.000      1189153.010    28043753.230           0.000 
D5926   1057014.807    17699607.274           0.000      1057014.566    24927544.030           0.000 
> 2019  1 10  9 52  0.8000000  0 8                     
D3704   1117984.185    18720548.457           0.000      1117983.726    26365389.456           0.000 
D3903   1183462.302    19816969.565           0.000      1183462.304    27909562.085           0.000 
D4003    842622.337    14109640.649           0.000       842622.151    19871547.778           0.000 
D4103    769508.181    12885345.266           0.000       769507.821    18147293.558           0.000 
D5627    832146.580    13934221.100           0.000       832146.347    19624489.101           0.000 
D5727    497385.251     8328665.003           0.000       497384.898    11729821.666           0.000 
D5826   1187902.686    19891318.495           0.000      1187902.378    28014268.162           0.000 
D5926   1056097.312    17684250.714           0.000      1056097.342    24905916.629           0.000 
> 2019  1 10  9 52  1.0000000  0 8                     
D3704   1117441.974    18711473.638           0.000      1117441.619    26352608.592           0.000 
D3903   1182205.840    19795925.502           0.000      1182206.040    27879924.772           0.000 
D4003    841572.590    14092057.340           0.000       841572.756    19846783.987           0.000 
D4103    769165.682    12879605.149           0.000       769165.355    18139209.464           0.000 
D5627    831321.404    13920401.349           0.000       831321.052    19605025.674           0.000 
D5727    497206.342     8325674.785           0.000       497206.469    11725610.464           0.000 
D5826   1186652.192    19870380.577           0.000      1186651.310    27984779.394           0.000 
D5926   1055181.188    17668908.782           0.000      1055181.275    24884309.368           0.000 
> 2019  1 10  9 52  1.2000000  0 8                     
D3704   1116902.715    18702438.544           0.000      1116902.473    26339884.076           0.000 
D3903   1180949.168    19774889.217           0.000      1180948.679    27850297.666           0.000 
D4003    840525.004    14074510.998           0.000       840524.838    19822072.154           0.000 
D4103    768824.877    12873901.193           0.000       768825.221    18131176.331           0.000 
D5627    830497.430    13906614.150           0.000       830497.929    19585608.203           0.000 
D5727    497032.563     8322746.078           0.000       497031.420    11721485.538           0.000 
D5826   1185402.415    19849449.109           0.000      1185401.719    27955300.118           0.000 
D5926   1054266.129    17653586.587           0.000      1054265.387    24862730.293           0.000 
> 2019  1 10  9 52  1.4000000  0 8                     
D3704   1116365.233    18693440.591           0.000      1116364.930    26327211.800           0.000 
D3903   1179694.173    19753869.868           0.000      1179694.046    27820694.872           0.000 
D4003    839477.761    14056975.492           0.000       839477.366    19797375.828           0.000 
D4103    768486.563    12868228.090           0.000       768486.188    18123186.315           0.000 
D5627    829676.170    13892849.985           0.000       829675.340    19566223.398           0.000 
D5727    496859.861     8319873.397           0.000       496859.529    11717439.794           0.000 
D5826   1184151.863    19828519.461           0.000      1184152.104    27925823.895           0.000 
D5926   1053352.145    17638281.229           0.000      1053350.824    24841174.248           0.000 
> 2019  1 10  9 52  1.6000000  0 8                     
D3704   1115829.033    18684456.701           0.000      1115828.366    26314559.367           0.000 
D3903   1178438.428    19732843.952           0.000      1178438.602    27791082.641           0.000 
D4003    838431.787    14039465.810           0.000       838431.655    19772715.671           0.000 
D4103    768150.866    12862612.883           0.000       768150.585    18115278.174           0.000 
D5627    828855.058    13879111.055           0.000       828854.907    19546873.881           0.000 
D5727    496692.851     8317067.226           0.000       496692.289    11713487.757           0.000 
D5826   1182903.626    19807614.855           0.000      1182903.312    27896382.049           0.000 
D5926   1052438.975    17622991.311           0.000      1052439.112    24819640.693           0.000 
> 2019  1 10  9 52  1.8000000  0 8                     
D3704   1115293.470    18675492.146           0.000      1115293.706    26301933.390           0.000 
D3903   1177184.000    19711837.037           0.000      1177184.326    27761497.150           0.000 
D4003    837386.581    14021960.513           0.000       837386.593    19748061.614           0.000 
D4103    767816.555    12857022.489           0.000       767817.263    18107404.802           0.000 
D5627    828036.144    13865401.420           0.000       828036.215    19527565.813           0.000 
D5727    496528.584     8314325.337           0.000       496529.617    11709626.161           0.000 
D5826   1181653.992    19786685.319           0.000      1181653.788    27866905.807           0.000 
D5926   1051528.518    17607740.100           0.000      1051528.306    24798161.575           0.000 
> 2019  1 10  9 52  2.0000000  0 8                     
D3704   1114760.873    18666570.420           0.000      1114760.432    26289368.645           0.000 
D3903   1175928.924    19690821.269           0.000      1175929.178    27731899.293           0.000 
D4003    836342.056    14004475.535           0.000       836342.165    19723436.576           0.000 
D4103    767485.779    12851478.932           0.000       767485.737    18099597.557           0.000 
D5627    827219.892    13851717.031           0.000       827218.797    19508293.140           0.000 
D5727    496368.976     8311653.911           0.000       496368.509    11705863.710           0.000 
D5826   1180406.582    19765792.799           0.000      1180405.911    27837481.649           0.000 
D5926   1050617.291    17592491.403           0.000      1050616.783    24776685.780           0.000 
> 2019  1 10  9 52  2.2000000  0 8                     
D3704   1114228.406    18657663.285           0.000      1114228.390    26276824.418           0.000 
D3903   1174674.837    19669815.651           0.000      1174674.706    27702315.460           0.000 
D4003    835300.031    13987022.000           0.000       835299.427    19698855.632           0.000 
D4103    767156.437    12845967.620           0.000       767156.728    18091835.746           0.000 
D5627    826403.310    13838049.915           0.000       826403.537    19489044.767           0.000 
D5727    496212.381     8309034.853           0.000       496212.433    11702175.301           0.000 
D5826   1179157.761    19744893.211           0.000      1179157.309    27808047.360           0.000 
D5926   1049707.687    17577252.474           0.000      1049707.227    24755223.477           0.000 
> 2019  1 10  9 52  2.4000000  0 8                     
D3704   1113698.248    18648785.509           0.000      1113698.676    26264320.868           0.000 
D3903   1173420.501    19648820.002           0.000      1173420.244    27672746.096           0.000 
D4003    834257.748    13969567.699           0.000       834257.876    19674273.563           0.000 
D4103    766830.460    12840499.655           0.000       766830.025    18084134.811           0.000 
D5627    825588.672    13824414.356           0.000       825588.724    19469841.025           0.000 
D5727    496060.792     8306482.955           0.000       496060.348    11698581.186           0.000 
D5826   1177909.024    19723996.004           0.000      1177909.657    27778615.976           0.000 
D5926   1048799.819    17562051.105           0.000      1048799.305    24733814.604           0.000 
> 2019  1 10  9 52  2.6000000  0 8                     
D3704   1113169.608    18639932.451           0.000      1113169.787    26251852.454           0.000 
D3903   1172166.909    19627821.030           0.000      1172166.301    27643171.656           0.000 
D4003    833215.978    13952134.583           0.000       833216.370    19649721.044           0.000 
D4103    766505.461    12835071.847           0.000       766506.217    18076490.227           0.000 
D5627    824777.152    13810817.599           0.000       824777.113    19450691.617           0.000 
D5727    495910.881     8303983.304           0.000       495911.133    11695060.751           0.000 
D5826   1176662.006    19703102.649           0.000      1176662.181    27749190.688           0.000 
D5926   1047893.123    17546864.909           0.000      1047892.477    24712426.909           0.000 
> 2019  1 10  9 52  2.8000000  0 8                     
D3704   1112643.165    18631105.790           0.000      1112642.753    26239421.418           0.000 
D3903   1170912.551    19606836.029           0.000      1170913.111    27613617.484           0.000 
D4003    832177.182    13934727.267           0.000       832176.538    19625205.389           0.000 
D4103    766183.769    12829672.776           0.000       766183.357    18068886.584           0.000 
D5627    823966.289    13797235.966           0.000       823965.427    19431563.645           0.000 
D5727    495766.219     8301554.114           0.000       495765.538    11691639.637           0.000 
D5826   1175415.642    19682222.297           0.000      1175415.051    27719783.617           0.000 
D5926   1046986.970    17531690.356           0.000      1046986.472    24691055.715           0.000 
> 2019  1 10  9 52  3.0000000  0 8                     
D3704   1112117.423    18622308.081           0.000      1112116.791    26227030.944           0.000 
D3903   1169660.232    19585853.869           0.000      1169660.294    27584067.022           0.000 
D4003    831137.980    13917327.682           0.000       831137.760    19600700.372           0.000 
D4103    765865.036    12824338.258           0.000       765865.389    18061373.536           0.000 
D5627    823156.579    13783678.098           0.000       823155.963    19412469.461           0.000 
D5727    495625.243     8299197.321           0.000       495625.523    11688320.526           0.000 
D5826   1174168.575    19661348.365           0.000      1174168.770    27690385.376           0.000 
D5926   1046081.694    17516537.650           0.000      1046081.045    24669715.059           0.000 
> 2019  1 10  9 52  3.2000000  0 8                     
D3704   1111593.550    18613528.771           0.000      1111592.931    26214666.422           0.000 
D3903   1168408.647    19564891.650           0.000      1168407.670    27554544.096           0.000 
D4003    830099.471    13899951.929           0.000       830100.008    19576228.876           0.000 
D4103    765547.430    12819015.150           0.000       765547.077    18053876.720           0.000 
D5627    822348.268    13770144.948           0.000       822347.875    19393409.882           0.000 
D5727    495488.011     8296902.503           0.000       495488.290    11685088.695           0.000 
D5826   1172922.909    19640489.672           0.000      1172922.674    27661009.005           0.000 
D5926   1045177.664    17501408.667           0.000      1045177.953    24648407.850           0.000 
> 2019  1 10  9 52  3.4000000  0 8                     
D3704   1111070.965    18604787.523           0.000      1111070.313    26202355.759           0.000 
D3903   1167155.822    19543910.222           0.000      1167155.366    27524994.979           0.000 
D4003    829063.059    13882590.061           0.000       829063.068    19551776.798           0.000 
D4103    765232.859    12813747.187           0.000       765232.287    18046457.563           0.000 
D5627    821541.025    13756633.410           0.000       821540.822    19374380.403           0.000 
D5727    495353.851     8294655.949           0.000       495354.370    11681924.407           0.000 
D5826   1171676.253    19619623.470           0.000      1171676.540    27631621.354           0.000 
D5926   1044276.308    17486304.252           0.000      1044276.107    24627135.450           0.000 
> 2019  1 10  9 52  3.6000000  0 8                     
D3704   1110550.491    18596067.542           0.000      1110550.134    26190074.730           0.000 
D3903   1165903.891    19522949.705           0.000      1165903.347    27495474.548           0.000 
D4003    828028.210    13865253.616           0.000       828027.868    19527361.094           0.000 
D4103    764919.976    12808512.183           0.000       764919.796    18039084.559           0.000 
D5627    820737.311    13743170.916           0.000       820736.920    19355420.333           0.000 
D5727    495224.731     8292488.189           0.000       495224.348    11678871.544           0.000 
D5826   1170430.845    19598764.842           0.000      1170431.128    27602244.973           0.000 
D5926   1043373.858    17471200.056           0.000      1043373.970    24605862.926           0.000 
> 2019  1 10  9 52  3.8000000  0 8                     
D3704   1110031.210    18587368.303           0.000      1110030.261    26177823.219           0.000 
D3903   1164652.237    19501991.496           0.000      1164651.802    27465957.904           0.000 
D4003    826993.089    13847918.746           0.000       826992.526    19502947.289           0.000 
D4103    764610.034    12803316.767           0.000       764609.574    18031767.536           0.000 
D5627    819933.070    13729712.371           0.000       819933.209    19336465.781           0.000 
D5727    495098.784     8290382.148           0.000       495098.942    11675905.355           0.000 
D5826   1169185.832    19577908.582           0.000      1169185.795    27572871.698           0.000 
D5926   1042473.917    17456129.459           0.000      1042473.569    24584637.740           0.000 
> 2019  1 10  9 52  4.0000000  0 8                     
D3704   1109513.539    18578714.460           0.000      1109514.456    26165635.063           0.000 
D3903   1163400.669    19481033.991           0.000      1163400.691    27436441.887           0.000 
D4003    825959.011    13830613.307           0.000       825959.325    19478574.713           0.000 
D4103    764302.426    12798169.238           0.000       764302.491    18024517.810           0.000 
D5627    819131.397    13716287.117           0.000       819131.503    19317558.258           0.000 
D5727    494976.208     8288332.782           0.000       494977.078    11673019.207           0.000 
D5826   1167941.273    19557064.132           0.000      1167940.493    27543515.090           0.000 
D5926   1041574.950    17441080.841           0.000      1041574.581    24563444.072           0.000 
> 2019  1 10  9 52  4.2000000  0 8                     
D3704   1108996.994    18570058.496           0.000      1108996.281    26153444.412           0.000 
D3903   1162149.502    19460089.962           0.000      1162149.690    27406944.984           0.000 
D4003    824926.647    13813321.022           0.000       824925.843    19454220.611           0.000 
D4103    763997.438    12793054.821           0.000       763996.554    18017314.787           0.000 
D5627    818331.922    13702894.945           0.000       818331.859    19298696.806           0.000 
D5727    494858.497     8286352.471           0.000       494858.712    11670230.290           0.000 
D5826   1166696.213    19536224.576           0.000      1166696.199    27514165.195           0.000 
D5926   1040677.425    17426049.315           0.000      1040677.874    24542274.500           0.000 
> 2019  1 10  9 52  4.4000000  0 8                     
D3704   1108482.573    18561442.559           0.000      1108482.165    26141310.174           0.000 
D3903   1160899.347    19439157.646           0.000      1160899.525    27377464.564           0.000 
D4003    823895.737    13796055.052           0.000       823895.605    19429904.033           0.000 
D4103    763693.053    12787979.906           0.000       763693.599    18010167.512           0.000 
D5627    817533.617    13689522.281           0.000       817533.613    19279863.556           0.000 
D5727    494743.850     8284444.442           0.000       494744.290    11667542.732           0.000 
D5826   1165451.833    19515383.461           0.000      1165451.469    27484813.615           0.000 
D5926   1039780.487    17411025.085           0.000      1039780.661    24521114.548           0.000 
> 2019  1 10  9 52  4.6000000  0 8                     
D3704   1107969.917    18552857.588           0.000      1107969.776    26129219.492           0.000 
D3903   1159649.237    19418213.626           0.000      1159648.828    27347967.864           0.000 
D4003    822865.449    13778811.312           0.000       822865.545    19405618.361           0.000 
D4103    763393.327    12782947.669           0.000       763392.865    18003080.301           0.000 
D5627    816736.682    13676182.914           0.000       816736.440    19261076.933           0.000 
D5727    494633.207     8282583.686           0.000       494633.282    11664922.382           0.000 
D5826   1164208.105    19494564.017           0.000      1164207.863    27455492.016           0.000 
D5926   1038885.125    17396032.218           0.000      1038884.607    24499998.985           0.000 
> 2019  1 10  9 52  4.8000000  0 8                     
D3704   1107459.001    18544303.970           0.000      1107458.546    26117172.849           0.000 
D3903   1158399.514    19397294.003           0.000      1158399.019    27318505.144           0.000 
D4003    821836.837    13761580.006           0.000       821836.636    19381350.437           0.000 
D4103    763095.126    12777946.517           0.000       763094.754    17996036.644           0.000 
D5627    815940.380    13662860.905           0.000       815941.252    19242314.425           0.000 
D5727    494525.734     8280789.021           0.000       494526.560    11662394.931           0.000 
D5826   1162964.226    19473732.050           0.000      1162963.827    27426152.934           0.000 
D5926   1037990.556    17381054.095           0.000      1037990.621    24478904.506           0.000 
> 2019  1 10  9 52  5.0000000  0 8                     
D3704   1106948.297    18535753.798           0.000      1106948.113    26105131.046           0.000 
D3903   1157149.450    19376363.111           0.000      1157149.345    27289026.744           0.000 
D4003    820808.205    13744366.279           0.000       820808.140    19357107.214           0.000 
D4103    762799.319    12772993.509           0.000       762799.133    17989061.372           0.000 
D5627    815147.026    13649569.913           0.000       815147.388    19223595.689           0.000 
D5727    494422.816     8279064.943           0.000       494423.313    11659966.709           0.000 
D5826   1161721.453    19452921.461           0.000      1161721.075    27396843.982           0.000 
D5926   1037096.883    17366093.326           0.000      1037097.209    24457834.332           0.000 
> 2019  1 10  9 52  5.2000000  0 8                     
D3704   1106440.537    18527246.829           0.000      1106440.778    26093149.924           0.000 
D3903   1155900.295    19355435.239           0.000      1155899.173    27259552.782           0.000 
D4003    819781.082    13727157.260           0.000       819780.614    19332870.387           0.000 
D4103    762505.034    12768078.038           0.000       762505.121    17982138.575           0.000 
D5627    814356.284    13636327.690           0.000       814356.104    19204946.065           0.000 
D5727    494323.560     8277401.616           0.000       494323.434    11657623.890           0.000 
D5826   1160479.510    19432115.434           0.000      1160478.404    27367541.606           0.000 
D5926   1036205.834    17351163.037           0.000      1036205.860    24436806.613           0.000 
> 2019  1 10  9 52  5.4000000  0 8                     
D3704   1105933.442    18518765.725           0.000      1105933.683    26081205.356           0.000 
D3903   1154650.887    19334526.118           0.000      1154651.236    27230105.214           0.000 
D4003    818755.851    13709988.811           0.000       818755.708    19308691.194           0.000 
D4103    762214.036    12763199.820           0.000       762214.495    17975268.083           0.000 
D5627    813564.948    13623082.060           0.000       813565.506    19186291.376           0.000 
D5727    494227.884     8275796.900           0.000       494228.415    11655364.133           0.000 
D5826   1159236.546    19411311.257           0.000      1159235.748    27338241.342           0.000 
D5926   1035314.203    17336237.520           0.000      1035314.474    24415786.411           0.000 
> 2019  1 10  9 52  5.6000000  0 8                     
D3704   1105428.335    18510305.345           0.000      1105428.591    26069290.144           0.000 
D3903   1153402.825    19313614.580           0.000      1153402.060    27200654.018           0.000 
D4003    817729.939    13692819.761           0.000       817730.235    19284510.802           0.000 
D4103    761924.961    12758354.923           0.000       761924.263    17968444.552           0.000 
D5627    812777.344    13609880.801           0.000       812777.283    19167699.067           0.000 
D5727    494136.908     8274264.239           0.000       494135.954    11653205.638           0.000 
D5826   1157994.463    19390506.844           0.000      1157993.953    27308941.450           0.000 
D5926   1034425.018    17321353.669           0.000      1034424.717    24394824.409           0.000 
> 2019  1 10  9 52  5.8000000  0 8                     
D3704   1104926.130    18501883.861           0.000      1104925.560    26057429.636           0.000 
D3903   1152154.569    19292720.340           0.000      1152154.776    27171227.363           0.000 
D4003    816706.050    13675677.343           0.000       816706.046    19260368.037           0.000 
D4103    761639.743    12753578.303           0.000       761639.539    17961717.337           0.000 
D5627    811989.722    13596697.947           0.000       811989.501    19149132.643           0.000 
D5727    494048.862     8272794.595           0.000       494048.825    11651135.777           0.000 
D5826   1156753.237    19369725.278           0.000      1156753.096    27279673.359           0.000 
D5926   1033536.519    17306474.360           0.000      1033536.290    24373868.961           0.000 
> 2019  1 10  9 52  6.0000000  0 8                     
D3704   1104422.940    18493469.960           0.000      1104423.412    26045580.016           0.000 
D3903   1150906.439    19271827.839           0.000      1150906.705    27141803.053           0.000 
D4003    815684.906    13658565.217           0.000       815684.393    19236267.823           0.000 
D4103    761355.635    12748816.773           0.000       761354.846    17955011.502           0.000 
D5627    811205.262    13583557.276           0.000       811204.629    19130625.832           0.000 
D5727    493964.843     8271395.880           0.000       493965.066    11649165.821           0.000 
D5826   1155511.112    19348930.881           0.000      1155510.859    27250387.206           0.000 
D5926   1032649.288    17291617.357           0.000      1032648.769    24352944.666           0.000 
> 2019  1 10  9 52  6.2000000  0 8                     
D3704   1103922.856    18485094.435           0.000      1103922.686    26033784.177           0.000 
D3903   1149660.028    19250944.754           0.000      1149659.930    27112392.006           0.000 
D4003    814663.356    13641464.204           0.000       814663.170    19212183.148           0.000 
D4103    761073.228    12744100.598           0.000       761073.574    17948369.505           0.000 
D5627    810420.065    13570413.191           0.000       810420.462    19112114.505           0.000 
D5727    493885.416     8270055.618           0.000       493884.444    11647278.228           0.000 
D5826   1154270.552    19328161.259           0.000      1154270.583    27221135.942           0.000 
D5926   1031763.129    17276774.436           0.000      1031762.677    24332040.566           0.000 
> 2019  1 10  9 52  6.4000000  0 8                     
D3704   1103424.920    18476752.691           0.000      1103424.634    26022035.760           0.000 
D3903   1148412.204    19230057.917           0.000      1148411.620    27082975.601           0.000 
D4003    813643.490    13624380.400           0.000       813643.000    19188123.142           0.000 
D4103    760794.054    12739422.002           0.000       760793.731    17941780.511           0.000 
D5627    809638.820    13557323.543           0.000       809638.462    19093679.106           0.000 
D5727    493808.106     8268765.296           0.000       493807.984    11645461.033           0.000 
D5826   1153030.284    19307394.685           0.000      1153030.350    27191889.014           0.000 
D5926   1030878.939    17261967.529           0.000      1030878.595    24311187.009           0.000 
> 2019  1 10  9 52  6.6000000  0 8                     
D3704   1102928.304    18468440.258           0.000      1102928.720    26010328.740           0.000 
D3903   1147165.159    19209166.300           0.000      1147165.127    27053552.464           0.000 
D4003    812623.240    13607305.898           0.000       812623.424    19164076.017           0.000 
D4103    760517.001    12734787.800           0.000       760516.762    17935253.799           0.000 
D5627    808858.027    13544250.769           0.000       808857.398    19075267.659           0.000 
D5727    493735.584     8267553.334           0.000       493735.815    11643754.094           0.000 
D5826   1151790.507    19286624.816           0.000      1151789.925    27162637.094           0.000 
D5926   1029994.645    17247167.642           0.000      1029994.598    24290343.433           0.000 
> 2019  1 10  9 52  6.8000000  0 8                     
D3704   1102432.799    18460139.561           0.000      1102432.365    25998638.403           0.000 
D3903   1145918.539    19188300.947           0.000      1145918.925    27024166.529           0.000 
D4003    811605.267    13590258.013           0.000       811605.650    19140066.293           0.000 
D4103    760242.456    12730190.095           0.000       760242.757    17928778.340           0.000 
D5627    808078.769    13531210.220           0.000       808078.458    19056901.997           0.000 
D5727    493667.129     8266401.724           0.000       493666.527    11642132.124           0.000 
D5826   1150550.816    19265864.131           0.000      1150550.416    27133398.788           0.000 
D5926   1029111.984    17232372.667           0.000      1029111.176    24269506.325           0.000 
> 2019  1 10  9 52  7.0000000  0 8                     
D3704   1101939.110    18451874.257           0.000      1101939.085    25986997.544           0.000 
D3903   1144672.804    19167437.477           0.000      1144672.535    26994783.363           0.000 
D4003    810588.124    13573226.971           0.000       810588.401    19116080.238           0.000 
D4103    759971.444    12725644.449           0.000       759970.842    17922376.391           0.000 
D5627    807302.484    13518208.815           0.000       807301.870    19038591.343           0.000 
D5727    493601.884     8265320.253           0.000       493602.212    11640609.246           0.000 
D5826   1149311.299    19245113.881           0.000      1149311.479    27104174.764           0.000 
D5926   1028230.490    17217631.164           0.000      1028230.829    24248745.099           0.000 
> 2019  1 10  9 52  7.2000000  0 8                     
D3704   1101447.019    18443629.243           0.000      1101446.612    25975385.479           0.000 
D3903   1143426.598    19146575.758           0.000      1143426.725    26965402.079           0.000 
D4003    809572.946    13556223.068           0.000       809572.968    19092132.738           0.000 
D4103    759701.447    12721118.714           0.000       759700.788    17916002.387           0.000 
D5627    806526.410    13505216.940           0.000       806526.385    19020293.868           0.000 
D5727    493541.096     8264294.799           0.000       493540.587    11639164.803           0.000 
D5826   1148072.962    19224378.090           0.000      1148072.886    27074971.230           0.000 
D5926   1027351.086    17202896.591           0.000      1027350.892    24227993.541           0.000 
> 2019  1 10  9 52  7.4000000  0 8                     
D3704   1100955.981    18435409.260           0.000      1100955.766    25963808.787           0.000 
D3903   1142181.619    19125724.579           0.000      1142181.694    26936036.085           0.000 
