     3.02           OBSERVATION DATA    M: Mixed            RINEX VERSION / TYPE
BUPT PLAN 6.0                           20210329 120000 UTC PGM / RUN BY / DATE 
                                                            MARKER NAME         
                                                            MARKER NUMBER       
                                                            MARKER TYPE         
                                                            OBSERVER / AGENCY   
                                                            REC # / TYPE / VERS 
                                                            ANT # / TYPE        
  4076128.1056   519876.3642  4878092.5196                  APPROX POSITION XYZ 
        0.0000        0.0000        0.0000                  ANTENNA: DELTA H/E/N 
D    6 C5D L5D D5D C7D L7D D7D                              SYS / # / OBS TYPES  
    30.000                                                  INTERVAL            
  2019     1    10     9    51   54.0000000     GPS         TIME OF FIRST OBS   
  2019     1    10     9    54   44.0000000     GPS         TIME OF LAST OBS   
                                                            END OF HEADER       
> 2019  1 10  9 51 54.0000000  0 8                     
D3704   1137285.456    19043741.771       48943.610     1137285.327    26820571.692       68930.271
D3903   1226363.601    20535347.214      104723.520     1226363.432    28921302.979      147487.855
D4003    878873.064    14716649.542       89451.923      878872.950    20726433.152      125981.664
D4103    782525.116    13103310.907       34764.410      782524.954    18454264.670       48961.052
D5627    861075.423    14418627.927       72423.652      861075.296    20306717.118      101999.324
D5727    505668.318     8467368.185       25535.145      505668.189    11925161.662       35962.240
D5826   1230609.647    20606447.454      106054.615     1230609.455    29021430.499      149364.593
D5926   1087887.819    18216579.948       80953.730     1087887.675    25655634.096      114014.142
> 2019  1 10  9 51 54.2000000  0 8                     
D3704   1136700.894    19033953.049       48786.875     1136700.716    26806785.638       68710.359
D3903   1225112.823    20514402.510      104660.271     1225112.606    28891805.408      147399.341
D4003    877804.614    14698759.158       89442.306      877804.565    20701236.820      125964.395
D4103    782109.853    13096358.025       34585.705      782109.718    18444472.460       48710.010
D5627    860210.367    14404143.197       72339.657      860210.227    20286317.253      101880.586
D5727    505363.342     8462261.156       25166.580      505363.227    11917969.214       35443.831
D5826   1229342.860    20585236.531      106099.157     1229342.674    28991557.580      149424.731
D5926   1086920.885    18200389.202       80919.379     1086920.735    25632831.267      113961.718
> 2019  1 10  9 51 54.4000000  0 8                     
D3704   1136118.128    19024195.674       48736.615     1136118.033    26793043.566       68639.645
D3903   1223862.706    20493470.456      104720.772     1223862.543    28862325.539      147487.096
D4003    876736.502    14680870.697       89330.192      876736.336    20676043.941      125809.820
D4103    781696.750    13089440.884       34468.364      781696.665    18434730.458       48544.439
D5627    859346.387    14389675.265       72268.781      859346.244    20265941.136      101782.679
D5727    505062.728     8457227.840       24885.808      505062.650    11910880.448       35048.679
D5826   1228075.647    20564016.700      106015.367     1228075.522    28961672.634      149310.420
D5926   1085954.477    18184205.326       80795.752     1085954.294    25610038.924      113788.935
> 2019  1 10  9 51 54.6000000  0 8                     
D3704   1135536.022    19014448.351       48559.101     1135535.934    26779315.637       68386.984
D3903   1222611.907    20472526.301      104665.222     1222611.777    28832828.120      147404.426
D4003    875669.460    14663004.658       89300.226      875669.343    20650881.977      125768.693
D4103    781285.018    13082547.211       34161.066      781284.897    18425021.570       48110.515
D5627    858483.067    14375221.509       72086.339      858482.987    20245584.600      101521.197
D5727    504765.441     8452250.678       24645.516      504765.410    11903870.712       34709.806
D5826   1226809.387    20542813.626      106013.391     1226809.162    28931810.550      149303.495
D5926   1084989.509    18168046.175       80641.376     1084989.406    25587281.137      113575.030
> 2019  1 10  9 51 54.8000000  0 8                     
D3704   1134956.156    19004736.531       48379.318     1134955.953    26765638.240       68136.372
D3903   1221361.881    20451593.257      104605.268     1221361.695    28803347.235      147323.357
D4003    874602.837    14645144.613       89140.148      874602.739    20625728.238      125543.773
D4103    780877.099    13075714.998       34072.194      780876.927    18415399.467       47987.014
D5627    857622.176    14360804.241       72033.076      857622.098    20225280.361      101450.485
D5727    504471.132     8447321.575       24305.698      504471.038    11896928.751       34231.734
D5826   1225543.258    20521610.948      105940.271     1225543.037    28901949.851      149204.243
D5926   1084026.185    18151917.900       80687.291     1084026.128    25564566.131      113635.781
> 2019  1 10  9 51 55.0000000  0 8                     
D3704   1134378.237    18995060.667       48370.840     1134378.113    26752010.966       68124.335
D3903   1220112.391    20430672.203      104646.750     1220112.258    28773882.564      147381.369
D4003    873538.131    14627316.583       89180.038      873537.993    20600619.484      125596.267
D4103    780470.038    13068900.559       33819.372      780469.986    18405802.064       47629.698
D5627    856761.826    14346397.626       71867.754      856761.748    20204990.264      101215.270
D5727    504180.780     8442460.435       23998.951      504180.681    11890082.404       33799.142
D5826   1224277.835    20500422.894      106092.760     1224277.631    28872109.003      149417.666
D5926   1083062.581    18135780.442       80556.550     1083062.408    25541838.975      113456.574
> 2019  1 10  9 51 55.2000000  0 8                     
D3704   1133800.476    18985386.499       48170.391     1133800.357    26738386.099       67841.394
D3903   1218862.495    20409742.853      104543.799     1218862.342    28744406.290      147236.560
D4003    872473.027    14609480.576       89037.400      872472.919    20575500.230      125396.954
D4103    780066.164    13062136.685       33735.739      780066.077    18396276.125       47512.370
D5627    855903.465    14332024.075       71814.800      855903.327    20184747.210      101142.339
D5727    503894.168     8437660.645       23678.103      503894.055    11883322.576       33346.971
D5826   1223010.666    20479204.342      105859.283     1223010.515    28842225.469      149088.606
D5926   1082100.284    18119669.132       80446.969     1082100.163    25519147.660      113297.006
> 2019  1 10  9 51 55.4000000  0 8                     
D3704   1133225.204    18975752.421       48105.310     1133225.021    26724817.820       67751.227
D3903   1217613.813    20388834.094      104558.347     1217613.654    28714958.978      147255.101
D4003    871409.486    14591673.096       88987.445      871409.394    20550420.839      125326.917
D4103    779663.265    13055389.537       33453.786      779663.149    18386773.651       47115.517
D5627    855045.620    14317661.115       71613.173      855045.542    20164518.742      100858.416
D5727    503611.360     8432925.024       23365.174      503611.243    11876653.182       32906.569
D5826   1221746.302    20458032.485      105881.743     1221746.122    28812407.748      149120.663
D5926   1081139.483    18103579.738       80378.377     1081139.335    25496488.259      113201.344
> 2019  1 10  9 51 55.6000000  0 8                     
D3704   1132650.531    18966131.359       47946.374     1132650.426    26711267.575       67524.912
D3903   1216365.065    20367922.424      104585.235     1216364.878    28685507.958      147296.695
D4003    870346.707    14573875.607       88894.345      870346.568    20525355.456      125196.870
D4103    779263.625    13048698.780       33324.896      779263.507    18377350.547       46932.014
D5627    854190.310    14303338.480       71539.274      854190.243    20144347.059      100751.720
D5727    503332.327     8428251.990       23125.502      503332.220    11870071.868       32569.897
D5826   1220481.689    20436856.137      105886.363     1220481.516    28782583.616      149127.742
D5926   1080179.526    18087504.063       80283.163     1080179.326    25473847.990      113067.034
> 2019  1 10  9 51 55.8000000  0 8                     
D3704   1132077.945    18956542.084       47829.421     1132077.776    26697762.593       67361.897
D3903   1215115.808    20347005.377      104535.990     1215115.705    28656048.619      147223.207
D4003    869284.949    14556096.738       88848.787      869284.773    20500316.082      125131.198
D4103    778865.684    13042033.801       33107.711      778865.515    18367964.144       46629.882
D5627    853335.863    14289030.626       71405.179      853335.787    20124196.715      100565.722
D5727    503056.076     8423626.889       22761.489      503055.990    11863557.888       32055.917
D5826   1219216.918    20415678.864      105889.500     1219216.832    28752758.067      149129.244
D5926   1079220.679    18071447.430       80197.078     1079220.546    25451234.583      112947.812
> 2019  1 10  9 51 56.0000000  0 8                     
D3704   1131506.660    18946976.200       47761.954     1131506.529    26684290.213       67266.552
D3903   1213867.315    20326098.179      104455.908     1213867.168    28626603.977      147111.713
D4003    868223.732    14538326.980       88756.368      868223.616    20475289.842      125002.015
D4103    778470.138    13035412.258       32929.162      778470.002    18358638.168       46375.790
D5627    852483.039    14274749.590       71299.635      852482.853    20104083.570      100415.823
D5727    502784.234     8419074.591       22474.987      502784.115    11857146.705       31653.296
D5826   1217952.217    20394500.964      105838.207     1217952.123    28722932.218      149061.332
D5926   1078262.724    18055408.015       80164.841     1078262.687    25428645.021      112901.783
> 2019  1 10  9 51 56.2000000  0 8                     
D3704   1130936.176    18937423.809       47587.470     1130936.052    26670836.903       67020.270
D3903   1212619.722    20305206.997      104460.344     1212619.515    28597181.635      147118.753
D4003    867163.654    14520575.707       88656.498      867163.512    20450289.439      124861.423
D4103    778076.829    13028826.426       32804.808      778076.664    18349363.010       46201.802
D5627    851631.411    14260489.663       71156.891      851631.327    20084000.406      100215.030
D5727    502515.788     8414579.594       22140.857      502515.714    11850816.046       31181.619
D5826   1216688.055    20373333.323      105758.165     1216687.904    28693119.952      148944.965
D5926   1077305.216    18039375.047       80024.836     1077305.110    25406064.664      112704.307
> 2019  1 10  9 51 56.4000000  0 8                     
D3704   1130367.834    18927906.315       47473.922     1130367.658    26657432.849       66859.908
D3903   1211372.079    20284314.929      104401.454     1211371.912    28567757.884      147035.776
D4003    866104.698    14502844.407       88610.610      866104.571    20425317.155      124796.288
D4103    777684.983    13022265.464       32523.932      777684.953    18340122.649       45804.906
D5627    850781.535    14246258.285       71049.558      850781.409    20063957.400      100063.483
D5727    502251.369     8410151.423       21912.857      502251.303    11844579.722       30862.130
D5826   1215424.974    20352181.690      105810.735     1215424.738    28663330.959      149018.613
D5926   1076349.468    18023370.079       79924.463     1076349.253    25383523.803      112563.244
> 2019  1 10  9 51 56.6000000  0 8                     
D3704   1129800.761    18918411.531       47403.386     1129800.698    26644060.867       66762.521
D3903   1210125.063    20263434.638      104429.475     1210124.961    28538350.729      147075.433
D4003    865046.353    14485122.285       88554.718      865046.191    20400357.897      124716.457
D4103    777296.625    13015760.678       32458.864      777296.492    18330961.668       45713.734
D5627    849932.901    14232048.373       70952.438      849932.880    20043944.703       99927.466
D5727    501989.634     8405768.851       21587.601      501989.509    11838407.296       30403.537
D5826   1214161.174    20331019.543      105731.473     1214160.979    28633527.236      148909.712
D5926   1075394.827    18007385.187       79883.142     1075394.650    25361011.154      112503.114
> 2019  1 10  9 51 56.8000000  0 8                     
D3704   1129234.582    18908930.854       47137.010     1129234.434    26630708.363       66385.729
D3903   1208877.755    20242548.743      104445.766     1208877.586    28508935.642      147097.442
D4003    863988.641    14467411.342       88457.808      863988.586    20375414.606      124582.254
D4103    776908.931    13009268.905       32231.670      776908.817    18321818.921       45394.365
D5627    849085.490    14217857.886       70827.533      849085.360    20023959.210       99750.988
D5727    501731.796     8401451.331       21222.346      501731.668    11832326.589       29888.842
D5826   1212898.313    20309873.248      105721.850     1212898.159    28603745.294      148894.823
D5926   1074440.740    17991408.558       79805.678     1074440.586    25338510.531      112398.577
> 2019  1 10  9 51 57.0000000  0 8                     
D3704   1128671.583    18899503.452       47187.344     1128671.437    26617431.217       66456.730
D3903   1207630.280    20221659.590      104315.041     1207630.133    28479516.154      146914.390
D4003    862932.133    14449719.780       88393.451      862932.015    20350498.155      124490.787
D4103    776523.945    13002822.571       32018.934      776523.792    18312740.048       45094.043
D5627    848239.531    14203692.379       70676.603      848239.415    20004009.012       99539.129
D5727    501478.304     8397206.862       20956.282      501478.192    11826348.821       29514.302
D5826   1211635.543    20288728.878      105776.127     1211635.431    28573966.329      148971.089
D5926   1073487.415    17975447.423       79648.901     1073487.278    25316030.816      112171.770
> 2019  1 10  9 51 57.2000000  0 8                     
D3704   1128108.001    18890065.983       46907.329     1128107.882    26604139.871       66062.915
D3903   1206384.344    20200796.581      104368.695     1206384.177    28450133.276      146988.744
D4003    861876.339    14432041.090       88293.239      861876.163    20325599.998      124346.697
D4103    776141.547    12996418.784       31873.883      776141.415    18303721.240       44889.765
D5627    847395.344    14189557.059       70567.412      847395.216    19984101.186       99384.386
D5727    501227.958     8393015.606       20639.831      501227.893    11820445.960       29068.244
D5826   1210372.205    20267573.653      105638.433     1210372.049    28544172.111      148779.333
D5926   1072536.243    17959517.643       79621.254     1072536.085    25293596.462      112138.140
> 2019  1 10  9 51 57.4000000  0 8                     
D3704   1127547.705    18880684.517       46886.971     1127547.545    26590927.288       66033.429
D3903   1205137.776    20179922.842      104315.499     1205137.674    28420735.527      146914.020
D4003    860821.821    14414382.442       88212.191      860821.720    20300730.658      124235.680
D4103    775760.829    12990044.008       31657.974      775760.699    18294743.287       44586.132
D5627    846552.489    14175443.576       70409.329      846552.430    19964224.309       99161.927
D5727    500981.445     8388887.640       20351.997      500981.410    11814632.311       28662.637
D5826   1209110.363    20246445.966      105656.977     1209110.269    28514416.245      148803.579
D5926   1071585.162    17943593.392       79574.221     1071585.014    25271168.834      112068.799
> 2019  1 10  9 51 57.6000000  0 8                     
D3704   1126987.717    18871307.123       46767.848     1126987.581    26577720.602       65867.592
D3903   1203891.856    20159059.743      104315.641     1203891.637    28391352.723      146915.299
D4003    859768.228    14396740.004       88118.755      859768.125    20275883.522      124104.134
D4103    775382.709    12983712.413       31475.642      775382.629    18285826.060       44328.593
D5627    845711.558    14161361.710       70301.774      845711.455    19944391.924       99011.013
D5727    500738.382     8384817.240       19981.339      500738.269    11808899.784       28141.575
D5826   1207848.394    20225314.571      105624.597     1207848.313    28484655.529      148759.388
D5926   1070634.757    17927678.548       79390.386     1070634.622    25248755.074      111811.732
> 2019  1 10  9 51 57.8000000  0 8                     
D3704   1126429.132    18861953.553       46612.208     1126428.937    26564547.084       65646.217
D3903   1202645.915    20138196.614      104279.506     1202645.730    28361969.663      146863.042
D4003    858715.679    14379116.253       88115.862      858715.612    20251062.695      124099.131
D4103    775006.770    12977417.285       31332.488      775006.674    18276960.342       44128.200
D5627    844871.864    14147301.356       70232.620      844871.726    19924589.721       98912.622
D5727    500499.733     8380820.972       19775.150      500499.642    11803271.469       27850.445
D5826   1206586.905    20204189.652      105595.754     1206586.751    28454903.651      148716.251
D5926   1069686.489    17911800.470       79291.304     1069686.419    25226392.728      111670.731
> 2019  1 10  9 51 58.0000000  0 8                     
D3704   1125872.423    18852631.112       46480.243     1125872.262    26551417.840       65461.539
D3903   1201400.418    20117340.713      104210.884     1201400.241    28332597.055      146766.978
D4003    857663.232    14361493.081       88013.358      857663.149    20226242.869      123955.615
D4103    774632.485    12971150.787       31127.871      774632.428    18268134.702       43840.543
D5627    844032.966    14133254.832       70099.799      844032.891    19904807.197       98727.087
D5727    500263.545     8376865.942       19374.492      500263.481    11797701.380       27286.314
D5826   1205325.666    20183070.501      105565.834     1205325.474    28425160.401      148675.805
D5926   1068739.514    17895942.209       79332.372     1068739.415    25204058.582      111728.518
> 2019  1 10  9 51 58.2000000  0 8                     
D3704   1125317.237    18843335.063       46412.101     1125317.091    26538325.533       65365.134
D3903   1200155.729    20096498.536      104201.422     1200155.534    28303243.659      146754.301
D4003    856612.032    14343890.409       87862.305      856611.926    20201451.746      123741.357
D4103    774260.763    12964925.213       30861.562      774260.547    18259366.593       43463.378
D5627    843195.754    14119234.872       69924.005      843195.535    19885061.779       98477.821
D5727    500032.153     8372991.044       19145.643      500032.091    11792244.117       26963.817
D5826   1204064.721    20161957.334      105513.232     1204064.613    28395425.240      148599.794
D5926   1067791.988    17880075.735       79143.473     1067791.812    25181712.878      111464.247
> 2019  1 10  9 51 58.4000000  0 8                     
D3704   1124762.922    18834052.643       46256.012     1124762.784    26525252.506       65144.669
D3903   1198911.113    20075658.252      104206.041     1198911.002    28273892.799      146760.701
D4003    855562.656    14326317.948       87854.331      855562.521    20176703.475      123733.263
D4103    773892.125    12958752.901       30763.441      773892.005    18250673.918       43326.449
D5627    842360.576    14105250.071       69813.227      842360.493    19865366.215       98323.758
D5727    499803.470     8369161.915       18779.359      499803.379    11786851.354       26448.351
D5826   1202804.514    20140854.688      105506.069     1202804.383    28365705.281      148590.735
D5926   1066846.678    17864247.041       79040.195     1066846.528    25159420.028      111318.476
> 2019  1 10  9 51 58.6000000  0 8                     
D3704   1124210.453    18824801.441       46132.658     1124210.317    26512223.572       64972.200
D3903   1197666.506    20054817.044      104200.138     1197666.331    28244540.659      146752.818
D4003    854513.251    14308747.082       87754.105      854513.112    20151956.822      123588.587
D4103    773524.720    12952600.212       30523.468      773524.581    18242008.628       42988.403
D5627    841526.695    14091287.425       69731.182      841526.633    19845701.464       98206.007
D5727    499579.194     8365406.043       18502.239      499579.047    11781561.683       26058.297
D5826   1201544.433    20119753.474      105547.878     1201544.272    28335987.134      148653.619
D5926   1065902.453    17848439.002       79039.601     1065902.434    25137156.333      111315.924
> 2019  1 10  9 51 58.8000000  0 8                     
D3704   1123659.408    18815574.909       46016.408     1123659.318    26499229.132       64809.223
D3903   1196421.905    20033977.016      104162.173     1196421.776    28215190.095      146697.295
D4003    853465.122    14291196.261       87707.975      853465.011    20127239.105      123524.291
D4103    773160.137    12946495.519       30409.505      773160.032    18233410.947       42828.404
D5627    840693.910    14077341.189       69592.150      840693.716    19826060.262       98011.507
D5727    499358.172     8361705.596       18174.675      499358.075    11776350.024       25596.949
D5826   1200283.691    20098643.898      105405.812     1200283.535    28306256.411      148448.986
D5926   1064958.494    17832631.081       78918.710     1064958.369    25114893.149      111146.057
> 2019  1 10  9 51 59.0000000  0 8                     
D3704   1123109.831    18806371.627       45834.754     1123109.653    26486267.288       64552.299
D3903   1195177.881    20013144.581      104084.034     1195177.672    28185850.636      146588.863
D4003    852417.618    14273654.666       87559.018      852417.460    20102534.247      123316.665
D4103    772796.905    12940413.618       30174.350      772796.763    18224845.266       42495.304
D5627    839862.703    14063422.759       69398.675      839862.565    19806457.961       97738.219
D5727    499141.057     8358070.661       17866.920      499141.056    11771230.634       25163.245
D5826   1199024.758    20077562.736      105454.945     1199024.573    28276566.613      148517.297
D5926   1064015.938    17816847.339       78799.949     1064015.802    25092663.937      110978.567
> 2019  1 10  9 51 59.2000000  0 8                     
D3704   1122562.353    18797204.677       45808.624     1122562.157    26473356.828       64514.385
D3903   1193934.653    19992327.775      104131.507     1193934.514    28156532.864      146655.433
D4003    851371.821    14256142.862       87539.605      851371.678    20077870.914      123288.314
D4103    772436.495    12934378.748       30000.515      772436.388    18216346.206       42253.317
D5627    839033.768    14049543.024       69329.927      839033.705    19786910.317       97643.659
D5727    498927.668     8354497.277       17509.410      498927.539    11766197.985       24659.276
D5826   1197765.249    20056471.747      105419.176     1197765.110    28246863.154      148469.639
D5926   1063074.824    17801087.350       78717.705     1063074.631    25070468.224      110865.066
> 2019  1 10  9 51 59.4000000  0 8                     
D3704   1122015.197    18788042.952       45613.622     1122015.048    26460453.951       64240.422
D3903   1192690.838    19971501.473      104056.407     1192690.814    28127201.777      146547.938
D4003    850326.220    14238634.941       87443.079      850326.073    20053213.251      123150.633
D4103    772078.073    12928378.645       29825.792      772078.014    18207895.542       42004.135
D5627    838205.677    14035677.039       69201.920      838205.522    19767381.585       97459.591
D5727    498718.521     8350995.395       17280.498      498718.505    11761266.130       24337.553
D5826   1196506.195    20035387.911      105402.611     1196505.996    28217169.226      148447.038
D5926   1062134.520    17785343.809       78624.412     1062134.388    25048295.210      110730.253
> 2019  1 10  9 51 59.6000000  0 8                     
D3704   1121470.426    18778920.227       45536.442     1121470.302    26447605.866       64132.895
D3903   1191448.171    19950690.192      104051.172     1191447.938    28097892.190      146544.378
D4003    849281.824    14221146.325       87411.134      849281.693    20028583.125      123107.265
D4103    771721.942    12922413.486       29642.375      771721.867    18199494.715       41747.428
D5627    837379.205    14021836.655       69081.146      837379.157    19747889.667       97293.504
D5727    498512.149     8347539.295       16913.092      498512.047    11756398.619       23819.676
D5826   1195247.120    20014307.389      105393.712     1195246.975    28187479.818      148431.669
D5926   1061195.508    17769618.926       78520.454     1061195.384    25026149.160      110586.057
> 2019  1 10  9 51 59.8000000  0 8                     
D3704   1120926.498    18769812.939       45368.642     1120926.405    26434779.288       63895.174
D3903   1190205.257    19929879.957      103968.771     1190205.110    28068583.314      146425.231
D4003    848237.765    14203664.099       87226.421      848237.688    20003961.672      122846.684
D4103    771367.918    12916485.011       29490.139      771367.812    18191145.230       41531.935
D5627    836553.983    14008020.426       68973.565      836553.935    19728430.966       97140.594
D5727    498310.173     8344156.677       16648.714      498310.092    11751634.684       23447.521
D5826   1193988.417    19993228.647      105278.342     1193988.205    28157793.485      148270.244
D5926   1060257.586    17753914.835       78445.259     1060257.508    25004031.948      110478.991
> 2019  1 10  9 52  0.0000000  0 8                     
D3704   1120384.612    18760739.210       45281.069     1120384.523    26422000.253       63771.762
D3903   1188963.508    19909086.203      104057.314     1188963.336    28039298.268      146549.633
D4003    847195.975    14186218.814       87229.764      847195.835    19979392.335      122850.230
D4103    771015.646    12910586.984       29184.177      771015.590    18182838.843       41103.876
D5627    835730.201    13994225.713       68815.162      835730.045    19709002.848       96913.672
D5727    498111.350     8340826.934       16292.274      498111.185    11746945.180       22945.648
D5826   1192730.931    19972172.978      105291.569     1192730.793    28128139.436      148290.222
D5926   1059320.716    17738225.784       78382.828     1059320.568    24981936.150      110392.183
> 2019  1 10  9 52  0.2000000  0 8                     
D3704   1119843.820    18751682.997       45095.696     1119843.682    26409245.900       63513.641
D3903   1187720.704    19888274.740      103955.426     1187720.570    28009988.341      146407.650
D4003    846154.069    14168772.862       87184.455      846154.096    19954822.289      122789.264
D4103    770667.115    12904750.148       29054.065      770667.027    18174618.067       40917.688
D5627    834908.356    13980462.680       68704.311      834908.201    19689620.113       96763.613
D5727    497916.636     8337568.479       16009.349      497916.695    11742356.051       22547.244
D5826   1191473.346    19951114.665      105293.744     1191473.162    28098481.392      148292.831
D5926   1058384.492    17722549.218       78259.038     1058384.451    24959857.714      110217.715
> 2019  1 10  9 52  0.4000000  0 8                     
D3704   1119305.148    18742663.857       45029.481     1119305.016    26396543.172       63414.887
D3903   1186479.054    19867483.655      103950.693     1186478.888    27980706.811      146401.446
D4003    845112.787    14151335.971       86995.164      845112.628    19930264.436      122520.347
D4103    770320.127    12898939.335       28907.691      770319.955    18166434.530       40712.720
D5627    834087.719    13966721.818       68546.431      834087.569    19670267.390       96539.596
D5727    497725.501     8334366.609       15671.604      497725.385    11737846.602       22070.239
D5826   1190215.717    19930055.916      105257.445     1190215.513    28068822.825      148240.155
D5926   1057449.751    17706897.410       78167.405     1057449.703    24937814.171      110088.504
> 2019  1 10  9 52  0.6000000  0 8                     
D3704   1118767.429    18733657.961       44847.121     1118767.296    26383860.195       63162.103
D3903   1185237.477    19846693.517      103903.031     1185237.298    27951426.522      146335.832
D4003    844073.759    14133936.938       86998.365      844073.609    19905760.367      122526.141
D4103    769974.773    12893157.797       28723.385      769974.672    18158291.986       40453.919
D5627    833268.956    13953012.532       68475.204      833268.809    19650959.471       96436.353
D5727    497538.312     8331232.288       15389.982      497538.248    11733432.554       21674.948
D5826   1188958.471    19909004.427      105150.183     1188958.370    28039174.794      148088.789
D5926   1056516.191    17691263.929       78085.310     1056516.038    24915796.470      109972.147
> 2019  1 10  9 52  0.8000000  0 8                     
D3704   1118231.725    18724688.537       44780.966     1118231.598    26371227.774       63068.492
D3903   1183996.286    19825912.910      103889.426     1183996.206    27922159.356      146313.622
D4003    843034.552    14116537.265       86778.435      843034.550    19881255.138      122215.304
D4103    769631.719    12887413.120       28466.309      769631.610    18150201.202       40091.342
D5627    832451.115    13939317.491       68281.946      832451.055    19631672.201       96165.643
D5727    497354.475     8328154.292       15042.097      497354.455    11729097.564       21184.765
D5826   1187702.649    19887974.390      105200.730     1187702.446    28009557.037      148161.808
D5926   1055583.546    17675646.867       78032.168     1055583.383    24893802.040      109897.695
> 2019  1 10  9 52  1.0000000  0 8                     
D3704   1117696.846    18715732.344       44659.357     1117696.700    26358614.076       62895.438
D3903   1182755.556    19805135.025      103901.404     1182755.435    27892896.631      146330.923
D4003    841998.130    14099181.578       86847.442      841997.994    19856812.077      122312.296
D4103    769291.712    12881719.858       28295.115      769291.581    18142182.934       39848.335
D5627    831635.643    13925661.102       68248.308      831635.444    19612439.072       96119.622
D5727    497174.812     8325145.873       14780.303      497174.804    11724860.611       20816.576
D5826   1186446.079    19866934.244      105215.316     1186446.013    27979924.675      148181.420
D5926   1054651.496    17660040.434       77917.987     1054651.267    24871822.501      109736.906
> 2019  1 10  9 52  1.2000000  0 8                     
D3704   1117163.500    18706800.472       44469.413     1117163.323    26346034.988       62632.628
D3903   1181514.550    19784354.744      103793.523     1181514.436    27863630.447      146178.538
D4003    840960.881    14081812.089       86708.063      840960.757    19832349.618      122116.447
D4103    768953.817    12876060.835       28121.242      768953.673    18134213.267       39605.549
D5627    830820.411    13912011.440       68004.373      830820.286    19593215.148       95774.833
D5727    496998.304     8322189.812       14368.703      496998.200    11720697.296       20235.227
D5826   1185189.480    19845891.181      105088.701     1185189.324    27950288.391      148002.334
D5926   1053720.914    17644456.837       77750.854     1053720.765    24849875.120      109503.760
> 2019  1 10  9 52  1.4000000  0 8                     
D3704   1116632.255    18697906.590       44412.813     1116632.132    26333508.462       62546.112
D3903   1180274.911    19763596.040      103832.742     1180274.769    27834394.739      146234.005
D4003    839925.269    14064470.477       86626.514      839925.074    19807926.329      122003.161
D4103    768617.875    12870436.587       27937.066      768617.782    18126292.157       39344.552
D5627    830008.201    13898410.566       67913.621      830008.060    19574060.181       95647.711
D5727    496826.706     8319316.071       14114.893      496826.647    11716650.251       19880.375
D5826   1183934.325    19824873.440      105151.206     1183934.183    27920687.924      148092.496
D5926   1052792.171    17628906.666       77778.502     1052792.007    24827974.368      109541.310
> 2019  1 10  9 52  1.6000000  0 8                     
D3704   1116101.867    18689024.027       44259.200     1116101.747    26320999.240       62333.430
D3903   1179034.784    19742829.491      103823.074     1179034.569    27805147.938      146221.888
D4003    838890.517    14047145.174       86565.764      838890.420    19783525.697      121915.298
D4103    768284.254    12864849.174       27778.081      768284.160    18118423.246       39122.287
D5627    829197.011    13884827.841       67815.140      829196.891    19554930.639       95508.682
D5727    496658.119     8316493.093       13841.088      496657.993    11712674.176       19492.944
D5826   1182678.393    19803843.199      105028.887     1182678.246    27891069.425      147920.976
D5926   1051863.168    17613350.965       77665.109     1051863.037    24806066.106      109378.584
> 2019  1 10  9 52  1.8000000  0 8                     
D3704   1115573.218    18680172.187       44089.467     1115573.068    26308532.554       62094.962
D3903   1177794.635    19722064.877      103733.544     1177794.524    27775903.560      146095.355
D4003    837856.615    14029832.021       86505.763      837856.518    19759142.637      121832.771
D4103    767952.467    12859293.557       27540.088      767952.353    18110598.789       38786.686
D5627    828387.056    13871264.814       67617.874      828386.928    19535828.902       95229.677
D5727    496492.819     8313724.875       13466.938      496492.643    11708775.587       18966.485
D5826   1181423.775    19782837.422      105119.272     1181423.756    27861485.230      148045.217
D5926   1050935.656    17597817.944       77539.805     1050935.484    24784190.389      109204.847
> 2019  1 10  9 52  2.0000000  0 8                     
D3704   1115046.585    18671354.294       44016.066     1115046.480    26296113.562       61991.435
D3903   1176555.712    19701318.168      103751.328     1176555.553    27746684.490      146119.080
D4003    836823.355    14012530.869       86369.212      836823.254    19734776.083      121640.778
D4103    767623.564    12853785.540       27352.272      767623.367    18102841.452       38523.060
D5627    827579.433    13857741.239       67509.347      827579.348    19516782.967       95078.263
D5727    496331.911     8311031.487       13150.382      496331.836    11704982.290       18520.949
D5826   1180168.375    19761813.567      104976.562     1180168.211    27831876.186      147844.288
D5926   1050009.462    17582309.983       77451.711     1050009.297    24762349.420      109080.076
> 2019  1 10  9 52  2.2000000  0 8                     
D3704   1114520.852    18662551.081       43885.476     1114520.758    26283715.275       61806.104
D3903   1175316.488    19680567.902      103693.788     1175316.305    27717460.674      146040.041
D4003    835791.709    13995257.026       86245.150      835791.690    19710447.927      121465.044
D4103    767296.851    12848315.085       27230.526      767296.718    18095136.840       38350.107
D5627    826773.110    13844239.370       67453.231      826773.030    19497767.314       95000.229
D5727    496174.822     8308401.411       12844.153      496174.784    11701278.100       18088.174
D5826   1178914.541    19740818.255      105007.724     1178914.401    27802307.329      147891.226
D5926   1049084.366    17566819.640       77347.772     1049084.265    24740533.405      108934.454
> 2019  1 10  9 52  2.4000000  0 8                     
D3704   1113996.712    18653773.985       43779.571     1113996.518    26271354.054       61657.172
D3903   1174077.980    19659829.145      103684.310     1174077.746    27688252.665      146024.102
D4003    834761.658    13978007.996       86234.497      834761.504    19686154.918      121449.785
D4103    766971.546    12842868.980       26940.534      766971.374    18087466.818       37943.241
D5627    825967.368    13830748.723       67235.147      825967.268    19478767.269       94691.381
D5727    496021.441     8305832.580       12532.318      496021.415    11697660.465       17651.004
D5826   1177660.307    19719816.710      104926.896     1177660.203    27772729.084      147775.074
D5926   1048160.550    17551350.086       77247.252     1048160.469    24718746.514      108791.425
> 2019  1 10  9 52  2.6000000  0 8                     
D3704   1113473.823    18645018.071       43606.028     1113473.792    26259022.619       61414.079
D3903   1172839.615    19639092.283      103632.175     1172839.394    27659047.845      145951.703
D4003    833731.636    13960761.097       86127.502      833731.506    19661864.961      121297.585
D4103    766649.763    12837480.873       26799.621      766649.660    18079878.170       37743.219
D5627    825164.349    13817301.694       67139.831      825164.277    19459828.992       94556.273
D5727    495871.716     8303326.117       12248.358      495871.640    11694130.264       17249.535
D5826   1176407.034    19698831.331      104949.575     1176406.896    27743174.069      147807.548
D5926   1047238.011    17535900.636       77142.086     1047237.825    24696988.229      108644.839
> 2019  1 10  9 52  2.8000000  0 8                     
D3704   1112952.945    18636296.866       43489.524     1112952.845    26246739.804       61249.048
D3903   1171601.771    19618365.848      103635.331     1171601.724    27629857.504      145957.569
D4003    832703.032    13943535.597       86071.634      832702.911    19637605.444      121218.705
D4103    766329.617    12832120.949       26613.116      766329.610    18072329.526       37479.263
D5627    824362.424    13803873.728       67044.627      824362.372    19440917.738       94423.074
D5727    495725.525     8300876.445       11924.675      495725.398    11690680.357       16793.751
D5826   1175153.604    19677841.416      104853.171     1175153.413    27713612.559      147671.889
D5926   1046316.582    17520472.218       77067.926     1046316.448    24675259.261      108540.759
> 2019  1 10  9 52  3.0000000  0 8                     
D3704   1112433.574    18627598.961       43354.940     1112433.419    26234489.994       61060.629
D3903   1170363.972    19597638.781      103641.090     1170363.826    27600665.990      145965.582
D4003    831675.031    13926321.270       85929.699      831674.946    19613361.703      121023.164
D4103    766011.866    12826798.326       26400.132      766011.769    18064833.674       37180.880
D5627    823561.720    13790464.802       66872.964      823561.593    19422033.123       94181.975
D5727    495583.064     8298491.510       11539.705      495583.042    11687321.607       16253.310
D5826   1173901.176    19656870.782      104893.693     1173901.013    27684078.181      147727.854
D5926   1045396.001    17505058.633       77017.763     1045395.873    24653551.109      108468.003
> 2019  1 10  9 52  3.2000000  0 8                     
D3704   1111915.715    18618927.973       43255.029     1111915.559    26222277.868       60917.199
D3903   1169126.043    19576910.563      103546.893     1169125.937    27571472.874      145833.408
D4003    830648.569    13909135.330       85939.379      830648.465    19589157.070      121033.631
D4103    765696.604    12821518.300       26166.973      765696.480    18057397.498       36853.675
D5627    822762.938    13777090.209       66732.676      822762.903    19403196.728       93985.022
D5727    495445.205     8296183.569       11246.168      495445.143    11684070.945       15838.412
D5826   1172648.378    19635892.043      104865.424     1172648.216    27654532.610      147688.635
D5926   1044476.241    17489655.081       76876.360     1044476.038    24631857.509      108271.318
> 2019  1 10  9 52  3.4000000  0 8                     
D3704   1111399.128    18610276.967       43106.149     1111399.053    26210094.428       60709.275
D3903   1167889.251    19556201.185      103575.272     1167889.144    27542306.192      145869.198
D4003    829622.136    13891947.454       85691.756      829622.065    19564950.344      120686.671
D4103    765384.017    12816284.905       26061.717      765383.824    18050026.763       36705.391
D5627    821965.882    13763743.674       66592.857      821965.774    19384399.724       93788.062
D5727    495310.846     8293934.336       10902.750      495310.810    11680903.263       15355.546
D5826   1171395.902    19614918.959      104822.732     1171395.740    27624994.883      147629.555
D5926   1043557.925    17474279.809       76787.074     1043557.757    24610203.245      108144.616
> 2019  1 10  9 52  3.6000000  0 8                     
D3704   1110884.279    18601655.737       42944.719     1110884.173    26197952.573       60482.262
D3903   1166652.239    19535486.130      103472.854     1166652.076    27513132.353      145727.828
D4003    828598.631    13874809.103       85732.995      828598.595    19540813.010      120742.144
D4103    765072.695    12811072.561       25894.257      765072.577    18042685.684       36467.712
D5627    821170.492    13750425.103       66457.480      821170.386    19365642.111       93594.529
D5727    495180.663     8291753.785       10694.191      495180.569    11677832.154       15061.797
D5826   1170143.838    19593954.412      104828.317     1170143.683    27595468.972      147635.856
D5926   1042640.743    17458922.394       76671.338     1042640.652    24588574.322      107982.110
> 2019  1 10  9 52  3.8000000  0 8                     
D3704   1110371.373    18593066.793       42881.234     1110371.188    26185856.121       60393.411
D3903   1165416.376    19514791.560      103493.562     1165416.218    27483986.787      145758.506
D4003    827574.629    13857662.504       85589.671      827574.547    19516664.581      120541.795
D4103    764763.471    12805893.710       25655.323      764763.326    18035392.142       36132.649
D5627    820376.827    13737133.607       66335.331      820376.691    19346923.206       93424.829
D5727    495052.899     8289614.947       10331.341      495052.817    11674819.794       14549.369
D5826   1168891.841    19572988.749      104697.956     1168891.622    27565941.801      147454.448
D5926   1041725.010    17443588.126       76609.324     1041724.887    24566977.900      107893.603
> 2019  1 10  9 52  4.0000000  0 8                     
D3704   1109859.056    18584490.546       42703.228     1109858.988    26173777.439       60140.984
D3903   1164180.186    19494092.847      103495.722     1164180.075    27454835.086      145758.417
D4003    826552.397    13840544.570       85609.227      826552.257    19492556.222      120568.889
D4103    764457.021    12800762.645       25408.324      764456.898    18028165.612       35784.432
D5627    819584.463    13723866.541       66224.758      819584.351    19328238.240       93268.232
D5727    494929.545     8287548.679       10015.009      494929.499    11671909.920       14104.358
D5826   1167641.304    19552049.158      104726.051     1167641.105    27536450.912      147492.411
D5926   1040809.996    17428266.262       76525.857     1040809.872    24545399.180      107774.193
> 2019  1 10  9 52  4.2000000  0 8                     
D3704   1109349.070    18575949.901       42590.256     1109348.940    26161749.242       59981.528
D3903   1162944.077    19473393.703      103434.920     1162943.939    27425683.403      145674.059
D4003    825529.890    13823422.725       85399.428      825529.754    19468442.444      120274.161
D4103    764153.509    12795680.981       25314.756      764153.391    18021008.726       35651.365
D5627    818793.569    13710621.589       66112.825      818793.378    19309584.594       93109.757
D5727    494809.947     8285545.677        9642.910      494809.855    11669089.049       13580.490
D5826   1166390.461    19531103.947      104722.822     1166390.302    27506952.429      147487.853
D5926   1039896.045    17412961.090       76403.178     1039895.909    24523844.341      107604.889
> 2019  1 10  9 52  4.4000000  0 8                     
D3704   1108840.439    18567431.850       42509.043     1108840.282    26149752.936       59868.819
D3903   1161708.737    19452706.719      103393.820     1161708.561    27396548.591      145617.073
D4003    824509.894    13806342.839       85372.469      824509.750    19444387.612      120236.553
D4103    763851.208    12790618.030       25036.172      763851.060    18013878.453       35261.177
D5627    818003.900    13697399.024       65911.059      818003.749    19290962.642       92828.325
D5727    494694.779     8283617.095        9359.657      494694.685    11666372.951       13182.329
D5826   1165139.631    19510159.383      104690.267     1165139.503    27477454.859      147440.901
D5926   1038983.523    17397680.455       76346.682     1038983.316    24502323.363      107523.750
> 2019  1 10  9 52  4.6000000  0 8                     
D3704   1108332.758    18558930.041       42294.389     1108332.554    26137779.172       59565.337
D3903   1160473.782    19432027.955      103441.492     1160473.566    27367425.176      145683.105
D4003    823490.092    13789268.345       85224.988      823490.069    19420340.301      120027.749
D4103    763552.144    12785610.795       24828.700      763551.989    18006826.217       34967.249
D5627    817216.598    13684216.812       65796.344      817216.522    19272396.977       92665.734
D5727    494582.981     8281745.164        9051.454      494582.862    11663736.485       12747.621
D5826   1163889.294    19489221.329      104629.778     1163889.089    27447966.679      147359.878
D5926   1038071.575    17382411.118       76198.427     1038071.519    24480818.613      107316.068
> 2019  1 10  9 52  4.8000000  0 8                     
D3704   1107827.548    18550471.163       42268.155     1107827.461    26125866.105       59530.067
D3903   1159238.270    19411339.656      103277.916     1159238.097    27338288.555      145454.404
D4003    822472.284    13772223.348       85205.526      822472.161    19396334.752      119998.944
D4103    763255.652    12780645.055       24771.020      763255.440    17999832.768       34886.109
D5627    816430.755    13671057.543       65658.461      816430.667    19253863.830       92471.320
D5727    494474.877     8279934.873        8725.670      494474.762    11661186.961       12289.017
D5826   1162639.468    19468295.374      104592.717     1162639.355    27418494.703      147303.336
D5926   1037161.466    17367171.433       76131.740     1037161.300    24459355.400      107221.525
> 2019  1 10  9 52  5.0000000  0 8                     
D3704   1107322.654    18542017.532       42012.931     1107322.528    26113960.092       59171.257
D3903   1158004.692    19390684.073      103414.351     1158004.516    27309197.674      145644.991
D4003    821454.629    13755182.242       85121.824      821454.545    19372334.963      119882.030
D4103    762959.772    12775690.851       24472.542      762959.643    17992855.546       34466.439
D5627    815646.578    13657925.851       65522.508      815646.411    19235369.567       92278.071
D5727    494370.636     8278189.739        8361.005      494370.527    11658729.157       11776.190
D5826   1161390.312    19447376.830      104609.779     1161390.221    27389034.036      147329.662
D5926   1036252.152    17351945.085       75992.288     1036252.001    24437911.095      107024.281
> 2019  1 10  9 52  5.2000000  0 8                     
D3704   1106820.789    18533614.946       42004.831     1106820.722    26102125.840       59156.582
D3903   1156769.511    19370001.203      103231.951     1156769.342    27280068.676      145386.847
D4003    820437.948    13738157.877       84983.351      820437.792    19348358.557      119689.678
D4103    762667.474    12770796.343       24299.757      762667.362    17985962.258       34223.651
D5627    814863.962    13644821.350       65374.467      814863.869    19216913.952       92074.209
D5727    494270.758     8276517.538        8119.939      494270.612    11656373.919       11435.000
D5826   1160140.830    19426454.875      104495.715     1160140.651    27359568.104      147167.332
D5926   1035344.506    17336746.627       75968.267     1035344.330    24416506.238      106992.208
> 2019  1 10  9 52  5.4000000  0 8                     
D3704   1106319.217    18525213.980       41852.681     1106319.064    26090294.524       58943.114
D3903   1155536.544    19349354.813      103285.414     1155536.421    27250991.307      145463.968
D4003    819422.868    13721161.207       84942.260      819422.777    19324420.621      119629.235
D4103    762377.239    12765936.391       24067.857      762377.095    17979117.528       33896.693
D5627    814083.070    13631746.456       65274.436      814082.990    19198499.111       91929.094
D5727    494173.765     8274893.550        7719.977      494173.685    11654086.919       10872.602
D5826   1158892.729    19405555.731      104581.707     1158892.617    27330134.637      147291.222
D5926   1034437.150    17321552.974       75834.170     1034437.013    24395107.797      106802.592
> 2019  1 10  9 52  5.6000000  0 8                     
D3704   1105819.342    18516843.444       41657.004     1105819.147    26078505.901       58668.909
D3903   1154302.878    19328697.730      103246.211     1154302.794    27221898.513      145409.929
D4003    818408.353    13704172.755       84750.720      818408.179    19300494.774      119358.720
D4103    762089.722    12761122.820       23921.392      762089.609    17972338.189       33689.789
D5627    813303.465    13618691.569       65116.998      813303.392    19180113.292       91708.562
D5727    494081.595     8273349.555        7468.679      494081.481    11651912.399       10519.613
D5826   1157643.639    19384639.390      104464.889     1157643.476    27300676.393      147125.330
D5926   1033531.363    17306386.140       75736.832     1033531.247    24373747.279      106665.076
> 2019  1 10  9 52  5.8000000  0 8                     
D3704   1105321.784    18508512.043       41567.090     1105321.614    26066772.119       58541.218
D3903   1153069.758    19308048.488      103237.117     1153069.570    27192816.527      145394.621
D4003    817396.159    13687222.611       84774.380      817395.968    19276623.030      119395.656
D4103    761803.979    12756338.541       23752.128      761803.936    17965600.231       33451.860
D5627    812525.722    13605668.169       64982.329      812525.584    19161771.579       91519.455
D5727    493992.339     8271855.819        7154.386      493992.270    11649808.477       10075.350
D5826   1156395.898    19363746.412      104444.892     1156395.759    27271251.327      147094.465
D5926   1032626.798    17291238.774       75639.405     1032626.599    24352414.263      106527.007
> 2019  1 10  9 52  6.0000000  0 8                     
D3704   1104825.268    18500198.625       41404.541     1104825.140    26055063.876       58313.976
D3903   1151836.734    19287401.064      103188.501     1151836.546    27163737.603      145328.315
D4003    816383.498    13670267.735       84710.335      816383.378    19252743.899      119303.432
D4103    761520.281    12751588.116       23506.874      761520.218    17958909.859       33106.161
D5627    811749.610    13592671.704       64851.056      811749.438    19143467.688       91332.819
D5727    493906.882     8270424.942        6804.947      493906.853    11647793.407        9584.075
D5826   1155148.458    19342857.434      104408.080     1155148.322    27241832.434      147044.807
D5926   1031723.394    17276110.892       75484.751     1031723.198    24331108.862      106311.085
> 2019  1 10  9 52  6.2000000  0 8                     
D3704   1104330.737    18491917.717       41336.582     1104330.589    26043401.080       58215.985
D3903   1150604.199    19266763.364      103158.247     1150604.071    27134671.940      145284.359
D4003    815371.809    13653325.668       84507.094      815371.573    19228883.213      119016.435
D4103    761239.538    12746886.741       23341.785      761239.405    17952288.627       32874.546
D5627    810975.000    13579701.492       64682.530      810974.908    19125201.125       91097.414
D5727    493825.622     8269063.952        6445.501      493825.515    11645876.592        9077.005
D5826   1153901.359    19321975.818      104430.452     1153901.216    27212423.472      147077.272
D5926   1030821.772    17261013.942       75464.386     1030821.590    24309846.645      106279.085
> 2019  1 10  9 52  6.4000000  0 8                     
D3704   1103837.062    18483650.400       41156.026     1103836.867    26031757.883       57964.473
D3903   1149372.094    19246131.714      103132.899     1149371.945    27105615.068      145248.129
D4003    814362.441    13636424.250       84504.510      814362.306    19205079.925      119012.367
D4103    760960.740    12742218.384       23101.224      760960.652    17945713.718       32534.336
D5627    810202.410    13566764.986       64587.225      810202.255    19106981.642       90963.958
D5727    493748.701     8267774.852        6191.196      493748.561    11644061.191        8719.629
D5826   1152654.072    19301089.727      104375.276     1152653.932    27183008.018      146997.595
D5926   1029920.496    17245921.065       75332.657     1029920.381    24288590.828      106099.248
> 2019  1 10  9 52  6.6000000  0 8                     
D3704   1103345.443    18475419.195       41076.054     1103345.215    26020164.989       57848.594
D3903   1148140.304    19225505.135      103088.419     1148140.158    27076565.442      145186.026
D4003    813353.151    13619523.348       84369.302      813353.012    19181277.452      118824.076
D4103    760684.891    12737598.139       22963.607      760684.689    17939206.851       32342.361
D5627    809430.967    13553847.541       64355.401      809430.805    19088788.850       90635.172
D5727    493674.643     8266536.613        5779.616      493674.624    11642317.265        8140.298
D5826   1151407.482    19280214.672      104367.253     1151407.283    27153608.499      146986.915
D5926   1029020.611    17230854.534       75258.179     1029020.512    24267370.979      105991.490
> 2019  1 10  9 52  6.8000000  0 8                     
D3704   1102854.819    18467203.984       40871.145     1102854.639    26008595.270       57562.626
D3903   1146909.067    19204887.451      103081.221     1146908.833    27047528.237      145175.532
D4003    812345.408    13602649.487       84229.841      812345.242    19157512.637      118625.837
D4103    760410.526    12733005.418       22726.639      760410.454    17932738.378       32006.324
D5627    808662.280    13540976.461       64294.492      808662.235    19070661.816       90548.730
D5727    493605.656     8265380.690        5599.201      493605.600    11640689.205        7885.884
D5826   1150160.986    19259341.222      104273.539     1150160.768    27124211.116      146857.112
D5926   1028121.760    17215802.898       75101.175     1028121.643    24246172.681      105768.125
> 2019  1 10  9 52  7.0000000  0 8                     
D3704   1102366.696    18459029.755       40827.970     1102366.510    25997082.745       57500.128
D3903   1145677.867    19184271.207      103075.506     1145677.758    27018493.131      145169.919
D4003    811339.402    13585803.519       84215.568      811339.262    19133787.469      118607.348
D4103    760139.127    12728460.090       22549.855      760139.026    17926337.114       31758.000
D5627    807894.469    13528117.563       64151.425      807894.384    19052552.070       90350.774
D5727    493538.764     8264260.850        5182.666      493538.712    11639112.028        7299.218
D5826   1148915.416    19238486.514      104223.914     1148915.256    27094839.693      146784.438
D5926   1027224.822    17200782.663       75100.395     1027224.672    24225019.056      105768.715
> 2019  1 10  9 52  7.2000000  0 8                     
D3704   1101879.079    18450864.161       40603.133     1101878.958    25985582.719       57184.393
D3903   1144446.689    19163656.105      102976.596     1144446.554    26989459.147      145026.596
D4003    810333.450    13568960.405       84159.184      810333.347    19110066.000      118525.772
D4103    759869.811    12723950.119       22398.494      759869.672    17919985.514       31544.904
D5627    807128.181    13515287.278       63977.922      807128.074    19034481.915       90102.071
D5727    493476.863     8263224.317        4863.471      493476.821    11637652.185        6848.039
D5826   1147670.605    19217641.731      104306.369     1147670.452    27065482.806      146900.699
D5926   1026327.777    17185762.584       74934.008     1026327.731    24203865.313      105534.514
> 2019  1 10  9 52  7.4000000  0 8                     
D3704   1101394.069    18442743.534       40511.047     1101393.987    25974145.841       57055.833
D3903   1143216.787    19143060.786      103023.200     1143216.629    26960453.828      145096.173
D4003    809328.306    13552128.569       83940.517      809328.214    19086360.845      118219.442
D4103    759602.278    12719470.420       22110.320      759602.137    17913676.533       31140.062
D5627    806364.054    13502491.693       63863.249      806363.951    19016461.501       89944.228
D5727    493418.863     8262251.622        4526.006      493418.731    11636282.577        6374.569
D5826   1146424.775    19196780.457      104229.756     1146424.687    27036102.666      146794.938
D5926   1025432.798    17170775.782       74907.995     1025432.689    24182758.410      105498.461
> 2019  1 10  9 52  7.6000000  0 8                     
D3704   1100910.179    18434641.325       40464.172     1100910.001    25962734.674       56986.336
D3903   1141986.260    19122456.146      102952.264     1141986.107    26931434.593      144994.319
D4003    808325.749    13535340.465       83966.871      808325.578    19062716.957      118255.520
D4103    759338.199    12715048.356       21967.907      759338.102    17907448.521       30938.488
D5627    805601.253    13489719.044       63798.066      805601.139    18998472.655       89851.702
