     3.02           OBSERVATION DATA    M: Mixed            RINEX VERSION / TYPE
BUPT PLAN 6.0                           20210329 120000 UTC PGM / RUN BY / DATE 
                                                            MARKER NAME         
                                                            MARKER NUMBER       
                                                            MARKER TYPE         
                                                            OBSERVER / AGENCY   
                                                            REC # / TYPE / VERS 
                                                            ANT # / TYPE        
 -2173821.7072  4381469.4593  4093741.0168                  APPROX POSITION XYZ 
        0.0000        0.0000        0.0000                  ANTENNA: DELTA H/E/N
D    6 C5D L5D D5D C7D L7D D7D                              SYS / # / OBS TYPES 
    30.000                                                  INTERVAL            
  2019     1    10     9    51   54.0000000     GPS         TIME OF FIRST OBS   
  2019     1    10     9    54   44.0000000     GPS         TIME OF LAST OBS   
                                                            END OF HEADER       
> 2019  1 10  9 51 54.0000000  0 8                     
D3704   1137285.742    19043740.740           0.000      1137285.129    26820568.868           0.000 
D3903   1226363.743    20535348.439           0.000      1226363.786    28921306.535           0.000 
D4003    878873.085    14716658.065           0.000       878872.918    20726450.464           0.000 
D4103    782524.852    13103299.299           0.000       782523.941    18454252.533           0.000 
D5627    861076.270    14418634.125           0.000       861075.537    20306722.628           0.000 
D5727    505668.323     8467370.598           0.000       505668.305    11925160.706           0.000 
D5826   1230609.375    20606441.196           0.000      1230608.870    29021422.627           0.000 
D5926   1087887.410    18216583.112           0.000      1087887.560    25655621.453           0.000 
> 2019  1 10  9 51 54.2000000  0 8                     
D3704   1136693.164    19033821.682           0.000      1136692.939    26806599.299           0.000 
D3903   1225096.985    20514139.834           0.000      1225097.196    28891437.163           0.000 
D4003    877791.941    14698550.163           0.000       877792.855    20700947.688           0.000 
D4103    782104.801    13096279.711           0.000       782105.080    18444366.161           0.000 
D5627    860202.152    14404000.606           0.000       860201.525    20286113.398           0.000 
D5727    505364.037     8462278.929           0.000       505364.413    11917989.573           0.000 
D5826   1229348.527    20585326.966           0.000      1229348.328    28991686.111           0.000 
D5926   1086935.505    18200643.482           0.000      1086935.675    25633172.355           0.000 
> 2019  1 10  9 51 54.4000000  0 8                     
D3704   1136101.776    19023920.124           0.000      1136101.931    26792654.589           0.000 
D3903   1223830.734    20492930.499           0.000      1223830.193    28861566.358           0.000 
D4003    876711.052    14680452.656           0.000       876711.581    20675459.709           0.000 
D4103    781686.748    13089274.604           0.000       781686.846    18434500.428           0.000 
D5627    859328.167    14389376.812           0.000       859328.427    20265517.810           0.000 
D5727    505064.025     8457248.638           0.000       505063.468    11910905.258           0.000 
D5826   1228086.981    20564205.524           0.000      1228087.239    28961939.092           0.000 
D5926   1085983.913    18184705.051           0.000      1085983.615    25610725.533           0.000 
> 2019  1 10  9 51 54.6000000  0 8                     
D3704   1135512.695    19014063.780           0.000      1135513.736    26778773.223           0.000 
D3903   1222564.175    20471726.130           0.000      1222563.713    28831703.221           0.000 
D4003    875632.139    14662370.908           0.000       875631.135    20649994.093           0.000 
D4103    781271.510    13082315.970           0.000       781270.871    18424700.104           0.000 
D5627    858457.336    14374783.927           0.000       858456.855    20244965.527           0.000 
D5727    504768.128     8452293.992           0.000       504767.360    11903927.243           0.000 
D5826   1226826.691    20543096.443           0.000      1226825.900    28932209.720           0.000 
D5926   1085034.180    18168791.020           0.000      1085033.312    25588312.693           0.000 
> 2019  1 10  9 51 54.8000000  0 8                     
D3704   1134925.495    19004216.321           0.000      1134925.274    26764904.227           0.000 
D3903   1221298.528    20450532.643           0.000      1221298.901    28801854.717           0.000 
D4003    874552.242    14644296.332           0.000       874551.816    20624538.726           0.000 
D4103    780858.726    13075401.745           0.000       780858.507    18414962.544           0.000 
D5627    857586.546    14360206.888           0.000       857586.528    20224435.565           0.000 
D5727    504475.340     8447390.399           0.000       504474.847    11897021.241           0.000 
D5826   1225566.851    20522001.693           0.000      1225566.904    28902500.762           0.000 
D5926   1084084.788    18152905.139           0.000      1084084.717    25565939.325           0.000 
> 2019  1 10  9 51 55.0000000  0 8                     
D3704   1134338.139    18994389.232           0.000      1134338.001    26751064.088           0.000 
D3903   1220032.692    20429330.113           0.000      1220032.583    28771994.380           0.000 
D4003    873473.748    14626243.078           0.000       873473.335    20599112.846           0.000 
D4103    780447.087    13068518.655           0.000       780447.487    18405268.430           0.000 
D5627    856717.823    14345660.497           0.000       856717.751    20203949.180           0.000 
D5727    504185.500     8442536.238           0.000       504185.604    11890184.802           0.000 
D5826   1224306.364    20500895.686           0.000      1224306.390    28872775.992           0.000 
D5926   1083136.124    18137022.582           0.000      1083136.148    25543571.106           0.000 
> 2019  1 10  9 51 55.2000000  0 8                     
D3704   1133753.040    18984592.884           0.000      1133753.175    26737266.958           0.000 
D3903   1218766.675    20408144.875           0.000      1218766.982    28742157.170           0.000 
D4003    872398.142    14608220.487           0.000       872397.418    20573730.484           0.000 
D4103    780039.606    13061682.196           0.000       780038.955    18395640.405           0.000 
D5627    855850.038    14331125.923           0.000       855850.150    20183479.114           0.000 
D5727    503899.263     8437748.770           0.000       503899.049    11883442.149           0.000 
D5826   1223046.067    20479794.141           0.000      1223045.715    28843057.036           0.000 
D5926   1082189.168    18121162.613           0.000      1082189.623    25521234.322           0.000 
> 2019  1 10  9 51 55.4000000  0 8                     
D3704   1133170.100    18974833.758           0.000      1133169.829    26723523.059           0.000 
D3903   1217501.985    20386962.505           0.000      1217502.149    28712324.751           0.000 
D4003    871321.165    14590189.949           0.000       871321.055    20548336.977           0.000 
D4103    779632.745    13054874.084           0.000       779632.342    18386052.004           0.000 
D5627    854984.149    14316630.103           0.000       854983.816    20163063.396           0.000 
D5727    503616.624     8433022.722           0.000       503616.663    11876786.034           0.000 
D5826   1221786.352    20458705.880           0.000      1221786.644    28813356.962           0.000 
D5926   1081242.884    18105314.754           0.000      1081243.101    25498914.873           0.000 
> 2019  1 10  9 51 55.6000000  0 8                     
D3704   1132587.833    18965084.719           0.000      1132587.808    26709792.478           0.000 
D3903   1216236.713    20365773.740           0.000      1216237.323    28682483.087           0.000 
D4003    870245.670    14572189.105           0.000       870245.293    20522984.923           0.000 
D4103    779227.919    13048099.270           0.000       779228.004    18376510.522           0.000 
D5627    854119.352    14302152.712           0.000       854119.536    20142674.095           0.000 
D5727    503339.888     8428371.643           0.000       503339.333    11870235.892           0.000 
D5826   1220527.219    20437615.959           0.000      1220526.919    28783654.906           0.000 
D5926   1080298.192    18089488.925           0.000      1080297.206    25476626.087           0.000 
> 2019  1 10  9 51 55.8000000  0 8                     
D3704   1132007.715    18955366.533           0.000      1132007.600    26696105.675           0.000 
D3903   1214973.124    20344619.192           0.000      1214973.184    28652689.821           0.000 
D4003    869171.483    14554208.548           0.000       869171.452    20497662.052           0.000 
D4103    778825.951    13041366.367           0.000       778825.927    18367027.838           0.000 
D5627    853256.988    14287702.683           0.000       853256.256    20122323.037           0.000 
D5727    503063.380     8423758.183           0.000       503063.875    11863738.364           0.000 
D5826   1219268.243    20416541.333           0.000      1219268.228    28753974.141           0.000 
D5926   1079353.237    18073677.825           0.000      1079353.564    25454358.387           0.000 
> 2019  1 10  9 51 56.0000000  0 8                     
D3704   1131429.081    18945676.817           0.000      1131428.953    26682459.674           0.000 
D3903   1213708.654    20323443.096           0.000      1213708.547    28622866.056           0.000 
D4003    868097.971    14536216.980           0.000       868097.514    20472323.215           0.000 
D4103    778425.898    13034663.621           0.000       778424.959    18357588.261           0.000 
D5627    852394.440    14273270.589           0.000       852394.550    20101997.380           0.000 
D5727    502792.530     8419216.400           0.000       502792.235    11857342.055           0.000 
D5826   1218009.235    20395454.786           0.000      1218009.109    28724276.368           0.000 
D5926   1078410.677    18057892.246           0.000      1078410.487    25432126.699           0.000 
> 2019  1 10  9 51 56.2000000  0 8                     
D3704   1130851.389    18936000.092           0.000      1130851.480    26668830.904           0.000 
D3903   1212445.542    20302288.010           0.000      1212445.451    28593072.148           0.000 
D4003    867025.406    14518256.571           0.000       867024.641    20447028.508           0.000 
D4103    778028.237    13028012.546           0.000       778028.158    18348220.974           0.000 
D5627    851534.432    14258858.036           0.000       851534.160    20081699.464           0.000 
D5727    502524.334     8414731.055           0.000       502524.354    11851024.813           0.000 
D5826   1216751.416    20374391.549           0.000      1216751.117    28694611.839           0.000 
D5926   1077468.609    18042112.736           0.000      1077468.044    25409903.085           0.000 
> 2019  1 10  9 51 56.4000000  0 8                     
D3704   1130274.658    18926344.339           0.000      1130274.357    26655231.962           0.000 
D3903   1211182.140    20281133.485           0.000      1211182.013    28563278.481           0.000 
D4003    865954.339    14500324.267           0.000       865954.288    20421773.133           0.000 
D4103    777632.569    13021392.301           0.000       777632.566    18338897.293           0.000 
D5627    850675.430    14244481.921           0.000       850675.110    20061452.516           0.000 
D5727    502261.113     8410316.508           0.000       502260.598    11844807.889           0.000 
D5826   1215493.453    20353331.507           0.000      1215493.244    28664951.404           0.000 
D5926   1076527.868    18026363.017           0.000      1076527.592    25387721.655           0.000 
> 2019  1 10  9 51 56.6000000  0 8                     
D3704   1129700.832    18916736.824           0.000      1129700.996    26641701.069           0.000 
D3903   1209918.576    20259977.415           0.000      1209918.844    28533482.798           0.000 
D4003    864882.304    14482383.360           0.000       864883.098    20396505.764           0.000 
D4103    777239.357    13014806.539           0.000       777239.405    18329622.015           0.000 
D5627    849817.287    14230112.020           0.000       849817.456    20041214.616           0.000 
D5727    502000.313     8405953.780           0.000       502000.507    11838663.164           0.000 
D5826   1214235.652    20332262.379           0.000      1214234.973    28635278.164           0.000 
D5926   1075587.661    18010619.113           0.000      1075587.431    25365549.020           0.000 
> 2019  1 10  9 51 56.8000000  0 8                     
D3704   1129127.499    18907134.951           0.000      1129127.257    26628178.528           0.000 
D3903   1208655.909    20238822.193           0.000      1208654.830    28503689.036           0.000 
D4003    863813.352    14464481.949           0.000       863813.731    20371294.121           0.000 
D4103    776848.949    13008269.368           0.000       776848.983    18320415.363           0.000 
D5627    848961.334    14215782.464           0.000       848961.732    20021033.011           0.000 
D5727    501744.792     8401660.402           0.000       501744.046    11832616.641           0.000 
D5826   1212977.891    20311214.038           0.000      1212978.449    28605634.903           0.000 
D5926   1074648.945    17994897.493           0.000      1074648.787    25343406.755           0.000 
> 2019  1 10  9 51 57.0000000  0 8                     
D3704   1128556.572    18897573.807           0.000      1128556.144    26614712.411           0.000 
D3903   1207393.477    20217688.996           0.000      1207393.131    28473925.955           0.000 
D4003    862744.707    14446580.534           0.000       862744.463    20346082.289           0.000 
D4103    776460.580    13001760.320           0.000       776460.821    18311248.250           0.000 
D5627    848106.636    14201465.462           0.000       848106.541    20000869.619           0.000 
D5727    501490.846     8397420.690           0.000       501490.688    11826645.646           0.000 
D5826   1211722.846    20290184.490           0.000      1211722.164    28576017.176           0.000 
D5926   1073710.673    17979195.121           0.000      1073710.868    25321292.161           0.000 
> 2019  1 10  9 51 57.2000000  0 8                     
D3704   1127985.782    18888013.552           0.000      1127985.583    26601247.923           0.000 
D3903   1206130.350    20196541.281           0.000      1206130.240    28444141.736           0.000 
D4003    861677.637    14428712.300           0.000       861677.049    20320917.230           0.000 
D4103    776073.684    12995285.257           0.000       776074.150    18302128.892           0.000 
D5627    847253.127    14187180.904           0.000       847253.192    19980751.501           0.000 
D5727    501241.588     8393242.147           0.000       501241.404    11820760.514           0.000 
D5826   1210464.976    20269126.070           0.000      1210464.827    28546359.242           0.000 
D5926   1072774.704    17963505.037           0.000      1072774.209    25299194.696           0.000 
> 2019  1 10  9 51 57.4000000  0 8                     
D3704   1127417.043    18878495.228           0.000      1127416.528    26587842.810           0.000 
D3903   1204868.708    20175413.309           0.000      1204868.474    28414386.090           0.000 
D4003    860610.051    14410841.547           0.000       860610.432    20295748.748           0.000 
D4103    775689.939    12988854.287           0.000       775689.681    18293071.826           0.000 
D5627    846401.169    14172910.192           0.000       846401.035    19960653.369           0.000 
D5727    500996.497     8389138.372           0.000       500996.181    11814980.791           0.000 
D5826   1209209.030    20248090.443           0.000      1209208.167    28516733.227           0.000 
D5926   1071838.642    17947841.587           0.000      1071838.356    25277134.707           0.000 
> 2019  1 10  9 51 57.6000000  0 8                     
D3704   1126849.621    18868995.736           0.000      1126849.689    26574464.311           0.000 
D3903   1203606.196    20154275.176           0.000      1203605.719    28384615.708           0.000 
D4003    859544.561    14392990.485           0.000       859543.989    20270608.084           0.000 
D4103    775308.527    12982465.509           0.000       775308.239    18284074.228           0.000 
D5627    845551.971    14158690.961           0.000       845551.867    19940627.603           0.000 
D5727    500754.597     8385085.878           0.000       500754.214    11809273.622           0.000 
D5826   1207952.704    20227055.046           0.000      1207951.991    28487108.056           0.000 
D5926   1070903.912    17932188.120           0.000      1070903.210    25255088.777           0.000 
> 2019  1 10  9 51 57.8000000  0 8                     
D3704   1126285.341    18859536.531           0.000      1126284.855    26561142.174           0.000 
D3903   1202345.188    20133159.649           0.000      1202345.075    28354877.254           0.000 
D4003    858479.578    14375161.073           0.000       858479.169    20245497.349           0.000 
D4103    774927.280    12976097.145           0.000       774927.735    18275105.111           0.000 
D5627    844703.443    14144473.275           0.000       844702.804    19920603.407           0.000 
D5727    500515.608     8381089.150           0.000       500515.859    11803644.635           0.000 
D5826   1206697.321    20206035.078           0.000      1206696.657    28457504.083           0.000 
D5926   1069970.620    17916563.955           0.000      1069970.983    25233084.634           0.000 
> 2019  1 10  9 51 58.0000000  0 8                     
D3704   1125720.646    18850086.160           0.000      1125720.225    26547832.666           0.000 
D3903   1201084.856    20112051.811           0.000      1201085.307    28325149.955           0.000 
D4003    857415.468    14357337.622           0.000       857415.160    20220395.463           0.000 
D4103    774550.790    12969786.215           0.000       774550.710    18266217.108           0.000 
D5627    843854.496    14130277.435           0.000       843854.841    19900610.490           0.000 
D5727    500280.549     8377155.992           0.000       500280.816    11798105.476           0.000 
D5826   1205441.473    20185007.814           0.000      1205441.665    28427889.316           0.000 
D5926   1069038.098    17900947.648           0.000      1069038.486    25211090.786           0.000 
> 2019  1 10  9 51 58.2000000  0 8                     
D3704   1125158.062    18840666.098           0.000      1125157.407    26534565.544           0.000 
D3903   1199823.673    20090941.942           0.000      1199823.816    28295419.258           0.000 
D4003    856353.361    14339556.085           0.000       856352.921    20195352.642           0.000 
D4103    774175.824    12963504.843           0.000       774175.722    18257370.430           0.000 
D5627    843009.392    14116118.378           0.000       843009.793    19880669.550           0.000 
D5727    500050.240     8373291.434           0.000       500049.494    11792662.764           0.000 
D5826   1204185.989    20163991.834           0.000      1204185.789    28398291.989           0.000 
D5926   1068106.699    17885344.750           0.000      1068105.956    25189116.412           0.000 
> 2019  1 10  9 51 58.4000000  0 8                     
D3704   1124596.804    18831270.869           0.000      1124596.687    26521333.705           0.000 
D3903   1198562.757    20069824.621           0.000      1198562.339    28265678.027           0.000 
D4003    855290.130    14321758.094           0.000       855290.251    20170286.312           0.000 
D4103    773802.716    12957260.304           0.000       773802.906    18248576.246           0.000 
D5627    842165.137    14101977.791           0.000       842165.063    19860754.348           0.000 
D5727    499823.148     8369489.504           0.000       499822.636    11787307.993           0.000 
D5826   1202931.588    20142975.079           0.000      1202931.086    28368692.492           0.000 
D5926   1067175.737    17869761.926           0.000      1067174.945    25167169.786           0.000 
> 2019  1 10  9 51 58.6000000  0 8                     
D3704   1124037.474    18821904.579           0.000      1124037.380    26508142.476           0.000 
D3903   1197303.029    20048724.387           0.000      1197302.748    28235961.701           0.000 
D4003    854228.905    14303988.113           0.000       854229.081    20145259.695           0.000 
D4103    773431.649    12951050.557           0.000       773431.527    18239830.041           0.000 
D5627    841321.122    14087849.144           0.000       841321.466    19840855.900           0.000 
D5727    499599.154     8365750.251           0.000       499599.492    11782041.838           0.000 
D5826   1201676.970    20121970.795           0.000      1201677.013    28339110.429           0.000 
D5926   1066247.580    17854220.286           0.000      1066247.937    25145281.599           0.000 
> 2019  1 10  9 51 58.8000000  0 8                     
D3704   1123480.514    18812566.406           0.000      1123479.699    26494991.032           0.000 
D3903   1196043.390    20027630.739           0.000      1196043.159    28206253.778           0.000 
D4003    853169.475    14286246.743           0.000       853169.629    20120273.150           0.000 
D4103    773064.417    12944890.218           0.000       773063.898    18231154.370           0.000 
D5627    840479.755    14073755.189           0.000       840480.112    19821006.624           0.000 
D5727    499378.972     8362059.948           0.000       499378.554    11776844.642           0.000 
D5826   1200423.623    20100983.941           0.000      1200423.154    28309553.685           0.000 
D5926   1065318.430    17838666.389           0.000      1065317.975    25123376.030           0.000 
> 2019  1 10  9 51 59.0000000  0 8                     
D3704   1122922.392    18803239.607           0.000      1122922.818    26481855.365           0.000 
D3903   1194784.241    20006545.617           0.000      1194783.906    28176558.444           0.000 
D4003    852110.208    14268504.508           0.000       852110.232    20095285.992           0.000 
D4103    772698.404    12938761.471           0.000       772697.869    18222522.799           0.000 
D5627    839640.157    14059697.419           0.000       839640.004    19801208.044           0.000 
D5727    499163.447     8358441.959           0.000       499163.168    11771749.268           0.000 
D5826   1199169.658    20079992.166           0.000      1199169.653    28279989.324           0.000 
D5926   1064392.163    17823141.447           0.000      1064392.364    25101511.293           0.000 
> 2019  1 10  9 51 59.2000000  0 8                     
D3704   1122367.199    18793942.896           0.000      1122367.111    26468762.040           0.000 
D3903   1193524.558    19985451.679           0.000      1193524.573    28146850.372           0.000 
D4003    851051.776    14250783.072           0.000       851051.719    20070327.421           0.000 
D4103    772334.786    12932673.220           0.000       772334.886    18213948.111           0.000 
D5627    838801.937    14045653.529           0.000       838801.061    19781429.226           0.000 
D5727    498951.157     8354890.872           0.000       498950.827    11766747.896           0.000 
D5826   1197917.001    20059007.399           0.000      1197916.732    28250435.289           0.000 
D5926   1063465.897    17807637.806           0.000      1063465.732    25079676.474           0.000 
> 2019  1 10  9 51 59.4000000  0 8                     
D3704   1121814.572    18784690.367           0.000      1121814.886    26455731.139           0.000 
D3903   1192265.116    19964371.871           0.000      1192265.152    28117162.209           0.000 
D4003    849994.983    14233087.657           0.000       849994.831    20045406.023           0.000 
D4103    771973.079    12926620.739           0.000       771973.529    18205424.143           0.000 
D5627    837964.663    14031636.894           0.000       837964.140    19761688.634           0.000 
D5727    498741.643     8351391.375           0.000       498741.603    11761819.323           0.000 
D5826   1196663.767    20038023.143           0.000      1196663.254    28220881.941           0.000 
D5926   1062540.945    17792147.248           0.000      1062540.537    25057860.092           0.000 
> 2019  1 10  9 51 59.6000000  0 8                     
D3704   1121263.558    18775448.133           0.000      1121263.188    26442715.023           0.000 
D3903   1191006.232    19943295.739           0.000      1191006.378    28087479.276           0.000 
D4003    848938.479    14215402.088           0.000       848938.397    20020498.319           0.000 
D4103    771614.449    12920614.090           0.000       771614.589    18196964.570           0.000 
D5627    837128.319    14017643.325           0.000       837128.434    19741980.645           0.000 
D5727    498536.569     8347956.156           0.000       498536.773    11756981.353           0.000 
D5826   1195411.063    20017042.876           0.000      1195409.695    28191333.146           0.000 
D5926   1061617.365    17776687.305           0.000      1061616.909    25036086.748           0.000 
> 2019  1 10  9 51 59.8000000  0 8                     
D3704   1120712.879    18766231.835           0.000      1120712.216    26429734.688           0.000 
D3903   1189748.544    19922230.670           0.000      1189747.795    28057811.952           0.000 
D4003    847883.422    14197727.278           0.000       847883.418    19995605.680           0.000 
D4103    771257.817    12914643.970           0.000       771258.240    18188556.292           0.000 
D5627    836294.287    14003674.659           0.000       836294.637    19722307.592           0.000 
D5727    498335.882     8344589.812           0.000       498335.784    11752240.351           0.000 
D5826   1194158.614    19996075.313           0.000      1194158.448    28161803.490           0.000 
D5926   1060694.375    17761225.240           0.000      1060694.315    25014310.736           0.000 
> 2019  1 10  9 52  0.0000000  0 8                     
D3704   1120164.421    18757049.906           0.000      1120164.198    26416803.247           0.000 
D3903   1188490.503    19901163.793           0.000      1188490.879    28028141.818           0.000 
D4003    846829.165    14180070.517           0.000       846828.525    19970738.319           0.000 
D4103    770903.359    12908702.750           0.000       770902.715    18180188.948           0.000 
D5627    835461.764    13989729.468           0.000       835461.113    19702667.393           0.000 
D5727    498138.617     8341277.081           0.000       498138.047    11747574.916           0.000 
D5826   1192906.399    19975105.579           0.000      1192906.408    28132270.604           0.000 
D5926   1059772.809    17745796.769           0.000      1059773.125    24992581.847           0.000 
> 2019  1 10  9 52  0.2000000  0 8                     
D3704   1119616.545    18747878.536           0.000      1119616.435    26403886.900           0.000 
D3903   1187233.114    19880108.131           0.000      1187233.076    27998488.114           0.000 
D4003    845776.177    14162445.827           0.000       845775.867    19945916.310           0.000 
D4103    770551.437    12902813.232           0.000       770550.886    18171894.405           0.000 
D5627    834630.564    13975816.056           0.000       834630.850    19683072.532           0.000 
D5727    497943.961     8338030.808           0.000       497944.274    11743002.842           0.000 
D5826   1191654.222    19954149.501           0.000      1191654.563    28102756.873           0.000 
D5926   1058851.345    17730376.935           0.000      1058851.487    24970864.451           0.000 
> 2019  1 10  9 52  0.4000000  0 8                     
D3704   1119071.245    18738746.389           0.000      1119071.106    26391025.229           0.000 
D3903   1185975.675    19859055.676           0.000      1185976.146    27968838.653           0.000 
D4003    844723.863    14144820.421           0.000       844723.785    19921093.368           0.000 
D4103    770201.044    12896944.951           0.000       770200.822    18163629.836           0.000 
D5627    833801.074    13961922.457           0.000       833800.846    19663505.029           0.000 
D5727    497754.597     8334850.957           0.000       497753.868    11738524.418           0.000 
D5826   1190403.474    19933199.915           0.000      1190403.643    28073252.063           0.000 
D5926   1057932.821    17714990.331           0.000      1057932.838    24949194.814           0.000 
> 2019  1 10  9 52  0.6000000  0 8                     
D3704   1118526.898    18729626.603           0.000      1118526.395    26378181.701           0.000 
D3903   1184718.481    19837998.812           0.000      1184717.913    27939182.591           0.000 
D4003    843672.197    14127218.349           0.000       843672.014    19896302.777           0.000 
D4103    769853.760    12891138.157           0.000       769853.853    18155451.688           0.000 
D5627    832972.715    13948057.911           0.000       832972.666    19643978.619           0.000 
D5727    497567.383     8331730.597           0.000       497567.577    11734129.870           0.000 
D5826   1189152.676    19912258.527           0.000      1189153.284    28043758.946           0.000 
D5926   1057015.183    17699614.599           0.000      1057014.363    24927540.026           0.000 
> 2019  1 10  9 52  0.8000000  0 8                     
D3704   1117984.303    18720539.399           0.000      1117983.757    26365383.082           0.000 
D3903   1183461.616    19816961.151           0.000      1183462.102    27909553.533           0.000 
D4003    842622.122    14109634.375           0.000       842622.218    19871538.438           0.000 
D4103    769508.170    12885347.202           0.000       769507.985    18147295.694           0.000 
D5627    832146.483    13934211.241           0.000       832146.284    19624477.553           0.000 
D5727    497385.013     8328667.123           0.000       497384.330    11729815.411           0.000 
D5826   1187901.651    19891310.945           0.000      1187902.263    28014256.822           0.000 
D5926   1056096.869    17684244.621           0.000      1056096.494    24905893.747           0.000 
> 2019  1 10  9 52  1.0000000  0 8                     
D3704   1117442.743    18711478.377           0.000      1117442.965    26352622.084           0.000 
D3903   1182205.793    19795920.857           0.000      1182205.272    27879921.285           0.000 
D4003    841574.151    14092075.417           0.000       841573.491    19846808.912           0.000 
D4103    769164.830    12879605.316           0.000       769165.185    18139209.229           0.000 
D5627    831321.763    13920402.168           0.000       831321.799    19605029.282           0.000 
D5727    497207.370     8325687.763           0.000       497207.385    11725619.173           0.000 
D5826   1186652.351    19870385.886           0.000      1186652.425    27984787.161           0.000 
D5926   1055180.486    17668910.715           0.000      1055180.295    24884297.595           0.000 
> 2019  1 10  9 52  1.2000000  0 8                     
D3704   1116903.347    18702446.332           0.000      1116903.537    26339901.682           0.000 
D3903   1180950.557    19774896.459           0.000      1180949.499    27850311.868           0.000 
D4003    840525.109    14074519.794           0.000       840525.399    19822084.127           0.000 
D4103    768824.743    12873897.518           0.000       768824.533    18131170.687           0.000 
D5627    830497.513    13906605.904           0.000       830497.456    19585599.144           0.000 
D5727    497030.844     8322741.214           0.000       497031.505    11721469.390           0.000 
D5826   1185401.884    19849445.585           0.000      1185401.317    27955294.950           0.000 
D5926   1054265.526    17653582.875           0.000      1054265.408    24862710.626           0.000 
> 2019  1 10  9 52  1.4000000  0 8                     
D3704   1116364.620    18693429.669           0.000      1116364.868    26327202.628           0.000 
D3903   1179693.438    19753860.820           0.000      1179693.488    27820685.264           0.000 
D4003    839477.524    14056981.267           0.000       839477.837    19797383.355           0.000 
D4103    768486.515    12868242.498           0.000       768486.531    18123206.231           0.000 
D5627    829675.542    13892843.932           0.000       829675.491    19566217.204           0.000 
D5727    496859.909     8319879.320           0.000       496860.375    11717438.945           0.000 
D5826   1184152.538    19828526.483           0.000      1184152.669    27925833.548           0.000 
D5926   1053352.076    17638287.199           0.000      1053352.331    24841168.374           0.000 
> 2019  1 10  9 52  1.6000000  0 8                     
D3704   1115829.502    18684457.012           0.000      1115828.855    26314565.783           0.000 
D3903   1178438.622    19732848.195           0.000      1178438.616    27791092.384           0.000 
D4003    838431.934    14039460.133           0.000       838431.402    19772707.373           0.000 
D4103    768150.702    12862612.788           0.000       768150.409    18115277.738           0.000 
D5627    828855.595    13879106.977           0.000       828855.487    19546870.504           0.000 
D5727    496692.482     8317062.777           0.000       496691.775    11713472.145           0.000 
D5826   1182903.120    19807611.076           0.000      1182903.675    27896377.186           0.000 
D5926   1052438.970    17623003.873           0.000      1052439.691    24819644.222           0.000 
> 2019  1 10  9 52  1.8000000  0 8                     
D3704   1115292.975    18675492.180           0.000      1115293.853    26301940.231           0.000 
D3903   1177183.262    19711822.410           0.000      1177183.040    27761479.879           0.000 
D4003    837386.468    14021960.714           0.000       837386.115    19748061.862           0.000 
D4103    767816.930    12857020.538           0.000       767816.120    18107401.636           0.000 
D5627    828037.021    13865397.487           0.000       828036.447    19527562.738           0.000 
D5727    496528.723     8314328.491           0.000       496528.154    11709621.209           0.000 
D5826   1181654.165    19786692.137           0.000      1181653.358    27866915.413           0.000 
D5926   1051528.138    17607734.417           0.000      1051527.481    24798139.131           0.000 
> 2019  1 10  9 52  2.0000000  0 8                     
D3704   1114760.440    18666566.992           0.000      1114760.413    26289370.555           0.000 
D3903   1175928.430    19690813.165           0.000      1175928.097    27731891.212           0.000 
D4003    836341.779    14004475.291           0.000       836342.006    19723435.748           0.000 
D4103    767485.669    12851481.003           0.000       767486.014    18099600.122           0.000 
D5627    827219.976    13851710.912           0.000       827219.153    19508286.912           0.000 
D5727    496368.731     8311651.881           0.000       496368.873    11705851.805           0.000 
D5826   1180406.386    19765789.967           0.000      1180405.341    27837477.616           0.000 
D5926   1050617.042    17592485.412           0.000      1050616.904    24776663.152           0.000 
> 2019  1 10  9 52  2.2000000  0 8                     
D3704   1114228.538    18657657.027           0.000      1114228.810    26276822.144           0.000 
D3903   1174674.745    19669819.320           0.000      1174674.418    27702324.192           0.000 
D4003    835300.274    13987023.881           0.000       835299.879    19698858.038           0.000 
D4103    767156.487    12845967.814           0.000       767156.093    18091835.425           0.000 
D5627    826403.341    13838056.474           0.000       826404.068    19489056.420           0.000 
D5727    496213.098     8309037.474           0.000       496213.065    11702169.564           0.000 
D5826   1179158.379    19744896.900           0.000      1179158.036    27808051.820           0.000 
D5926   1049707.791    17577268.848           0.000      1049708.100    24755232.369           0.000 
> 2019  1 10  9 52  2.4000000  0 8                     
D3704   1113697.445    18648772.193           0.000      1113697.945    26264308.667           0.000 
D3903   1173420.834    19648816.244           0.000      1173420.785    27672744.477           0.000 
D4003    834257.263    13969568.019           0.000       834257.565    19674273.449           0.000 
D4103    766830.889    12840504.459           0.000       766829.956    18084141.238           0.000 
D5627    825589.973    13824419.175           0.000       825589.330    19469850.324           0.000 
D5727    496059.768     8306481.015           0.000       496059.818    11698569.175           0.000 
D5826   1177909.235    19723988.022           0.000      1177909.199    27778604.928           0.000 
D5926   1048799.132    17562050.199           0.000      1048799.093    24733799.185           0.000 
> 2019  1 10  9 52  2.6000000  0 8                     
D3704   1113170.113    18639927.487           0.000      1113170.042    26251851.979           0.000 
D3903   1172167.613    19627835.368           0.000      1172167.569    27643195.444           0.000 
D4003    833215.966    13952135.283           0.000       833216.326    19649722.193           0.000 
D4103    766506.252    12835070.767           0.000       766505.285    18076488.031           0.000 
D5627    824776.967    13810808.923           0.000       824776.160    19450681.704           0.000 
D5727    495911.531     8303993.723           0.000       495911.335    11695066.124           0.000 
D5826   1176663.270    19703111.102           0.000      1176662.820    27749202.400           0.000 
D5926   1047893.257    17546874.050           0.000      1047892.523    24712425.607           0.000 
> 2019  1 10  9 52  2.8000000  0 8                     
D3704   1112642.708    18631108.447           0.000      1112642.944    26239431.640           0.000 
D3903   1170913.739    19606834.685           0.000      1170912.547    27613618.876           0.000 
D4003    832176.498    13934720.066           0.000       832176.375    19625194.967           0.000 
D4103    766183.090    12829679.970           0.000       766183.902    18068896.183           0.000 
D5627    823965.526    13797219.926           0.000       823965.301    19431543.661           0.000 
D5727    495766.537     8301562.952           0.000       495766.022    11691642.555           0.000 
D5826   1175414.802    19682216.264           0.000      1175414.414    27719774.764           0.000 
D5926   1046986.199    17531688.248           0.000      1046985.583    24691038.004           0.000 
> 2019  1 10  9 52  3.0000000  0 8                     
D3704   1112117.019    18622295.099           0.000      1112117.035    26227019.392           0.000 
D3903   1169660.641    19585861.317           0.000      1169660.202    27584080.536           0.000 
D4003    831138.146    13917338.588           0.000       831138.333    19600715.547           0.000 
D4103    765865.592    12824351.964           0.000       765865.464    18061392.290           0.000 
D5627    823156.244    13783673.572           0.000       823155.564    19412465.682           0.000 
D5727    495624.632     8299205.735           0.000       495625.162    11688322.874           0.000 
D5826   1174169.119    19661350.378           0.000      1174168.950    27690387.790           0.000 
D5926   1046082.131    17516547.990           0.000      1046081.871    24669715.462           0.000 
> 2019  1 10  9 52  3.2000000  0 8                     
D3704   1111593.403    18613526.036           0.000      1111592.635    26214669.311           0.000 
D3903   1168408.266    19564887.776           0.000      1168408.052    27554541.925           0.000 
D4003    830099.844    13899950.181           0.000       830099.703    19576226.303           0.000 
D4103    765547.505    12819026.025           0.000       765547.498    18053891.368           0.000 
D5627    822347.613    13770136.195           0.000       822347.620    19393399.709           0.000 
D5727    495487.948     8296902.876           0.000       495488.146    11685079.656           0.000 
D5826   1172922.481    19640482.573           0.000      1172922.487    27660998.918           0.000 
D5926   1045177.741    17501413.776           0.000      1045178.084    24648400.735           0.000 
> 2019  1 10  9 52  3.4000000  0 8                     
D3704   1111070.152    18604771.046           0.000      1111070.388    26202338.785           0.000 
D3903   1167155.484    19543912.221           0.000      1167155.398    27525000.697           0.000 
D4003    829063.878    13882593.545           0.000       829063.034    19551781.638           0.000 
D4103    765232.502    12813752.235           0.000       765232.624    18046463.911           0.000 
D5627    821541.987    13756644.649           0.000       821542.132    19374398.853           0.000 
D5727    495354.581     8294664.767           0.000       495354.710    11681927.666           0.000 
D5826   1171676.576    19619613.735           0.000      1171676.215    27631607.716           0.000 
D5926   1044275.790    17486304.973           0.000      1044275.545    24627121.913           0.000 
> 2019  1 10  9 52  3.6000000  0 8                     
D3704   1110550.642    18596067.463           0.000      1110550.560    26190081.013           0.000 
D3903   1165902.947    19522947.984           0.000      1165903.459    27495475.622           0.000 
D4003    828027.161    13865245.837           0.000       828027.386    19527349.770           0.000 
D4103    764920.196    12808514.493           0.000       764919.654    18039087.092           0.000 
D5627    820736.372    13743160.471           0.000       820736.550    19355408.161           0.000 
D5727    495224.864     8292494.211           0.000       495224.297    11678870.668           0.000 
D5826   1170430.819    19598760.463           0.000      1170430.613    27602238.568           0.000 
D5926   1043373.774    17471207.033           0.000      1043373.545    24605858.494           0.000 
> 2019  1 10  9 52  3.8000000  0 8                     
D3704   1110030.934    18587368.903           0.000      1110030.525    26177830.201           0.000 
D3903   1164652.486    19501991.034           0.000      1164651.758    27465960.645           0.000 
D4003    826992.883    13847921.073           0.000       826992.705    19502950.033           0.000 
D4103    764609.548    12803318.818           0.000       764609.682    18031770.115           0.000 
D5627    819933.650    13729710.818           0.000       819933.739    19336466.150           0.000 
D5727    495098.958     8290381.125           0.000       495098.944    11675894.648           0.000 
D5826   1169185.059    19577904.486           0.000      1169185.275    27572865.657           0.000 
D5926   1042474.224    17456134.845           0.000      1042474.225    24584631.522           0.000 
> 2019  1 10  9 52  4.0000000  0 8                     
D3704   1109512.421    18578687.216           0.000      1109512.600    26165603.377           0.000 
D3903   1163400.496    19481036.860           0.000      1163400.465    27436449.096           0.000 
D4003    825959.265    13830618.656           0.000       825959.138    19478581.883           0.000 
D4103    764302.256    12798171.893           0.000       764301.661    18024520.935           0.000 
D5627    819131.498    13716289.492           0.000       819132.408    19317563.701           0.000 
D5727    494976.613     8288338.664           0.000       494976.559    11673018.005           0.000 
D5826   1167940.119    19557048.859           0.000      1167940.504    27543493.490           0.000 
D5926   1041575.077    17441086.618           0.000      1041575.136    24563438.110           0.000 
> 2019  1 10  9 52  4.2000000  0 8                     
D3704   1108997.883    18570058.629           0.000      1108997.361    26153451.139           0.000 
D3903   1162149.876    19460092.187           0.000      1162149.882    27406951.591           0.000 
D4003    824926.676    13813326.710           0.000       824927.472    19454228.465           0.000 
D4103    763996.731    12793051.618           0.000       763996.629    18017310.005           0.000 
D5627    818332.060    13702893.301           0.000       818331.257    19298697.011           0.000 
D5727    494858.335     8286356.102           0.000       494858.163    11670225.976           0.000 
D5826   1166695.554    19536209.160           0.000      1166695.590    27514143.340           0.000 
D5926   1040677.578    17426045.179           0.000      1040677.058    24542254.082           0.000 
> 2019  1 10  9 52  4.4000000  0 8                     
D3704   1108482.891    18561436.719           0.000      1108482.015    26141308.266           0.000 
D3903   1160899.300    19439147.667           0.000      1160898.680    27377453.697           0.000 
D4003    823895.481    13796060.319           0.000       823895.828    19429911.090           0.000 
D4103    763693.126    12787971.422           0.000       763693.101    18010155.087           0.000 
D5627    817533.396    13689526.337           0.000       817533.491    19279871.469           0.000 
D5727    494743.683     8284435.630           0.000       494743.093    11667521.169           0.000 
D5826   1165451.509    19515373.419           0.000      1165451.264    27484798.885           0.000 
D5926   1039780.853    17411034.163           0.000      1039781.085    24521113.340           0.000 
> 2019  1 10  9 52  4.6000000  0 8                     
D3704   1107970.360    18552856.100           0.000      1107969.777    26129223.711           0.000 
D3903   1159649.137    19418212.841           0.000      1159649.123    27347970.249           0.000 
D4003    822866.067    13778813.288           0.000       822866.422    19405621.356           0.000 
D4103    763392.679    12782952.398           0.000       763393.464    18003086.429           0.000 
D5627    816736.155    13676179.098           0.000       816736.176    19261073.764           0.000 
D5727    494633.091     8282586.181           0.000       494632.944    11664916.276           0.000 
D5826   1164208.086    19494554.726           0.000      1164207.963    27455478.629           0.000 
D5926   1038885.612    17396041.144           0.000      1038885.522    24499997.302           0.000 
> 2019  1 10  9 52  4.8000000  0 8                     
D3704   1107457.841    18544286.186           0.000      1107457.586    26117154.014           0.000 
D3903   1158399.008    19397285.340           0.000      1158398.651    27318496.240           0.000 
D4003    821835.483    13761563.885           0.000       821835.813    19381327.692           0.000 
D4103    763093.620    12777938.130           0.000       763093.755    17996024.537           0.000 
D5627    815940.915    13662853.915           0.000       815940.412    19242307.149           0.000 
D5727    494525.412     8280784.490           0.000       494524.919    11662379.047           0.000 
D5826   1162964.062    19473730.427           0.000      1162964.266    27426150.859           0.000 
D5926   1037990.871    17381062.261           0.000      1037990.503    24478901.536           0.000 
> 2019  1 10  9 52  5.0000000  0 8                     
D3704   1106949.065    18535753.581           0.000      1106948.099    26105136.929           0.000 
D3903   1157149.651    19376363.899           0.000      1157149.177    27289031.605           0.000 
D4003    820807.934    13744356.891           0.000       820807.960    19357093.795           0.000 
D4103    762798.974    12772999.733           0.000       762798.255    17989069.766           0.000 
D5627    815148.044    13649576.412           0.000       815147.807    19223607.369           0.000 
D5727    494423.903     8279078.295           0.000       494423.570    11659976.029           0.000 
D5826   1161720.976    19452912.595           0.000      1161721.311    27396831.234           0.000 
D5926   1037098.039    17366107.126           0.000      1037097.305    24457839.702           0.000 
> 2019  1 10  9 52  5.2000000  0 8                     
D3704   1106440.239    18527239.200           0.000      1106440.226    26093145.774           0.000 
D3903   1155900.470    19355446.214           0.000      1155900.530    27259571.387           0.000 
D4003    819781.045    13727158.656           0.000       819781.145    19332872.559           0.000 
D4103    762505.387    12768074.821           0.000       762504.131    17982133.526           0.000 
D5627    814355.768    13636312.908           0.000       814355.661    19204927.326           0.000 
D5727    494323.678     8277403.200           0.000       494323.451    11657616.874           0.000 
D5826   1160478.596    19432109.615           0.000      1160478.071    27367533.188           0.000 
D5926   1036205.574    17351171.106           0.000      1036205.460    24436804.374           0.000 
> 2019  1 10  9 52  5.4000000  0 8                     
D3704   1105933.319    18518756.040           0.000      1105933.355    26081198.194           0.000 
D3903   1154651.769    19334538.431           0.000      1154652.239    27230126.154           0.000 
D4003    818755.403    13709983.973           0.000       818754.568    19308684.167           0.000 
D4103    762213.973    12763202.080           0.000       762214.240    17975270.798           0.000 
D5627    813564.897    13623074.185           0.000       813565.222    19186282.711           0.000 
D5727    494228.330     8275810.789           0.000       494227.911    11655374.257           0.000 
D5826   1159236.651    19411308.430           0.000      1159236.043    27338237.493           0.000 
D5926   1035315.844    17336260.568           0.000      1035315.018    24415804.657           0.000 
> 2019  1 10  9 52  5.6000000  0 8                     
D3704   1105427.981    18510295.117           0.000      1105428.152    26069282.477           0.000 
D3903   1153402.940    19313627.510           0.000      1153403.135    27200675.593           0.000 
D4003    817730.618    13692822.802           0.000       817730.445    19284515.062           0.000 
D4103    761925.905    12758375.697           0.000       761925.263    17968473.521           0.000 
D5627    812777.144    13609877.411           0.000       812777.618    19167696.897           0.000 
D5727    494136.180     8274271.991           0.000       494136.468    11653206.939           0.000 
D5826   1157994.174    19390509.157           0.000      1157994.235    27308944.343           0.000 
D5926   1034424.806    17321352.684           0.000      1034425.026    24394808.933           0.000 
> 2019  1 10  9 52  5.8000000  0 8                     
D3704   1104925.467    18501878.069           0.000      1104925.208    26057427.825           0.000 
D3903   1152154.666    19292720.235           0.000      1152154.382    27171230.318           0.000 
D4003    816706.952    13675683.246           0.000       816706.661    19260376.030           0.000 
D4103    761638.638    12753570.239           0.000       761638.862    17961705.473           0.000 
D5627    811989.410    13596686.047           0.000       811989.106    19149117.956           0.000 
D5727    494048.564     8272798.755           0.000       494048.675    11651131.904           0.000 
D5826   1156753.740    19369724.022           0.000      1156752.173    27279671.438           0.000 
D5926   1033537.279    17306481.117           0.000      1033537.268    24373864.367           0.000 
> 2019  1 10  9 52  6.0000000  0 8                     
D3704   1104423.744    18493473.545           0.000      1104423.651    26045590.956           0.000 
D3903   1150906.828    19271830.922           0.000      1150907.173    27141810.548           0.000 
D4003    815684.830    13658562.893           0.000       815684.225    19236264.323           0.000 
D4103    761354.677    12748813.755           0.000       761354.928    17955006.803           0.000 
D5627    811204.347    13583544.121           0.000       811204.510    19130609.604           0.000 
D5727    493964.508     8271389.451           0.000       493964.112    11649147.334           0.000 
D5826   1155512.080    19348937.230           0.000      1155511.282    27250396.217           0.000 
D5926   1032649.197    17291621.502           0.000      1032649.684    24352936.311           0.000 
> 2019  1 10  9 52  6.2000000  0 8                     
D3704   1103922.781    18485090.136           0.000      1103922.845    26033784.527           0.000 
D3903   1149658.881    19250928.468           0.000      1149658.783    27112372.379           0.000 
D4003    814663.067    13641458.743           0.000       814662.830    19212175.294           0.000 
D4103    761073.831    12744111.152           0.000       761073.279    17948383.806           0.000 
D5627    810420.998    13570420.971           0.000       810420.305    19112127.515           0.000 
D5727    493884.345     8270053.779           0.000       493884.602    11647266.247           0.000 
D5826   1154271.226    19328154.881           0.000      1154270.450    27221126.928           0.000 
D5926   1031763.506    17276780.929           0.000      1031762.828    24332035.506           0.000 
> 2019  1 10  9 52  6.4000000  0 8                     
D3704   1103424.851    18476746.538           0.000      1103424.134    26022033.527           0.000 
D3903   1148411.385    19230046.783           0.000      1148411.594    27082963.335           0.000 
D4003    813642.414    13624371.585           0.000       813642.513    19188110.474           0.000 
D4103    760794.356    12739426.930           0.000       760793.639    17941786.754           0.000 
D5627    809637.825    13557319.212           0.000       809638.279    19093675.380           0.000 
D5727    493808.530     8268774.151           0.000       493808.078    11645464.147           0.000 
D5826   1153030.753    19307386.976           0.000      1153030.380    27191877.903           0.000 
D5926   1030878.610    17261966.188           0.000      1030878.067    24311170.676           0.000 
> 2019  1 10  9 52  6.6000000  0 8                     
D3704   1102928.268    18468429.902           0.000      1102927.999    26010320.749           0.000 
D3903   1147165.220    19209175.324           0.000      1147164.927    27053568.708           0.000 
D4003    812623.273    13607299.298           0.000       812622.973    19164066.406           0.000 
D4103    760517.130    12734791.500           0.000       760517.595    17935258.265           0.000 
D5627    808857.965    13544243.513           0.000       808856.775    19075260.021           0.000 
D5727    493735.439     8267557.374           0.000       493735.371    11643750.244           0.000 
D5826   1151790.324    19286625.316           0.000      1151790.558    27162638.172           0.000 
D5926   1029994.114    17247162.021           0.000      1029994.150    24290320.999           0.000 
> 2019  1 10  9 52  6.8000000  0 8                     
D3704   1102432.097    18460121.320           0.000      1102431.526    25998618.741           0.000 
D3903   1145918.962    19188306.007           0.000      1145918.127    27024177.076           0.000 
D4003    811605.926    13590262.219           0.000       811605.190    19140072.078           0.000 
D4103    760242.455    12730192.010           0.000       760242.648    17928780.661           0.000 
D5627    808079.394    13531211.762           0.000       808078.713    19056906.905           0.000 
D5727    493667.669     8266415.185           0.000       493667.757    11642141.912           0.000 
D5826   1150550.735    19265860.426           0.000      1150549.828    27133393.386           0.000 
D5926   1029112.165    17232396.078           0.000      1029112.508    24269524.964           0.000 
> 2019  1 10  9 52  7.0000000  0 8                     
D3704   1101939.091    18451870.030           0.000      1101938.922    25986998.025           0.000 
D3903   1144673.050    19167443.372           0.000      1144673.175    26994794.546           0.000 
D4003    810588.332    13573229.056           0.000       810588.506    19116083.007           0.000 
D4103    759969.886    12725632.837           0.000       759969.826    17922359.460           0.000 
D5627    807303.149    13518209.478           0.000       807302.395    19038594.389           0.000 
D5727    493601.775     8265323.380           0.000       493601.838    11640604.178           0.000 
D5826   1149311.812    19245111.458           0.000      1149310.685    27104170.818           0.000 
D5926   1028231.655    17217636.204           0.000      1028231.336    24248738.151           0.000 
> 2019  1 10  9 52  7.2000000  0 8                     
D3704   1101446.487    18443628.098           0.000      1101446.581    25975390.373           0.000 
D3903   1143426.532    19146577.719           0.000      1143427.151    26965408.174           0.000 
D4003    809572.618    13556213.298           0.000       809571.689    19092118.610           0.000 
D4103    759700.199    12721119.800           0.000       759700.732    17916003.330           0.000 
D5627    806525.826    13505204.383           0.000       806526.042    19020278.763           0.000 
D5727    493540.833     8264296.061           0.000       493540.616    11639157.217           0.000 
D5826   1148072.663    19224365.125           0.000      1148072.638    27074952.504           0.000 
D5926   1027350.916    17202901.080           0.000      1027350.790    24227985.503           0.000 
> 2019  1 10  9 52  7.4000000  0 8                     
D3704   1100956.316    18435418.985           0.000      1100956.796    25963829.218           0.000 
D3903   1142182.637    19125737.224           0.000      1142182.542    26936057.170           0.000 
D4003    808558.457    13539231.845           0.000       808558.034    19068202.563           0.000 
