     3.02           OBSERVATION DATA    M: Mixed            RINEX VERSION / TYPE
BUPT PLAN 6.0                           20210329 120000 UTC PGM / RUN BY / DATE 
                                                            MARKER NAME         
                                                            MARKER NUMBER       
                                                            MARKER TYPE         
                                                            OBSERVER / AGENCY   
                                                            REC # / TYPE / VERS 
                                                            ANT # / TYPE        
  4076128.1056   519876.3642  4878092.5196                  APPROX POSITION XYZ 
        0.0000        0.0000        0.0000                  ANTENNA: DELTA H/E/N 
D    6 C5D L5D D5D C7D L7D D7D                              SYS / # / OBS TYPES  
    30.000                                                  INTERVAL            
  2019     1    10     9    51   54.0000000     GPS         TIME OF FIRST OBS   
  2019     1    10     9    54   44.0000000     GPS         TIME OF LAST OBS   
                                                            END OF HEADER       
> 2019  1 10  9 51 54.0000000  0 8                     
D3704   1137285.261    19043738.774       49527.968     1137285.123    26820566.450       69753.635
D3903   1226363.963    20535354.858      105950.564     1226363.790    28921308.287      149215.655
D4003    878873.619    14716660.899       90487.055      878873.476    20726447.105      127438.282
D4103    782524.929    13103305.039       35128.254      782524.762    18454260.028       49472.260
D5627    861076.035    14418647.645       73165.850      861075.969    20306737.556      103044.158
D5727    505667.917     8467367.278       25477.418      505667.813    11925154.383       35881.464
D5826   1230609.465    20606444.257      105616.552     1230609.253    29021426.169      148747.259
D5926   1087888.046    18216590.014       79904.238     1087887.954    25655636.574      112533.515
> 2019  1 10  9 51 54.2000000  0 8                     
D3704   1136693.744    19033833.180       49403.498     1136693.481    26806615.723       69579.776
D3903   1225098.552    20514164.746      105903.441     1225098.345    28891465.156      149152.241
D4003    877792.843    14698563.488       90338.563      877792.720    20700959.448      127229.010
D4103    782105.402    13096279.388       34914.566      782105.262    18444365.576       49173.296
D5627    860202.173    14404014.475       73018.015      860202.108    20286128.724      102835.562
D5727    505363.647     8462271.795       25090.856      505363.535    11917978.090       35336.843
D5826   1229347.984    20585320.946      105637.034     1229347.821    28991676.717      148775.154
D5926   1086933.755    18200609.166       79743.383     1086933.622    25633129.871      112308.261
> 2019  1 10  9 51 54.4000000  0 8                     
D3704   1136103.593    19023952.481       49269.652     1136103.467    26792699.768       69386.132
D3903   1223833.581    20492984.057      105870.809     1223833.425    28861634.708      149105.310
D4003    876713.894    14680495.775       90311.425      876713.778    20675513.646      127192.856
D4103    781688.329    13089296.475       34799.497      781688.228    18434530.917       49009.008
D5627    859330.065    14389410.872       72929.009      859329.923    20265561.612      102711.147
D5727    505063.958     8457253.624       24871.155      505063.855    11910910.721       35027.698
D5826   1228086.277    20564193.539      105610.870     1228086.141    28961921.687      148737.754
D5926   1085981.288    18184660.490       79662.951     1085981.145    25610668.219      112193.669
> 2019  1 10  9 51 54.6000000  0 8                     
D3704   1135515.271    19014098.550       49182.358     1135515.116    26778822.542       69268.777
D3903   1222569.106    20471809.896      105812.941     1222568.910    28831813.646      149022.417
D4003    875635.161    14662433.490       90236.618      875635.028    20650075.075      127086.082
D4103    781272.699    13082336.576       34501.536      781272.619    18424729.115       48592.208
D5627    858459.034    14374825.070       72772.121      858458.883    20245019.383      102489.815
D5727    504766.886     8452279.393       24501.229      504766.783    11903905.182       34506.520
D5826   1226824.884    20543071.365      105560.567     1226824.721    28932174.136      148669.161
D5926   1085029.861    18168727.900       79644.811     1085029.687    25588229.485      112168.774
> 2019  1 10  9 51 54.8000000  0 8                     
D3704   1134927.733    19004262.079       48980.617     1134927.606    26764968.786       68981.907
D3903   1221305.297    20450647.307      105843.034     1221305.176    28802009.163      149065.796
D4003    874557.434    14644386.167       90185.504      874557.298    20624657.858      127013.872
D4103    780860.580    13075436.268       34382.052      780860.499    18415010.674       48421.245
D5627    857589.828    14360270.646       72696.259      857589.727    20224521.420      102383.365
D5727    504474.250     8447379.147       24170.278      504474.131    11897003.878       34041.380
D5826   1225564.021    20521959.252      105585.213     1225563.904    28902440.304      148703.155
D5926   1084078.630    18152798.938       79498.820     1084078.444    25565795.730      111964.137
> 2019  1 10  9 51 55.0000000  0 8                     
D3704   1134342.753    18994465.956       48912.522     1134342.555    26751172.405       68886.359
D3903   1220041.118    20429478.701      105817.770     1220040.911    28772196.004      149030.728
D4003    873480.228    14626349.066       90048.013      873480.138    20599255.084      126820.073
D4103    780449.996    13068559.858       34242.956      780449.906    18405326.425       48228.001
D5627    856721.534    14345731.394       72561.771      856721.433    20204044.747      102194.097
D5727    504185.522     8442545.091       23972.296      504185.465    11890195.602       33761.021
D5826   1224302.947    20500842.209      105516.148     1224302.722    28872699.673      148604.437
D5926   1083129.083    18136899.174       79456.898     1083128.891    25543402.903      111905.139
> 2019  1 10  9 51 55.2000000  0 8                     
D3704   1133758.536    18984683.451       48789.470     1133758.396    26737395.133       68713.320
D3903   1218777.173    20408315.147      105824.742     1218777.012    28742389.858      149041.072
D4003    872404.732    14608339.463       89967.225      872404.585    20573891.069      126708.052
D4103    780040.941    13061711.267       33946.053      780040.828    18395680.825       47808.376
D5627    855854.799    14331219.040       72367.437      855854.756    20183605.927      101919.967
D5727    503899.246     8437750.632       23650.135      503899.136    11883443.398       33307.849
D5826   1223042.684    20479738.980      105538.157     1223042.532    28842978.785      148637.060
D5926   1082179.950    18121007.794       79302.907     1082179.840    25521021.875      111687.517
> 2019  1 10  9 51 55.4000000  0 8                     
D3704   1133175.818    18974925.557       48719.062     1133175.630    26723652.469       68614.128
D3903   1217513.190    20387150.198      105731.394     1217513.015    28712581.644      148907.084
D4003    871330.164    14590346.018       89932.659      871329.999    20548549.459      126657.163
D4103    779635.501    13054922.056       33830.473      779635.338    18386119.149       47647.123
D5627    854990.492    14316745.553       72307.025      854990.377    20163221.934      101834.345
D5727    503616.767     8433020.605       23312.364      503616.752    11876781.828       32833.470
D5826   1221782.100    20458631.348      105455.531     1221781.918    28813251.374      148518.293
D5926   1081232.796    18105147.213       79247.845     1081232.644    25498684.371      111608.950
> 2019  1 10  9 51 55.6000000  0 8                     
D3704   1132593.944    18965181.745       48496.622     1132593.797    26709929.643       68301.876
D3903   1216250.442    20366003.920      105755.352     1216250.244    28682800.227      148943.227
D4003    870256.071    14572359.486       89845.933      870255.851    20523218.026      126535.606
D4103    779231.407    13048155.962       33628.663      779231.249    18376589.725       47359.717
D5627    854126.880    14302284.148       72273.737      854126.747    20142855.065      101787.611
D5727    503338.310     8428358.133       22979.360      503338.224    11870215.134       32363.468
D5826   1220522.619    20437540.242      105471.106     1220522.420    28783547.715      148543.498
D5926   1080286.342    18089297.644       79208.661     1080286.149    25476362.582      111555.495
> 2019  1 10  9 51 55.8000000  0 8                     
D3704   1132014.610    18955482.421       48404.203     1132014.460    26696269.268       68172.018
D3903   1214987.222    20344852.849      105695.879     1214987.101    28653011.581      148858.221
D4003    869182.847    14554390.300       89757.624      869182.769    20497910.905      126411.434
D4103    778829.809    13041430.229       33481.323      778829.707    18367117.781       47155.157
D5627    853263.598    14287829.400       72016.093      853263.594    20122497.543      101424.384
D5727    503063.826     8423762.261       22839.824      503063.716    11863742.440       32166.284
D5826   1219262.803    20416446.021      105385.434     1219262.691    28753839.015      148420.105
D5926   1079340.209    18073455.912       79075.024     1079340.097    25454051.483      111366.111
> 2019  1 10  9 51 56.0000000  0 8                     
D3704   1131436.431    18945801.580       48347.946     1131436.327    26682634.865       68091.230
D3903   1213724.849    20323713.673      105672.877     1213724.635    28623239.937      148826.067
D4003    868110.896    14536438.775       89702.030      868110.734    20472628.619      126333.880
D4103    778429.822    13034733.965       33232.469      778429.656    18357686.750       46803.499
D5627    852403.517    14273426.182       71964.297      852403.402    20102212.666      101351.975
D5727    502791.087     8419194.296       22335.684      502790.990    11857309.184       31456.969
D5826   1218004.186    20395368.934      105426.309     1218003.975    28724154.994      148480.052
D5926   1078395.753    18057640.907       79009.702     1078395.581    25431778.260      111276.684
> 2019  1 10  9 51 56.2000000  0 8                     
D3704   1130859.045    18936131.991       48078.216     1130858.829    26669016.618       67711.058
D3903   1212462.658    20302579.098      105680.422     1212462.536    28593474.724      148838.442
D4003    867039.493    14518498.369       89605.497      867039.348    20447361.843      126196.863
D4103    778032.946    13028087.471       33064.315      778032.823    18348326.050       46565.409
D5627    851543.980    14259033.322       71854.003      851543.837    20081942.271      101197.947
D5727    502524.265     8414727.159       22143.671      502524.156    11851017.790       31186.928
D5826   1216744.917    20374283.672      105350.416     1216744.832    28694458.984      148369.644
D5926   1077451.916    18041838.966       78887.840     1077451.938    25409522.924      111102.669
> 2019  1 10  9 51 56.4000000  0 8                     
D3704   1130284.782    18926516.348       48088.834     1130284.652    26655474.407       67726.765
D3903   1211200.422    20281443.014      105600.928     1211200.255    28563707.036      148723.857
D4003    865969.288    14500577.269       89577.027      865969.144    20422122.470      126159.207
D4103    777638.026    13021474.608       32886.117      777637.930    18339012.968       46316.549
D5627    850685.757    14244662.522       71732.980      850685.599    20061702.682      101024.922
D5727    502259.791     8410298.425       21798.350      502259.661    11844780.404       30700.054
D5826   1215486.720    20353213.589      105315.244     1215486.541    28664785.055      148324.921
D5926   1076509.796    18026061.398       78807.435     1076509.651    25387302.390      110988.299
> 2019  1 10  9 51 56.6000000  0 8                     
D3704   1129710.437    18916898.581       47926.737     1129710.246    26641929.054       67497.050
D3903   1209939.140    20260322.828      105612.587     1209939.031    28533962.264      148739.920
D4003    864899.244    14482661.864       89459.834      864899.155    20396890.628      125992.305
D4103    777245.237    13014897.384       32704.428      777245.098    18329749.659       46059.313
D5627    849828.985    14230315.926       71607.406      849828.790    20041497.697      100851.213
D5727    501999.393     8405938.755       21501.138      501999.318    11838640.394       30281.493
D5826   1214228.742    20332150.540      105356.478     1214228.627    28635120.071      148381.394
D5926   1075568.568    18010299.911       78748.671     1075568.478    25365104.730      110905.652
> 2019  1 10  9 51 56.8000000  0 8                     
D3704   1129138.024    18907313.233       47712.769     1129137.902    26628429.644       67197.950
D3903   1208677.801    20239200.310      105593.276     1208677.546    28504214.280      148713.769
D4003    863830.700    14464769.897       89334.291      863830.668    20371692.167      125813.874
D4103    776854.597    13008356.499       32489.966      776854.587    18320537.796       45758.028
D5627    848973.642    14215994.445       71470.983      848973.576    20021327.454      100655.136
D5727    501742.632     8401638.527       21183.347      501742.546    11832584.095       29833.113
D5826   1212970.341    20311079.244      105272.813     1212970.184    28605443.792      148262.182
D5926   1074628.065    17994550.177       78636.582     1074627.885    25342923.600      110750.618
> 2019  1 10  9 51 57.0000000  0 8                     
D3704   1128568.179    18897770.680       47734.349     1128567.970    26614990.054       67228.727
D3903   1207416.520    20218081.655      105551.286     1207416.357    28474471.526      148655.549
D4003    862763.811    14446903.039       89314.036      862763.699    20346529.393      125787.091
D4103    776466.567    13001858.506       32332.354      776466.474    18311386.190       45535.802
D5627    848120.068    14201700.248       71344.349      848119.954    20001196.427      100479.753
D5727    501489.654     8397401.858       20853.376      501489.526    11826617.472       29369.666
D5826   1211713.012    20290024.682      105264.992     1211712.887    28575791.356      148251.694
D5926   1073688.792    17978822.861       78581.682     1073688.641    25320773.476      110671.049
> 2019  1 10  9 51 57.2000000  0 8                     
D3704   1127997.945    18888223.810       47548.159     1127997.790    26601544.309       66964.171
D3903   1206155.776    20196971.398      105504.446     1206155.695    28444740.416      148588.376
D4003    861697.122    14429040.231       89201.126      861696.901    20321371.974      125628.176
D4103    776080.388    12995392.035       32132.625      776080.284    18302279.030       45254.074
D5627    847267.911    14187431.378       71247.699      847267.855    19981100.477      100343.774
D5727    501240.615     8393231.183       20599.866      501240.459    11820743.539       29012.250
D5826   1210455.679    20268971.683      105218.922     1210455.562    28546141.017      148185.388
D5926   1072750.278    17963106.524       78455.850     1072750.061    25298639.266      110494.561
> 2019  1 10  9 51 57.4000000  0 8                     
D3704   1127430.132    18878714.178       47380.815     1127429.953    26588151.474       66731.191
D3903   1204895.718    20175870.509      105564.416     1204895.577    28415022.741      148673.971
D4003    860631.655    14411200.006       89121.819      860631.492    20296246.339      125514.687
D4103    775696.615    12988965.510       31934.273      775696.515    18293228.215       44975.777
D5627    846416.948    14173181.838       71106.494      846416.785    19961031.722      100144.111
D5727    500994.475     8389111.210       20262.168      500994.416    11814941.089       28536.149
D5826   1209199.048    20247927.899      105226.470     1209198.868    28516503.939      148198.263
D5926   1071813.149    17947415.354       78403.830     1071813.027    25276540.354      110422.431
> 2019  1 10  9 51 57.6000000  0 8                     
D3704   1126864.073    18869238.015       47298.508     1126864.017    26574805.236       66613.139
D3903   1203634.853    20154757.626      105447.835     1203634.639    28385287.947      148507.874
D4003    859567.254    14393375.642       89086.223      859567.084    20271143.402      125467.365
D4103    775315.174    12982578.655       31748.938      775315.117    18284233.059       44714.181
D5627    845567.614    14158960.539       71011.035      845567.558    19941002.900      100009.303
D5727    500752.489     8385058.776       19951.846      500752.459    11809233.859       28099.938
D5826   1207942.155    20226882.605      105196.006     1207942.023    28486864.287      148153.746
D5926   1070876.648    17931734.588       78260.233     1070876.522    25254455.868      110220.039
> 2019  1 10  9 51 57.8000000  0 8                     
D3704   1126299.191    18859778.313       47159.336     1126299.067    26561482.608       66417.771
D3903   1202375.433    20133668.059      105396.749     1202375.320    28355586.372      148438.856
D4003    858503.110    14375558.398       89000.783      858502.988    20246049.929      125345.500
D4103    774935.953    12976228.868       31558.957      774935.816    18275290.223       44445.626
D5627    844719.486    14144758.332       70926.557      844719.380    19921001.039       99889.692
D5727    500514.216     8381068.407       19676.184      500514.086    11803613.872       27711.352
D5826   1206685.831    20205843.404      105121.182     1206685.589    28457233.537      148049.584
D5926   1069941.871    17916082.542       78184.929     1069941.792    25232411.860      110111.243
> 2019  1 10  9 51 58.0000000  0 8                     
D3704   1125735.876    18850346.446       47035.045     1125735.757    26548199.054       66241.441
D3903   1201116.521    20112588.709      105476.065     1201116.423    28325898.601      148548.657
D4003    857440.132    14357758.241       88880.133      857439.988    20220980.829      125176.199
D4103    774559.080    12969917.076       31377.956      774558.953    18266401.098       44192.869
D5627    843872.362    14130573.021       70699.975      843872.231    19901023.101       99571.717
D5727    500279.143     8377133.170       19310.609      500279.094    11798071.601       27196.401
D5826   1205430.175    20184819.168      105148.913     1205430.016    28427623.620      148088.093
D5926   1069008.114    17900445.556       78075.584     1069007.974    25210389.612      109959.549
> 2019  1 10  9 51 58.2000000  0 8                     
D3704   1125174.157    18840939.437       46936.472     1125174.018    26534950.766       66103.338
D3903   1199856.776    20091493.496      105422.179     1199856.535    28296188.870      148471.494
D4003    856378.586    14339982.214       88825.051      856378.395    20195945.589      125097.492
D4103    774184.268    12963641.485       31183.352      774184.153    18257562.524       43916.574
D5627    843027.976    14116433.026       70656.605      843027.785    19881108.757       99511.317
D5727    500048.531     8373271.048       19083.958      500048.488    11792632.321       26876.644
D5826   1204174.277    20163789.385      105084.766     1204174.183    28398006.002      147998.489
D5926   1068075.593    17884830.439       78031.772     1068075.478    25188397.702      109898.383
> 2019  1 10  9 51 58.4000000  0 8                     
D3704   1124613.583    18831552.143       46820.837     1124613.439    26521730.098       65943.147
D3903   1198597.659    20070409.060      105372.567     1198597.493    28266494.571      148404.505
D4003    855317.592    14322217.204       88756.090      855317.498    20170926.090      125002.207
D4103    773811.813    12957404.815       30979.120      773811.662    18248779.210       43630.809
D5627    842183.956    14102301.705       70528.973      842183.857    19861206.494       99330.863
D5727    499820.621     8369454.257       18672.311      499820.494    11787256.992       26298.945
D5826   1202919.127    20142772.432      105071.732     1202918.993    28368406.304      147980.186
D5926   1067143.566    17869224.085       77968.965     1067143.448    25166418.025      109807.457
> 2019  1 10  9 51 58.6000000  0 8                     
D3704   1124054.283    18822187.975       46601.566     1124054.173    26508541.469       65631.216
D3903   1197339.109    20049334.547      105350.453     1197338.899    28236813.670      148373.955
D4003    854257.517    14304465.986       88630.633      854257.402    20145925.649      124823.401
D4103    773441.831    12951208.991       30806.204      773441.681    18240053.048       43386.894
D5627    841341.624    14088195.911       70354.038      841341.494    19841340.321       99083.852
D5727    499597.545     8365719.794       18438.293      499597.514    11781997.203       25966.894
D5826   1201664.196    20121758.086      105045.211     1201663.994    28338810.267      147940.187
D5926   1066212.337    17853630.292       77857.913     1066212.162    25144456.534      109652.192
> 2019  1 10  9 51 58.8000000  0 8                     
D3704   1123497.687    18812867.662       46568.120     1123497.567    26495415.225       65585.427
D3903   1196080.642    20028264.456      105276.776     1196080.524    28207138.879      148267.033
D4003    853198.948    14286739.860       88620.145      853198.782    20120960.969      124810.456
D4103    773073.862    12945047.750       30625.230      773073.737    18231375.669       43130.663
D5627    840501.259    14074125.103       70262.180      840501.121    19821523.551       98956.288
D5727    499377.379     8362032.136       18131.791      499377.185    11776803.824       25536.879
D5826   1200409.560    20100749.043      104994.578     1200409.354    28309222.230      147871.173
D5926   1065282.411    17838058.709       77692.083     1065282.226    25122526.095      109421.627
> 2019  1 10  9 51 59.0000000  0 8                     
D3704   1122941.518    18803554.038       46395.785     1122941.365    26482298.140       65342.517
D3903   1194823.323    20007209.101      105314.292     1194823.159    28177485.472      148320.666
D4003    852140.454    14269015.831       88435.834      852140.319    20095998.878      124550.776
D4103    772708.062    12938922.704       30396.354      772707.940    18222749.536       42809.156
D5627    839662.068    14060072.667       70136.528      839661.934    19801732.293       98775.785
D5727    499160.742     8358405.778       17808.929      499160.738    11771696.449       25080.668
D5826   1199155.546    20079750.128      105026.617     1199155.308    28279647.995      147916.666
D5926   1064354.395    17822520.292       77672.490     1064354.204    25100641.770      109390.185
> 2019  1 10  9 51 59.2000000  0 8                     
D3704   1122387.352    18794274.881       46254.345     1122387.197    26469229.637       65143.175
D3903   1193565.471    19986146.243      105262.410     1193565.324    28147821.339      148246.404
D4003    851084.103    14251328.664       88400.085      851084.028    20071088.722      124500.730
D4103    772344.967    12932843.433       30238.329      772344.804    18214187.705       42586.983
D5627    838824.420    14046045.361       70006.384      838824.289    19781977.136       98596.472
D5727    498948.075     8354843.992       17441.762      498948.032    11766680.315       24565.060
D5826   1197901.068    20058744.804      104970.460     1197900.900    28250064.662      147836.002
D5926   1063426.652    17806985.794       77588.626     1063426.543    25078763.733      109273.504
> 2019  1 10  9 51 59.4000000  0 8                     
D3704   1121834.889    18785024.012       46162.875     1121834.723    26456201.002       65013.022
D3903   1192308.216    19965093.761      105241.522     1192308.089    28118172.058      148220.271
D4003    850028.303    14233648.647       88350.586      850028.115    20046188.576      124427.447
D4103    771983.868    12926795.767       30062.709      771983.722    18205670.309       42339.869
D5627    837988.204    14032044.085       69910.268      837988.090    19762257.842       98458.169
D5727    498739.776     8351355.640       17214.282      498739.633    11761767.303       24243.955
D5826   1196647.377    20037750.712      104865.855     1196647.212    28220497.462      147689.617
D5926   1062500.003    17791468.069       77470.408     1062499.830    25056909.032      109105.776
> 2019  1 10  9 51 59.6000000  0 8                     
D3704   1121283.585    18775791.437       45989.735     1121283.422    26443198.397       64770.871
D3903   1191051.188    19944045.456      105221.772     1191051.036    28088528.004      148191.694
D4003    848973.121    14215978.529       88258.735      848972.988    20021303.087      124301.454
D4103    771624.743    12920783.225       29819.287      771624.697    18197202.335       41996.710
D5627    837153.227    14018062.031       69741.466      837153.148    19742566.208       98221.817
D5727    498534.160     8347912.783       16807.715      498534.021    11756918.512       23670.556
D5826   1195394.801    20016777.541      104910.983     1195394.682    28190959.538      147754.615
D5926   1061574.721    17775973.988       77354.959     1061574.548    25035087.877      108944.269
> 2019  1 10  9 51 59.8000000  0 8                     
D3704   1120734.245    18766593.490       45879.032     1120734.095    26430244.223       64612.148
D3903   1189794.441    19923001.102      105160.181     1189794.246    28058889.666      148101.461
D4003    847918.952    14198326.783       88219.638      847918.798    19996442.796      124243.807
D4103    771268.617    12914819.368       29643.258      771268.521    18188802.993       41748.065
D5627    836320.336    14004113.738       69574.064      836320.172    19722921.845       97986.302
D5727    498333.379     8344551.240       16561.925      498333.318    11752184.401       23326.048
D5826   1194141.672    19995795.345      104841.288     1194141.578    28161408.615      147654.524
D5926   1060650.815    17760502.996       77345.134     1060650.608    25013299.023      108931.239
> 2019  1 10  9 52  0.0000000  0 8                     
D3704   1120186.334    18757417.684       45818.695     1120186.248    26417321.793       64532.222
D3903   1188538.481    19901969.066      105204.544     1188538.287    28029269.373      148168.843
D4003    846865.274    14180682.855       88054.686      846865.159    19971594.035      124015.676
D4103    770914.560    12908890.716       29487.011      770914.430    18180453.380       41528.066
D5627    835489.241    13990198.925       69540.760      835489.122    19703324.584       97938.707
D5727    498135.499     8341238.855       16232.727      498135.489    11747519.191       22860.414
D5826   1192889.538    19974827.087      104905.662     1192889.377    28131877.710      147744.244
D5926   1059727.001    17745033.969       77195.007     1059726.793    24991512.775      108717.592
> 2019  1 10  9 52  0.2000000  0 8                     
D3704   1119639.003    18748253.945       45620.733     1119638.881    26404415.349       64251.173
D3903   1187281.802    19880928.157      105133.830     1187281.662    27999635.605      148066.309
D4003    845813.478    14163071.918       87973.466      845813.396    19946790.900      123898.182
D4103    770562.421    12902993.314       29244.710      770562.243    18172147.767       41188.447
D5627    834658.630    13976290.773       69447.136      834658.513    19683736.843       97806.547
D5727    497941.739     8337992.310       15885.270      497941.605    11742947.108       22373.766
D5826   1191636.613    19953845.955      104773.365     1191636.435    28102328.862      147560.862
D5926   1058804.978    17729594.968       77092.386     1058804.805    24969769.257      108575.105
> 2019  1 10  9 52  0.4000000  0 8                     
D3704   1119094.078    18739129.798       45514.778     1119093.901    26391565.115       64101.525
D3903   1186026.146    19859901.391      105165.106     1186025.982    27970022.343      148112.693
D4003    844762.736    14145477.225       87919.963      844762.637    19922011.263      123823.186
D4103    770213.047    12897144.372       29086.573      770212.906    18163910.077       40962.684
D5627    833829.179    13962401.346       69199.910      833829.087    19664175.534       97459.195
D5727    497751.920     8334815.256       15688.457      497751.870    11738472.355       22094.869
D5826   1190385.052    19932891.282      104805.541     1190384.945    28072816.689      147604.257
D5926   1057884.155    17714176.490       77015.319     1057884.032    24948054.236      108466.630
> 2019  1 10  9 52  0.6000000  0 8                     
D3704   1118550.481    18730026.843       45337.796     1118550.321    26378744.810       63850.791
D3903   1184770.073    19838868.370      105035.009     1184769.837    27940399.804      147926.943
D4003    843712.636    14127893.232       87787.695      843712.593    19897246.626      123638.673
D4103    769865.667    12891327.057       28871.702      769865.574    18155717.540       40663.900
D5627    833002.662    13948561.364       69124.717      833002.592    19644683.694       97352.966
D5727    497564.541     8331677.564       15223.311      497564.503    11734053.381       21439.519
D5826   1189133.404    19911930.173      104748.521     1189133.220    28043295.838      147523.336
D5926   1056964.225    17698773.427       76902.183     1056964.064    24926360.910      108305.645
> 2019  1 10  9 52  0.8000000  0 8                     
D3704   1118009.059    18720959.284       45230.235     1118008.818    26365974.651       63701.024
D3903   1183515.475    19817861.368      105014.092     1183515.369    27910814.416      147898.491
D4003    842664.112    14110335.693       87844.903      842663.981    19872518.892      123715.917
D4103    769520.786    12885552.717       28736.965      769520.671    18147584.760       40471.120
D5627    832177.092    13934736.421       69009.363      832176.974    19625213.101       97191.778
D5727    497382.789     8328632.902       15017.094      497382.638    11729765.478       21149.156
D5826   1187882.354    19890980.469      104756.488     1187882.075    28013791.171      147536.756
D5926   1056045.760    17683392.990       76875.359     1056045.673    24904699.781      108269.373
> 2019  1 10  9 52  1.0000000  0 8                     
D3704   1117468.751    18711913.237       45131.524     1117468.602    26353234.447       63561.463
D3903   1182261.216    19796858.550      105089.475     1182261.095    27881234.717      148005.250
D4003    841614.896    14092766.712       87521.890      841614.856    19847775.708      123263.056
D4103    769177.605    12879805.324       28435.423      769177.455    18139490.536       40047.667
D5627    831352.770    13920934.548       68874.762      831352.673    19605774.746       97000.313
D5727    497203.426     8325629.483       14720.854      497203.354    11725535.646       20732.705
D5826   1186631.038    19870029.172      104718.897     1186630.873    27984283.819      147482.855
D5926   1055127.597    17668017.918       76710.161     1055127.487    24883045.906      108034.393
> 2019  1 10  9 52  1.2000000  0 8                     
D3704   1116929.734    18702886.932       44994.317     1116929.566    26340522.154       63368.565
D3903   1181006.005    19775840.655      104988.783     1181005.895    27851633.667      147862.082
D4003    840569.585    14075262.334       87623.124      840569.515    19823123.097      123407.472
D4103    768837.933    12874118.239       28336.329      768837.856    18131481.003       39908.651
D5627    830530.156    13907159.596       68714.388      830530.036    19586374.683       96774.235
D5727    497027.685     8322685.312       14282.286      497027.486    11721389.105       20114.520
D5826   1185380.254    19849085.392      104636.750     1185380.119    27954787.249      147368.085
D5926   1054211.396    17652675.886       76658.968     1054211.277    24861439.027      107963.537
> 2019  1 10  9 52  1.4000000  0 8                     
D3704   1116392.329    18693888.069       44917.044     1116392.145    26327848.441       63259.347
D3903   1179752.078    19754842.898      104979.064     1179751.891    27822061.251      147846.754
D4003    839522.945    14057737.709       87545.628      839522.830    19798441.603      123294.093
D4103    768499.520    12868450.973       28096.831      768499.384    18123499.273       39569.640
D5627    829709.450    13893416.718       68668.017      829709.342    19567019.836       96709.810
D5727    496857.014     8319828.855       14083.609      496856.885    11717366.201       19835.161
D5826   1184130.428    19828158.042      104627.076     1184130.292    27925313.632      147351.434
D5926   1053295.817    17637344.092       76543.785     1053295.671    24839846.320      107803.587
> 2019  1 10  9 52  1.6000000  0 8                     
D3704   1115855.834    18684904.660       44697.849     1115855.597    26315196.572       62951.765
D3903   1178498.282    19733847.085      104915.096     1178498.102    27792491.900      147760.664
D4003    838477.393    14040228.584       87336.572      838477.277    19773782.784      123002.122
D4103    768163.989    12862831.607       27939.840      768163.804    18115585.345       39350.373
D5627    828889.270    13879683.115       68436.932      828889.181    19547677.874       96383.885
D5727    496688.740     8317012.133       13752.342      496688.686    11713399.169       19368.102
D5826   1182880.867    19807232.627      104607.347     1182880.691    27895843.345      147326.974
D5926   1052381.528    17622035.335       76448.906     1052381.381    24818285.603      107668.065
> 2019  1 10  9 52  1.8000000  0 8                     
D3704   1115321.936    18675965.090       44560.581     1115321.817    26302606.219       62756.479
D3903   1177245.137    19712864.066      104951.088     1177244.949    27762939.767      147808.699
D4003    837434.241    14022761.269       87354.040      837434.190    19749182.360      123027.090
D4103    767830.167    12857243.639       27690.408      767830.055    18107715.270       38996.812
D5627    828071.926    13865995.728       68324.027      828071.784    19528401.097       96226.193
D5727    496524.470     8314261.665       13381.282      496524.409    11709525.549       18845.227
D5826   1181631.381    19786311.158      104531.676     1181631.240    27866377.950      147217.859
D5926   1051468.411    17606745.554       76360.871     1051468.248    24796751.989      107541.637
> 2019  1 10  9 52  2.0000000  0 8                     
D3704   1114789.747    18667052.974       44517.177     1114789.630    26290054.923       62697.918
D3903   1175991.610    19691873.849      104833.385     1175991.480    27733378.028      147645.335
D4003    836390.882    14005290.461       87254.384      836390.762    19724576.942      122886.530
D4103    767499.479    12851705.557       27520.191      767499.375    18099915.908       38758.475
D5627    827255.841    13852330.923       68257.541      827255.693    19509155.859       96131.383
D5727    496364.680     8311585.408       13020.443      496364.656    11705756.504       18338.266
D5826   1180382.932    19765404.822      104655.040     1180382.790    27836934.378      147390.399
D5926   1050556.426    17591473.380       76295.865     1050556.281    24775243.662      107453.872
> 2019  1 10  9 52  2.2000000  0 8                     
D3704   1114258.007    18658149.538       44387.958     1114257.850    26277515.339       62513.068
D3903   1174739.425    19670907.172      104923.361     1174739.269    27703848.961      147770.462
D4003    835348.705    13987839.585       87115.897      835348.591    19699999.636      122690.697
D4103    767170.823    12846201.519       27318.937      767170.734    18092164.213       38475.407
D5627    826440.529    13838679.415       68103.989      826440.413    19489929.582       95915.644
D5727    496209.182     8308981.320       12838.408      496209.036    11702088.850       18081.412
D5826   1179133.018    19744473.814      104459.888     1179132.853    27807456.298      147121.521
D5926   1049645.184    17576214.207       76150.632     1049644.961    24753752.888      107248.277
> 2019  1 10  9 52  2.4000000  0 8                     
D3704   1113727.890    18649271.947       44148.164     1113727.771    26265012.726       62178.208
D3903   1173486.286    19649922.499      104843.145     1173486.086    27674294.868      147656.523
D4003    834308.182    13970416.405       87077.158      834308.058    19675461.496      122635.905
D4103    766844.506    12840737.732       27128.187      766844.374    18084469.131       38206.939
D5627    825627.131    13825058.617       67973.148      825627.009    19470746.453       95730.206
D5727    496055.836     8306413.638       12473.478      496055.729    11698472.568       17567.346
D5826   1177885.217    19723581.837      104525.647     1177885.046    27778031.994      147210.233
D5926   1048735.577    17560984.080       76057.099     1048735.444    24732303.232      107116.209
> 2019  1 10  9 52  2.6000000  0 8                     
D3704   1113200.547    18640442.314       44106.298     1113200.342    26252577.084       62116.672
D3903   1172234.035    19628953.870      104774.595     1172233.911    27644763.564      147561.811
D4003    833268.165    13953000.974       86948.434      833268.025    19650934.315      122456.244
D4103    766520.468    12835312.094       26946.592      766520.368    18076827.743       37950.486
D5627    824815.280    13811463.987       67854.484      824815.191    19451600.412       95564.637
D5727    495906.854     8303918.943       12106.904      495906.803    11694959.099       17050.948
D5826   1176636.743    19702676.707      104470.474     1176636.585    27748589.947      147130.897
D5926   1047827.121    17545772.661       75996.660     1047827.070    24710879.990      107031.929
> 2019  1 10  9 52  2.8000000  0 8                     
D3704   1112673.782    18631621.054       43919.019     1112673.594    26240153.750       61855.622
D3903   1170982.620    19607998.952      104808.671     1170982.453    27615251.202      147609.451
D4003    832229.710    13935611.287       86944.936      832229.501    19626443.066      122449.479
D4103    766198.607    12829922.776       26731.865      766198.492    18069237.646       37649.020
D5627    824004.849    13797893.090       67633.157      824004.696    19432487.485       95251.531
D5727    495762.237     8301497.562       11797.645      495762.172    11691548.909       16615.040
D5826   1175389.035    19681782.612      104427.536     1175388.818    27719163.768      147072.135
D5926   1046919.519    17530573.329       75905.721     1046919.274    24689473.604      106902.192
> 2019  1 10  9 52  3.0000000  0 8                     
D3704   1112149.164    18622837.251       43856.722     1112149.028    26227782.625       61765.504
D3903   1169730.742    19587037.217      104786.302     1169730.673    27585729.311      147576.180
D4003    831191.205    13918222.300       86754.018      831191.119    19601953.170      122183.468
D4103    765879.309    12824576.403       26504.813      765879.222    18061707.842       37328.527
D5627    823197.050    13784366.459       67601.090      823196.874    19413437.178       95207.517
D5727    495621.335     8299138.033       11516.961      495621.218    11688225.901       16219.519
D5826   1174141.781    19660897.105      104423.512     1174141.624    27689749.341      147067.595
D5926   1046012.796    17515392.184       75805.253     1046012.694    24668093.166      106761.819
> 2019  1 10  9 52  3.2000000  0 8                     
D3704   1111625.375    18614065.906       43725.538     1111625.194    26215429.525       61581.542
D3903   1168479.290    19566079.957      104678.132     1168479.090    27556214.075      147426.288
D4003    830154.974    13900871.496       86731.673      830154.839    19577516.477      122149.922
D4103    765562.733    12819275.440       26436.473      765562.607    18054242.137       37231.753
D5627    822389.573    13770846.241       67412.580      822389.506    19394395.675       94941.814
D5727    495483.778     8296834.641       11185.925      495483.676    11684981.997       15754.799
D5826   1172894.467    19640012.403      104346.157     1172894.340    27660335.822      146957.520
D5926   1045107.456    17500231.134       75621.725     1045107.290    24646740.802      106503.432
> 2019  1 10  9 52  3.4000000  0 8                     
D3704   1111103.080    18605320.799       43472.312     1111102.969    26203113.216       61223.885
D3903   1167228.977    19545144.331      104699.949     1167228.791    27526728.818      147455.839
D4003    829119.036    13883525.161       86613.413      829118.947    19553086.492      121981.434
D4103    765247.026    12813988.146       26110.362      765246.870    18046795.786       36772.166
D5627    821584.443    13757363.725       67349.603      821584.271    19375407.312       94852.995
D5727    495350.218     8294597.456       10910.094      495350.075    11681831.038       15365.727
D5826   1171648.236    19619143.172      104359.713     1171648.043    27630944.318      146976.698
D5926   1044204.254    17485106.789       75642.737     1044204.061    24625440.116      106533.005
> 2019  1 10  9 52  3.6000000  0 8                     
D3704   1110583.953    18596626.336       43440.403     1110583.789    26190868.439       61181.525
D3903   1165978.434    19524204.341      104636.697     1165978.232    27497237.650      147365.539
D4003    828084.584    13866202.479       86507.242      828084.482    19528690.206      121834.660
D4103    764935.163    12808766.073       25920.713      764935.059    18039441.353       36506.117
D5627    820780.006    13743893.804       67169.569      820779.894    19356436.713       94598.484
D5727    495219.810     8292415.437       10532.890      495219.740    11678757.892       14833.861
D5826   1170401.759    19598271.229      104336.969     1170401.631    27601548.979      146944.435
D5926   1043300.744    17469978.241       75458.098     1043300.572    24604133.515      106273.441
> 2019  1 10  9 52  3.8000000  0 8                     
D3704   1110064.997    18587938.256       43312.117     1110064.897    26178632.134       60998.361
D3903   1164728.712    19503277.002      104669.360     1164728.538    27467764.542      147414.182
D4003    827051.356    13848901.030       86437.880      827051.233    19504323.274      121736.458
D4103    764625.517    12803581.931       25777.810      764625.471    18032140.129       36304.916
D5627    819977.751    13730459.891       67004.286      819977.710    19337517.017       94367.036
D5727    495094.071     8290308.859       10217.904      495093.968    11675791.120       14390.070
D5826   1169155.642    19577403.835      104188.177     1169155.403    27572160.092      146734.540
D5926   1042399.421    17454886.622       75412.746     1042399.344    24582878.827      106208.363
> 2019  1 10  9 52  4.0000000  0 8                     
D3704   1109547.712    18579275.832       43163.828     1109547.629    26166432.462       60791.297
D3903   1163478.512    19482343.129      104595.908     1163478.318    27438281.706      147308.852
D4003    826018.908    13831613.454       86347.482      826018.830    19479975.982      121609.617
D4103    764317.647    12798426.369       25578.901      764317.577    18024879.146       36024.857
D5627    819177.410    13717059.034       66897.910      819177.392    19318643.609       94216.892
D5727    494971.995     8288265.278        9932.530      494971.985    11672913.106       13988.242
D5826   1167911.105    19556566.200      104271.085     1167911.008    27542813.184      146851.355
D5926   1041498.704    17439804.073       75317.854     1041498.600    24561637.154      106074.853
> 2019  1 10  9 52  4.2000000  0 8                     
D3704   1109032.154    18570643.067       42994.097     1109031.964    26154274.203       60550.709
D3903   1162229.164    19461423.948      104561.974     1162229.089    27408819.935      147260.714
D4003    824987.564    13814343.958       86233.292      824987.472    19455654.059      121449.377
D4103    764012.103    12793310.588       25342.095      764012.009    18017674.175       35691.853
D5627    818378.467    13703679.452       66770.488      818378.335    19299800.231       94037.599
D5727    494853.404     8286278.772        9626.709      494853.303    11670115.458       13558.364
D5826   1166665.778    19535711.983      104270.638     1166665.609    27513442.913      146853.719
D5926   1040599.149    17424740.502       75226.568     1040599.047    24540422.183      105946.739
> 2019  1 10  9 52  4.4000000  0 8                     
D3704   1108518.667    18562044.247       42966.066     1108518.541    26142164.061       60513.503
D3903   1160980.386    19440511.553      104535.364     1160980.176    27379367.793      147226.068
D4003    823957.559    13797097.299       86213.335      823957.435    19431364.183      121418.851
D4103    763709.457    12788242.169       25160.764      763709.289    18010535.804       35433.940
D5627    817580.906    13690325.354       66662.482      817580.769    19280992.711       93887.353
D5727    494738.414     8284353.430        9264.940      494738.268    11667403.785       13048.942
D5826   1165420.219    19514857.855      104169.674     1165420.120    27484072.169      146709.348
D5926   1039700.614    17409695.188       75070.574     1039700.534    24519232.836      105726.952
> 2019  1 10  9 52  4.6000000  0 8                     
D3704   1108005.432    18553451.034       42709.726     1108005.266    26130061.360       60151.145
D3903   1159731.729    19419604.480      104596.298     1159731.579    27349922.579      147309.281
D4003    822927.921    13779854.632       86074.103      822927.779    19407080.413      121223.783
D4103    763408.938    12783210.016       24970.693      763408.804    18003449.016       35168.156
D5627    816784.567    13676992.857       66508.277      816784.519    19262215.241       93666.200
D5727    494627.755     8282500.442        8924.887      494627.666    11664793.996       12568.933
D5826   1164176.113    19494023.921      104203.570     1164175.891    27454730.299      146754.215
D5926   1038804.004    17394681.074       75008.896     1038803.810    24498087.445      105639.402
> 2019  1 10  9 52  4.8000000  0 8                     
D3704   1107495.295    18544909.089       42678.533     1107495.168    26118031.131       60106.127
D3903   1158482.489    19398685.221      104509.858     1158482.367    27320460.723      147187.897
D4003    821899.736    13762639.812       85990.146      821899.757    19382835.657      121104.035
D4103    763110.717    12778215.878       24789.791      763110.624    17996415.385       34913.608
D5627    815990.294    13663691.202       66361.924      815990.198    19243482.001       93461.381
D5727    494521.179     8280715.465        8663.853      494521.060    11662280.210       12201.743
D5826   1162931.572    19473183.207      104143.718     1162931.403    27425379.456      146674.591
D5926   1037908.103    17379679.294       74968.557     1037907.975    24476959.565      105584.038
> 2019  1 10  9 52  5.0000000  0 8                     
D3704   1106985.614    18536373.382       42462.354     1106985.457    26106009.906       59802.360
D3903   1157234.214    19377783.249      104409.262     1157234.058    27291023.143      147048.579
D4003    820872.823    13745441.782       85906.093      820872.735    19358614.849      120989.658
D4103    762814.620    12773257.920       24606.258      762814.450    17989432.663       34654.814
D5627    815197.702    13650418.817       66234.472      815197.604    19224789.724       93282.685
D5727    494417.679     8278982.694        8295.185      494417.622    11659839.861       11683.132
D5826   1161687.614    19452354.463      104062.980     1161687.427    27396044.538      146557.738
D5926   1037012.658    17364685.583       74790.532     1037012.553    24455842.757      105330.713
> 2019  1 10  9 52  5.2000000  0 8                     
D3704   1106478.471    18527880.912       42381.862     1106478.282    26094049.434       59689.156
D3903   1155987.046    19356901.397      104418.542     1155986.941    27261613.428      147058.347
D4003    819846.690    13728260.564       85789.293      819846.581    19334416.918      120820.977
D4103    762520.723    12768336.668       24288.325      762520.597    17982501.701       34205.763
D5627    814406.619    13637171.923       66070.066      814406.542    19206133.188       93052.075
D5727    494318.598     8277323.657        7988.279      494318.482    11657503.235       11250.268
D5826   1160444.722    19431541.867      104045.359     1160444.599    27366732.990      146534.640
D5926   1036119.449    17349727.476       74730.800     1036119.285    24434776.615      105249.367
> 2019  1 10  9 52  5.4000000  0 8                     
D3704   1105972.225    18519404.539       42231.552     1105972.067    26082111.603       59477.566
D3903   1154739.912    19336017.688      104422.066     1154739.787    27232201.758      147065.104
D4003    818822.098    13711102.705       85692.134      818821.922    19310252.723      120686.318
D4103    762230.704    12763479.003       24164.621      762230.515    17975660.548       34032.417
D5627    813617.454    13623957.910       65895.722      813617.287    19187522.772       92803.810
D5727    494223.151     8275726.002        7749.514      494223.099    11655253.181       10914.039
D5826   1159202.096    19410732.795      104051.578     1159201.864    27337426.063      146543.395
D5926   1035226.827    17334781.317       74620.019     1035226.730    24413726.741      105092.456
> 2019  1 10  9 52  5.6000000  0 8                     
D3704   1105467.788    18510958.229       42108.889     1105467.689    26070216.089       59303.624
D3903   1153492.759    19315133.275      104327.567     1153492.602    27202788.737      146930.577
D4003    817798.616    13693964.279       85620.746      817798.465    19286115.459      120585.626
D4103    761942.008    12758646.079       24038.109      761941.904    17968854.065       33855.132
D5627    812830.436    13610778.765       65890.294      812830.283    19168962.010       92797.815
D5727    494130.629     8274176.099        7319.506      494130.510    11653070.373       10309.069
D5826   1157959.144    19389922.479      103968.463     1157958.962    27308117.384      146424.201
D5926   1034335.539    17319857.313       74541.267     1034335.498    24392708.250      104980.231
> 2019  1 10  9 52  5.8000000  0 8                     
D3704   1104964.893    18502536.451       41963.457     1104964.797    26058355.365       59101.923
D3903   1152246.678    19294267.761      104450.009     1152246.552    27173402.622      147104.151
D4003    816775.928    13676840.129       85505.880      816775.795    19261998.334      120423.904
D4103    761654.905    12753838.457       23717.544      761654.762    17962083.038       33404.209
D5627    812043.529    13597600.706       65722.977      812043.265    19150402.447       92563.788
D5727    494043.229     8272712.198        7021.996      494043.093    11651008.559        9889.403
D5826   1156717.485    19369128.787      103970.331     1156717.252    27278832.544      146429.425
D5926   1033445.310    17304949.059       74386.673     1033445.154    24371712.204      104763.921
> 2019  1 10  9 52  6.0000000  0 8                     
D3704   1104463.597    18494143.760       41829.730     1104463.492    26046534.980       58909.673
D3903   1150999.177    19273377.760      104254.248     1150998.986    27143981.792      146828.505
D4003    815754.650    13659738.953       85509.675      815754.542    19237913.553      120427.824
D4103    761371.572    12749094.948       23601.254      761371.488    17955402.196       33239.198
D5627    811258.383    13584456.111       65538.865      811258.268    19131889.690       92301.295
D5727    493959.343     8271307.798        6786.739      493959.223    11649030.679        9557.482
D5826   1155475.639    19348334.721      103999.955     1155475.485    27249546.658      146469.159
D5926   1032556.842    17290071.725       74324.470     1032556.688    24350759.420      104676.446
> 2019  1 10  9 52  6.2000000  0 8                     
D3704   1103964.058    18485777.814       41687.612     1103963.914    26034753.045       58713.185
D3903   1149753.925    19252526.910      104322.957     1149753.745    27114616.091      146923.214
D4003    814733.300    13642637.018       85277.758      814733.208    19213827.988      120103.728
D4103    761089.680    12744374.698       23350.071      761089.607    17948754.357       32884.240
D5627    810475.683    13571348.338       65400.356      810475.505    19113429.431       92107.552
D5727    493878.262     8269950.451        6313.169      493878.148    11647119.183        8891.603
D5826   1154233.458    19327534.730      103888.777     1154233.319    27220252.827      146315.009
D5926   1031669.072    17275206.831       74206.973     1031668.857    24329824.131      104511.193
> 2019  1 10  9 52  6.4000000  0 8                     
D3704   1103466.073    18477440.291       41558.018     1103465.968    26023010.408       58528.130
D3903   1148507.960    19231662.319      104252.705     1148507.763    27085231.448      146826.924
D4003    813714.778    13625581.467       85240.619      813714.655    19189807.242      120048.836
D4103    760810.791    12739704.683       23189.214      760810.697    17942177.509       32659.096
D5627    809694.452    13558268.267       65225.620      809694.386    19095007.921       91861.312
D5727    493802.884     8268687.817        6104.447      493802.725    11645340.862        8597.197
D5826   1152992.603    19306756.974      103855.236     1152992.443    27190989.825      146266.026
D5926   1030782.759    17260365.436       74139.049     1030782.599    24308921.892      104413.733
> 2019  1 10  9 52  6.6000000  0 8                     
D3704   1102969.760    18469128.688       41441.735     1102969.611    26011304.782       58365.937
D3903   1147262.796    19210811.778      104233.753     1147262.566    27055866.063      146800.321
D4003    812696.696    13608533.343       85186.508      812696.583    19165797.475      119974.707
D4103    760533.893    12735066.841       22920.436      760533.745    17935645.690       32280.426
D5627    808915.500    13545223.143       65164.316      808915.372    19076635.658       91775.975
D5727    493729.930     8267466.927        5793.119      493729.879    11643621.423        8159.283
D5826   1151752.157    19285985.927      103879.496     1151752.017    27161736.620      146301.172
D5926   1029897.243    17245537.627       74040.749     1029897.129    24288039.146      104278.744
> 2019  1 10  9 52  6.8000000  0 8                     
D3704   1102474.778    18460840.341       41279.356     1102474.585    25999631.595       58135.008
D3903   1146017.761    19189965.027      104204.541     1146017.616    27026505.999      146758.048
D4003    811679.197    13591496.041       85014.659      811679.029    19141802.534      119732.790
D4103    760260.126    12730482.753       22850.315      760260.016    17929189.604       32180.160
D5627    808137.099    13532190.280       64979.798      808137.021    19058280.463       91514.007
D5727    493660.776     8266308.304        5481.760      493660.631    11641989.566        7720.857
D5826   1150511.432    19265210.028      103765.247     1150511.263    27132476.385      146136.631
D5926   1029012.846    17230729.477       73919.938     1029012.681    24267183.397      104104.151
> 2019  1 10  9 52  7.0000000  0 8                     
D3704   1101981.818    18452584.470       41183.951     1101981.646    25988004.593       58002.925
D3903   1144773.105    19169124.119      104144.681     1144772.996    26997154.389      146673.112
D4003    810663.765    13574493.110       84975.202      810663.642    19117855.976      119674.610
D4103    759987.223    12725912.690       22581.730      759987.028    17922753.572       31804.941
D5627    807361.044    13519194.320       64864.204      807360.937    19039977.662       91354.779
D5727    493595.287     8265211.952        5118.587      493595.178    11640445.395        7208.126
D5826   1149272.124    19244456.979      103811.458     1149271.968    27103249.059      146205.529
D5926   1028130.076    17215945.489       73786.190     1028129.884    24246362.567      103918.480
> 2019  1 10  9 52  7.2000000  0 8                     
D3704   1101489.844    18444347.679       41027.526     1101489.716    25976404.008       57782.107
D3903   1143529.226    19148295.183      104140.917     1143529.153    26967819.767      146667.666
D4003    809648.906    13557498.069       84878.299      809648.681    19093921.054      119540.608
D4103    759717.415    12721396.344       22348.968      759717.348    17916392.584       31475.529
D5627    806586.293    13506221.479       64710.936      806586.135    19021706.706       91135.945
D5727    493534.137     8264188.234        4732.651      493534.050    11639003.769        6665.064
D5826   1148032.175    19223694.687      103676.665     1148032.079    27074007.953      146014.183
D5926   1027248.699    17201188.251       73735.147     1027248.528    24225578.871      103845.864
> 2019  1 10  9 52  7.4000000  0 8                     
D3704   1100999.833    18436142.174       40878.107     1100999.700    25964847.587       57571.701
D3903   1142285.465    19127466.999      104162.296     1142285.255    26938486.234      146699.253
D4003    808635.040    13540522.409       84770.697      808634.943    19070012.932      119387.665
D4103    759450.551    12716926.551       22182.333      759450.431    17910097.478       31240.659
D5627    805813.359    13493279.292       64547.082      805813.241    19003479.517       90905.405
D5727    493477.676     8263241.704        4514.099      493477.514    11637670.757        6358.511
D5826   1146793.884    19202959.354      103816.145     1146793.754    27044805.117      146214.011
D5926   1026368.033    17186441.222       73602.949     1026367.926    24204809.698      103661.246
> 2019  1 10  9 52  7.6000000  0 8                     
D3704   1100511.574    18427966.553       40752.565     1100511.359    25953333.247       57395.347
D3903   1141041.289    19106634.540      103994.591     1141041.132    26909146.383      146463.478
D4003    807622.568    13523568.270       84687.038      807622.516    19046135.399      119271.480
D4103    759185.576    12712490.084       21940.397      759185.445    17903849.347       30900.853
D5627    805042.432    13480369.876       64400.752      805042.324    18985298.436       90700.232
