     3.02           OBSERVATION DATA    M: Mixed            RINEX VERSION / TYPE
BUPT PLAN 6.0                           20210329 120000 UTC PGM / RUN BY / DATE 
                                                            MARKER NAME         
                                                            MARKER NUMBER       
                                                            MARKER TYPE         
                                                            OBSERVER / AGENCY   
                                                            REC # / TYPE / VERS 
                                                            ANT # / TYPE        
  4076128.1056   519876.3642  4878092.5196                  APPROX POSITION XYZ 
        0.0000        0.0000        0.0000                  ANTENNA: DELTA H/E/N 
D    6 C5D L5D D5D C7D L7D D7D                              SYS / # / OBS TYPES  
    30.000                                                  INTERVAL            
  2019     1    10     9    51   54.0000000     GPS         TIME OF FIRST OBS   
  2019     1    10     9    54   44.0000000     GPS         TIME OF LAST OBS   
                                                            END OF HEADER       
> 2019  1 10  9 51 54.0000000  0 8                     
D3704   1133898.587    18987027.773       51708.726     1133898.438    26740700.403       72827.556
D3903   1238356.379    20736163.711      106618.547     1238356.247    29204127.666      150158.283
D4003    893827.658    14967057.420       91007.028      893827.499    21079108.628      128170.374
D4103    798381.811    13368829.368       36417.811      798381.694    18828211.049       51288.508
D5627    861317.574    14422682.177       71440.004      861317.443    20312431.557      100614.823
D5727    505354.626     8462120.458       22320.759      505354.500    11917764.815       31436.410
D5826   1213699.900    20323291.427      105768.222     1213699.736    28622654.572      148961.657
D5926   1068266.453    17888028.185       79509.206     1068266.426    25192903.581      111974.828
> 2019  1 10  9 51 54.2000000  0 8                     
D3704   1133280.914    18976686.027       51447.180     1133280.691    26726134.892       72455.467
D3903   1237082.980    20714840.002      106475.459     1237082.810    29174096.010      149956.931
D4003    892740.666    14948856.014       90794.403      892740.562    21053474.554      127871.849
D4103    797946.875    13361545.806       36086.550      797946.639    18817953.348       50822.846
D5627    860464.241    14408394.177       71229.389      860464.245    20292308.592      100315.929
D5727    505087.981     8457656.306       21758.230      505087.923    11911477.533       30643.369
D5826   1212436.619    20302137.783      105542.918     1212436.391    28592862.241      148643.539
D5926   1067316.959    17872126.344       79304.947     1067316.820    25170508.615      111691.678
> 2019  1 10  9 51 54.4000000  0 8                     
D3704   1132666.398    18966396.591       51300.106     1132666.322    26711643.798       72247.229
D3903   1235811.260    20693544.910      106355.577     1235811.055    29144104.623      149786.148
D4003    891656.228    14930697.134       90784.901      891656.154    21027900.184      127858.363
D4103    797515.890    13354328.496       36009.975      797515.736    18807788.779       50717.027
D5627    859613.545    14394148.299       71120.134      859613.349    20272245.406      100164.281
D5727    504828.154     8453304.660       21593.820      504828.054    11905348.859       30412.219
D5826   1211175.976    20281029.199      105564.358     1211175.810    28563133.533      148672.050
D5926   1066369.730    17856265.355       79199.146     1066369.560    25148170.280      111541.990
> 2019  1 10  9 51 54.6000000  0 8                     
D3704   1132053.811    18956136.570       51224.604     1132053.639    26697194.353       72144.304
D3903   1234540.937    20672273.794      106437.075     1234540.789    29114147.394      149901.516
D4003    890571.904    14912540.154       90642.747      890571.818    21002328.511      127657.768
D4103    797085.676    13347126.501       35747.365      797085.626    18797645.373       50345.532
D5627    858764.033    14379924.272       71011.594      858763.945    20252212.550      100009.993
D5727    504570.299     8448985.896       21283.415      504570.101    11899266.415       29975.394
D5826   1209915.191    20259916.328      105505.446     1209914.935    28533399.123      148591.914
D5926   1065423.744    17840425.525       79131.494     1065423.591    25125861.882      111445.621
> 2019  1 10  9 51 54.8000000  0 8                     
D3704   1131441.940    18945891.649       51170.878     1131441.779    26682765.492       72066.830
D3903   1233269.720    20650986.379      106393.653     1233269.502    29084167.091      149842.692
D4003    889489.289    14894411.604       90644.181      889489.153    20976796.958      127662.222
D4103    796658.720    13339977.028       35639.023      796658.581    18787576.267       50193.149
D5627    857915.919    14365721.953       70879.583      857915.782    20232210.551       99824.563
D5727    504316.037     8444729.213       20875.045      504315.937    11893271.336       29399.170
D5826   1208654.952    20238815.239      105430.756     1208654.783    28503680.740      148484.302
D5926   1064478.645    17824599.227       79017.590     1064478.468    25103572.758      111285.828
> 2019  1 10  9 51 55.0000000  0 8                     
D3704   1130830.816    18935657.474       50906.016     1130830.654    26668352.126       71694.862
D3903   1231998.892    20629707.649      106359.801     1231998.720    29054198.552      149791.911
D4003    888406.623    14876282.768       90452.371      888406.407    20951264.513      127389.267
D4103    796233.022    13332849.224       35371.433      796232.877    18777537.637       49814.762
D5627    857069.362    14351546.037       70779.068      857069.253    20212245.639       99681.618
D5727    504066.656     8440554.204       20666.899      504066.563    11887391.502       29107.417
D5826   1207395.693    20217729.087      105440.537     1207395.574    28473983.879      148498.806
D5926   1063534.832    17808795.709       78919.936     1063534.731    25081315.592      111148.245
> 2019  1 10  9 51 55.2000000  0 8                     
D3704   1130222.795    18925476.270       50901.580     1130222.620    26654013.153       71688.967
D3903   1230728.639    20608435.689      106334.131     1230728.417    29024240.170      149762.166
D4003    887326.233    14858192.294       90457.655      887326.143    20925786.660      127396.703
D4103    795810.625    13325774.937       35250.317      795810.506    18767574.685       49644.865
D5627    856223.960    14337390.223       70579.501      856223.826    20192309.315       99404.626
D5727    503819.809     8436420.824       20340.349      503819.724    11881570.019       28646.427
D5826   1206136.286    20196640.980      105468.135     1206136.181    28444284.118      148537.571
D5926   1062592.221    17793011.721       78837.260     1062592.135    25059085.943      111032.135
> 2019  1 10  9 51 55.4000000  0 8                     
D3704   1129614.743    18915295.955       50707.786     1129614.610    26639675.360       71413.561
D3903   1229458.333    20587168.863      106304.152     1229458.280    28994287.737      149713.222
D4003    886245.848    14840100.763       90399.043      886245.752    20900307.319      127315.710
D4103    795389.609    13318724.874       35070.856      795389.501    18757645.712       49391.868
D5627    855380.850    14323274.323       70511.667      855380.808    20172428.390       99304.867
D5727    503576.894     8432352.754       20041.994      503576.798    11875840.734       28226.768
D5826   1204876.729    20175547.353      105403.461     1204876.409    28414576.604      148447.909
D5926   1061650.609    17777244.270       78861.380     1061650.450    25036879.516      111064.413
> 2019  1 10  9 51 55.6000000  0 8                     
D3704   1129009.132    18905154.397       50636.561     1129008.970    26625392.648       71313.541
D3903   1228188.687    20565908.032      106290.615     1228188.613    28964345.092      149695.664
D4003    885166.152    14822020.954       90304.041      885165.940    20874844.177      127179.936
D4103    794970.743    13311710.703       34838.445      794970.606    18747767.338       49065.992
D5627    854538.718    14309171.989       70421.991      854538.672    20152567.417       99181.588
D5727    503337.461     8428344.356       19685.618      503337.422    11870195.380       27724.628
D5826   1203617.691    20154466.661      105396.336     1203617.563    28384887.022      148434.628
D5926   1060708.721    17761471.994       78629.014     1060708.571    25014666.633      110738.140
> 2019  1 10  9 51 55.8000000  0 8                     
D3704   1128404.350    18895027.085       50506.454     1128404.141    26611129.940       71132.092
D3903   1226919.271    20544649.909      106245.862     1226919.080    28934405.960      149631.727
D4003    884087.544    14803960.146       90240.208      884087.475    20849408.190      127092.092
D4103    794554.645    13304743.014       34740.172      794554.545    18737954.140       48926.978
D5627    853697.595    14295087.591       70265.002      853697.516    20132731.099       98958.210
D5727    503102.361     8424407.232       19415.563      503102.330    11864650.454       27343.800
D5826   1202358.908    20133387.394      105375.526     1202358.769    28355200.097      148408.684
D5926   1059769.555    17745746.191       78604.497     1059769.491    24992519.005      110706.445
> 2019  1 10  9 51 56.0000000  0 8                     
D3704   1127801.068    18884925.794       50326.709     1127800.981    26596903.521       70879.828
D3903   1225650.320    20523400.737      106221.777     1225650.144    28904479.614      149599.240
D4003    883009.737    14785912.104       90081.539      883009.696    20823989.772      126868.258
D4103    794139.687    13297794.979       34447.509      794139.623    18728168.744       48515.545
D5627    852858.419    14281034.591       70099.420      852858.296    20112939.457       98724.219
D5727    502870.458     8420524.119       19149.747      502870.425    11859181.694       26969.897
D5826   1201100.238    20112312.289      105305.815     1201100.113    28325518.360      148310.395
D5926   1058830.661    17730025.291       78479.232     1058830.435    24970377.716      110526.533
> 2019  1 10  9 51 56.2000000  0 8                     
D3704   1127200.015    18874860.452       50223.605     1127199.806    26582727.555       70731.708
D3903   1224381.583    20502156.381      106285.993     1224381.423    28874559.766      149691.359
D4003    881933.765    14767895.797       90167.900      881933.690    20798616.120      126990.005
D4103    793728.215    13290905.477       34372.728      793728.066    18718465.635       48410.324
D5627    852021.177    14267014.707       70057.580      852021.014    20093194.613       98669.409
D5727    502641.768     8416694.170       18796.510      502641.677    11853787.715       26472.855
D5826   1199842.453    20091251.126      105241.963     1199842.262    28295856.281      148218.338
D5926   1057893.387    17714329.445       78404.412     1057893.217    24948272.410      110421.560
> 2019  1 10  9 51 56.4000000  0 8                     
D3704   1126600.184    18864815.732       50142.787     1126599.963    26568581.214       70621.313
D3903   1223112.098    20480899.183      106180.489     1223111.939    28844621.494      149539.317
D4003    880856.775    14749862.217       89952.231      880856.681    20773218.119      126684.316
D4103    793317.652    13284030.932       34140.553      793317.479    18708783.570       48080.033
D5627    851184.268    14253003.191       69906.778      851184.176    20073460.731       98451.065
D5727    502417.220     8412934.868       18516.544      502417.123    11848493.144       26077.577
D5826   1198585.454    20070202.733      105244.013     1198585.348    28266212.613      148220.976
D5926   1056956.892    17698648.562       78279.168     1056956.743    24926188.098      110248.289
> 2019  1 10  9 51 56.6000000  0 8                     
D3704   1126001.147    18854787.174       49938.403     1126001.034    26554456.951       70330.804
D3903   1221843.906    20459663.085      106168.075     1221843.733    28814713.631      149525.721
D4003    879782.456    14731871.770       89932.888      879782.437    20747881.256      126658.931
D4103    792909.946    13277202.821       33942.191      792909.816    18699167.564       47804.229
D5627    850349.453    14239021.835       69752.647      850349.302    20053770.518       98238.438
D5727    502196.122     8409231.559       18089.600      502196.014    11843277.629       25478.112
D5826   1197328.528    20049153.930      105286.930     1197328.354    28236568.418      148282.973
D5926   1056021.841    17682992.729       78269.114     1056021.689    24904138.440      110231.233
> 2019  1 10  9 51 56.8000000  0 8                     
D3704   1125404.723    18844799.493       49890.626     1125404.616    26540390.790       70264.113
D3903   1220575.809    20438429.470      106118.184     1220575.590    28784808.487      149451.686
D4003    878708.334    14713885.193       89826.200      878708.240    20722549.470      126508.811
D4103    792504.452    13270414.383       33737.043      792504.297    18689606.718       47514.652
D5627    849516.280    14225071.306       69645.932      849516.200    20034122.831       98087.456
D5727    501979.993     8405613.639       17901.740      501979.947    11838182.006       25211.299
D5826   1196070.926    20028096.544      105223.792     1196070.766    28206911.824      148193.976
D5926   1055087.010    17667338.906       78116.298     1055086.940    24882092.193      110016.423
> 2019  1 10  9 51 57.0000000  0 8                     
D3704   1124808.907    18834821.368       49691.944     1124808.731    26526337.968       69985.941
D3903   1219308.371    20417205.833      106106.914     1219308.228    28754918.150      149438.670
D4003    877635.435    14695919.953       89749.109      877635.353    20697247.708      126400.023
D4103    792101.514    13263666.974       33664.637      792101.396    18680103.788       47411.099
D5627    848684.463    14211142.119       69495.979      848684.317    20014505.340       97874.538
D5727    501766.248     8402033.291       17578.248      501766.086    11833139.746       24756.967
D5826   1194814.157    20007051.786      105148.303     1194813.981    28177273.028      148087.325
D5926   1054153.950    17651715.646       78017.026     1054153.898    24860088.909      109875.252
> 2019  1 10  9 51 57.2000000  0 8                     
D3704   1124215.310    18824882.979       49706.807     1124215.176    26512340.780       70003.003
D3903   1218040.986    20395984.450      106100.121     1218040.878    28725030.416      149427.476
D4003    876563.450    14677970.131       89736.996      876563.324    20671967.703      126381.647
D4103    791699.492    13256934.047       33319.145      791699.328    18670621.568       46927.219
D5627    847854.443    14197242.923       69454.174      847854.295    19994930.432       97817.493
D5727    501556.223     8398517.642       17238.599      501556.145    11828188.353       24277.537
D5826   1193558.245    19986022.125      105132.940     1193558.116    28147655.563      148065.606
D5926   1053222.215    17636112.241       78011.569     1053222.009    24838113.858      109869.453
> 2019  1 10  9 51 57.4000000  0 8                     
D3704   1123621.692    18814941.618       49458.655     1123621.565    26498340.179       69654.872
D3903   1216773.741    20374764.426      106079.977     1216773.585    28695144.920      149400.014
D4003    875491.663    14660022.732       89584.187      875491.504    20646691.374      126168.069
D4103    791301.449    13250270.218       33242.369      791301.394    18661236.124       46817.021
D5627    847024.855    14183352.089       69249.992      847024.768    19975366.933       97528.894
D5727    501350.361     8395069.922       16943.993      501350.282    11823332.845       23864.704
D5826   1192302.544    19964995.537      105173.130     1192302.399    28118042.442      148122.242
D5926   1052290.441    17620509.927       77834.388     1052290.321    24816139.968      109617.775
> 2019  1 10  9 51 57.6000000  0 8                     
D3704   1123030.984    18805049.887       49315.992     1123030.824    26484409.204       69457.510
D3903   1215506.723    20353548.430      105998.198     1215506.600    28665264.918      149284.729
D4003    874421.712    14642105.895       89517.943      874421.543    20621457.760      126073.807
D4103    790904.383    13243621.744       33049.948      790904.333    18651872.720       46545.994
D5627    846197.731    14169502.090       69132.093      846197.668    19955861.154       97363.847
D5727    501147.939     8391681.123       16625.247      501147.865    11818559.905       23412.844
D5826   1191046.397    19943960.911      105091.915     1191046.245    28088417.994      148008.031
D5926   1051360.885    17604943.050       77743.812     1051360.685    24794216.413      109494.333
> 2019  1 10  9 51 57.8000000  0 8                     
D3704   1122441.861    18795186.689       49329.572     1122441.734    26470517.702       69475.576
D3903   1214240.685    20332348.791      105980.296     1214240.585    28635407.972      149258.354
D4003    873352.496    14624202.306       89455.823      873352.319    20596242.999      125985.648
D4103    790509.664    13237011.754       32856.557      790509.516    18642563.521       46274.789
D5627    845372.017    14155675.672       69052.566      845371.927    19936388.385       97251.844
D5727    500949.432     8388356.074       16331.904      500949.267    11813877.336       23001.910
D5826   1189791.226    19922942.528      105039.439     1189791.016    28058816.388      147934.462
D5926   1050432.170    17589394.287       77692.793     1050432.111    24772317.546      109419.817
> 2019  1 10  9 51 58.0000000  0 8                     
D3704   1121852.671    18785320.774       49064.661     1121852.544    26456622.587       69099.500
D3903   1212974.896    20311152.731      106112.146     1212974.719    28605556.301      149445.501
D4003    872284.086    14606311.141       89373.250      872283.909    20571045.869      125870.935
D4103    790117.229    13230440.443       32674.715      790117.128    18633308.563       46017.493
D5627    844547.240    14141865.158       68874.550      844547.135    19916938.016       97000.106
D5727    500754.333     8385089.693       16016.152      500754.256    11809276.954       22556.649
D5826   1188536.582    19901934.640      105066.040     1188536.468    28029229.495      147971.730
D5926   1049504.303    17573855.729       77581.804     1049504.127    24750433.583      109262.766
> 2019  1 10  9 51 58.2000000  0 8                     
D3704   1121266.707    18775507.842       49054.122     1121266.538    26442802.687       69086.277
D3903   1211707.491    20289930.302      105921.519     1211707.287    28575667.201      149174.956
D4003    871216.610    14588436.491       89298.311      871216.493    20545871.682      125765.999
D4103    789726.998    13223905.500       32488.779      789726.826    18624105.065       45755.733
D5627    843724.626    14128090.248       68769.435      843724.514    19897537.995       96853.026
D5727    500563.012     8381886.463       15675.545      500562.998    11804765.624       22076.192
D5826   1187281.707    19880921.432      105001.431     1187281.507    27999635.149      147880.164
D5926   1048577.670    17558339.368       77488.584     1048577.512    24728581.030      109130.990
> 2019  1 10  9 51 58.4000000  0 8                     
D3704   1120680.798    18765697.018       48778.821     1120680.641    26428985.432       68699.726
D3903   1210442.355    20268745.999      105965.342     1210442.305    28545832.209      149237.654
D4003    870149.991    14570576.829       89247.000      870149.852    20520718.482      125691.352
D4103    789339.013    13217407.744       32295.837      789338.837    18614953.918       45484.594
D5627    842903.232    14114336.361       68689.125      842903.171    19878167.390       96739.787
D5727    500375.840     8378751.353       15425.038      500375.768    11800350.386       21724.203
D5826   1186027.592    19859921.146      105012.239     1186027.397    27970059.116      147895.855
D5926   1047652.167    17542841.651       77425.071     1047652.020    24706754.832      109044.022
> 2019  1 10  9 51 58.6000000  0 8                     
D3704   1120098.173    18755941.254       48798.453     1120097.985    26415245.487       68723.973
D3903   1209176.803    20247552.930      105924.314     1209176.591    28515984.679      149179.829
D4003    869084.037    14552727.429       89145.584      869083.933    20495580.212      125550.041
D4103    788953.207    13210948.576       32091.263      788953.070    18605856.999       45195.314
D5627    842082.785    14100598.536       68493.484      842082.698    19858819.433       96463.123
D5727    500191.531     8375666.346       15113.946      500191.531    11796005.545       21285.734
D5826   1184773.270    19838918.698      104902.698     1184773.179    27940479.946      147740.292
D5926   1046727.420    17527356.637       77269.528     1046727.269    24684946.028      108824.022
> 2019  1 10  9 51 58.8000000  0 8                     
D3704   1119515.373    18746181.563       48614.532     1119515.222    26401500.692       68469.332
D3903   1207911.669    20226368.067      105922.273     1207911.404    28486148.713      149178.308
D4003    868019.257    14534898.312       89025.905      868019.120    20470470.203      125381.583
D4103    788569.968    13204530.324       31923.507      788569.814    18596817.936       44962.013
D5627    841264.773    14086899.840       68386.964      841264.605    19839526.808       96314.278
D5727    500011.108     8372643.557       14673.278      500011.084    11791748.398       20665.994
D5826   1183520.397    19817938.159      104979.325     1183520.225    27910931.887      147850.065
D5926   1045804.462    17511902.731       77282.744     1045804.335    24663181.223      108841.686
> 2019  1 10  9 51 59.0000000  0 8                     
D3704   1118934.633    18736458.657       48484.686     1118934.457    26387806.826       68284.388
D3903   1206646.466    20205183.613      105881.827     1206646.287    28456313.051      149121.053
D4003    866955.945    14517093.131       89008.723      866955.809    20445393.887      125356.701
D4103    788188.604    13198145.622       31742.931      788188.499    18587825.534       44705.178
D5627    840447.933    14073222.447       68279.302      840447.829    19820263.952       96161.268
D5727    499835.800     8369708.901       14476.715      499835.754    11787615.199       20389.115
D5826   1182266.482    19796942.294      104902.814     1182266.345    27881361.874      147742.075
D5926   1044881.462    17496446.183       77067.558     1044881.264    24641412.886      108538.174
> 2019  1 10  9 51 59.2000000  0 8                     
D3704   1118355.454    18726761.719       48368.283     1118355.442    26374149.948       68118.633
D3903   1205381.848    20184007.247      105799.904     1205381.588    28426488.841      149005.157
D4003    865892.830    14499291.387       88934.921      865892.702    20420322.547      125253.185
D4103    787809.476    13191797.036       31519.511      787809.325    18578884.498       44391.477
D5627    839632.447    14059566.586       68099.735      839632.296    19801031.699       95910.603
D5727    499662.887     8366813.558       14128.798      499662.819    11783537.376       19898.354
D5826   1181013.621    19775961.731      104889.722     1181013.351    27851813.459      147722.742
D5926   1043961.032    17481032.671       77037.865     1043960.807    24619705.251      108499.329
> 2019  1 10  9 51 59.4000000  0 8                     
D3704   1117777.849    18717088.063       48262.133     1117777.739    26360526.221       67971.555
D3903   1204118.179    20162847.266      105856.928     1204118.009    28396687.809      149086.354
D4003    864830.563    14481504.402       88795.867      864830.531    20395271.910      125056.648
D4103    787432.960    13185493.134       31338.817      787432.857    18570006.203       44136.763
D5627    838819.037    14045946.639       68020.743      838818.943    19781849.578       95797.779
D5727    499494.118     8363987.799       13851.730      499494.057    11779557.705       19507.878
D5826   1179760.715    19754983.787      104790.039     1179760.591    27822268.911      147582.167
D5926   1043040.772    17465625.098       76903.175     1043040.630    24598005.385      108307.595
> 2019  1 10  9 51 59.6000000  0 8                     
D3704   1117201.414    18707435.636       48100.005     1117201.211    26346931.910       67742.021
D3903   1202853.752    20141675.881      105810.827     1202853.571    28366870.538      149020.978
D4003    863770.040    14463745.229       88766.449      863769.908    20370260.580      125015.219
D4103    787058.656    13179225.371       31231.535      787058.570    18561178.850       43984.517
D5627    838006.569    14032342.491       67872.464      838006.489    19762690.022       95589.291
D5727    499328.688     8361217.453       13503.293      499328.599    11775656.130       19017.185
D5826   1178509.157    19734025.779      104811.487     1178508.993    27792752.477      147612.212
D5926   1042122.306    17450244.463       76872.926     1042122.107    24576343.866      108263.254
> 2019  1 10  9 51 59.8000000  0 8                     
D3704   1116626.936    18697815.635       48044.391     1116626.747    26333383.506       67663.334
D3903   1201589.951    20120513.716      105745.343     1201589.786    28337066.343      148925.712
D4003    862709.826    14445991.939       88639.325      862709.743    20345257.536      124836.750
D4103    786685.681    13172979.064       30908.710      786685.612    18552381.947       43529.344
D5627    837195.991    14018767.998       67738.562      837195.819    19743572.164       95401.049
D5727    499167.436     8358516.794       13210.572      499167.393    11771852.693       18606.121
D5826   1177257.280    19713063.481      104821.747     1177257.122    27763230.035      147628.315
D5926   1041204.164    17434869.878       76722.657     1041204.027    24554691.216      108055.056
> 2019  1 10  9 52  0.0000000  0 8                     
D3704   1116053.133    18688206.757       47794.054     1116052.942    26319850.840       67312.221
D3903   1200326.951    20099364.647      105768.025     1200326.830    28307281.200      148961.709
D4003    861651.114    14428264.074       88612.376      861651.024    20320290.186      124799.265
D4103    786316.563    13166797.322       30838.389      786316.445    18543676.078       43433.578
D5627    836386.891    14005220.285       67635.272      836386.768    19724491.954       95254.449
D5727    499009.598     8355874.680       12822.704      499009.553    11768131.468       18058.918
D5826   1176005.314    19692099.132      104792.693     1176005.199    27733704.372      147587.276
D5926   1040287.734    17419525.347       76654.853     1040287.584    24533080.204      107958.152
> 2019  1 10  9 52  0.2000000  0 8                     
D3704   1115482.193    18678647.946       47720.382     1115482.063    26306388.395       67206.876
D3903   1199063.690    20078211.042      105705.014     1199063.518    28277488.859      148870.251
D4003    860592.759    14410541.599       88451.745      860592.602    20295330.334      124571.616
D4103    785948.134    13160629.644       30595.018      785948.079    18534989.362       43088.769
D5627    835579.091    13991693.231       67577.486      835578.900    19705441.065       95174.948
D5727    498856.481     8353310.139       12559.486      498856.439    11764519.685       17688.176
D5826   1174753.679    19671140.593      104662.981     1174753.494    27704186.917      147403.232
D5926   1039372.189    17404194.376       76571.260     1039372.043    24511488.574      107841.338
> 2019  1 10  9 52  0.4000000  0 8                     
D3704   1114912.293    18669103.870       47650.261     1114912.133    26292947.020       67108.454
D3903   1197801.147    20057070.039      105671.464     1197801.022    28247714.808      148824.094
D4003    859536.292    14392851.250       88404.323      859536.226    20270416.010      124506.035
D4103    785582.835    13154510.640       30486.389      785582.626    18526371.608       42936.642
D5627    834771.862    13978177.734       67267.957      834771.776    19686406.075       94738.203
D5727    498706.452     8350798.242       12264.808      498706.451    11760982.050       17273.422
D5826   1173503.622    19650207.997      104735.967     1173503.456    27674706.270      147507.510
D5926   1038457.605    17388880.124       76469.961     1038457.447    24489920.306      107696.670
> 2019  1 10  9 52  0.6000000  0 8                     
D3704   1114343.197    18659573.818       47497.537     1114343.067    26279525.329       66893.962
D3903   1196539.010    20035935.746      105704.534     1196538.900    28217949.989      148870.371
D4003    858480.399    14375170.385       88331.043      858480.321    20245514.803      124401.480
D4103    785218.549    13148413.363       30171.067      785218.454    18517784.280       42491.620
D5627    833968.463    13964724.142       67207.754      833968.358    19667458.434       94653.369
D5727    498559.952     8348345.280       11916.833      498559.826    11757527.365       16783.001
D5826   1172252.592    19629260.804      104674.791     1172252.447    27645204.768      147419.737
D5926   1037544.300    17373586.132       76346.652     1037544.172    24468380.972      107526.145
> 2019  1 10  9 52  0.8000000  0 8                     
D3704   1113775.892    18650074.310       47320.714     1113775.701    26266146.537       66646.201
D3903   1195276.521    20014794.840      105555.003     1195276.358    28188175.915      148661.402
D4003    857425.368    14357504.176       88271.721      857425.268    20220634.507      124320.369
D4103    784858.213    13142379.149       30041.673      784858.155    18509285.956       42309.432
D5627    833165.719    13951282.592       67099.760      833165.585    19648527.761       94500.038
D5727    498417.666     8345961.913       11657.829      498417.556    11754170.765       16419.248
D5826   1171002.388    19608325.846      104583.197     1171002.264    27615720.821      147291.431
D5926   1036632.364    17358316.801       76234.426     1036632.216    24446875.743      107364.563
> 2019  1 10  9 52  1.0000000  0 8                     
D3704   1113210.669    18640610.167       47203.893     1113210.570    26252817.297       66481.011
D3903   1194015.778    19993683.839      105664.991     1194015.637    28158443.635      148814.493
D4003    856371.071    14339849.832       88169.199      856370.969    20195770.434      124175.204
D4103    784499.450    13136370.815       29848.352      784499.328    18500824.069       42037.737
D5627    832364.241    13937862.640       66945.214      832364.198    19629627.753       94283.473
D5727    498278.393     8343630.348       11278.054      498278.308    11750886.915       15883.843
D5826   1169753.314    19587409.206      104622.528     1169753.156    27586262.535      147347.187
D5926   1035721.869    17343069.916       76149.530     1035721.666    24425402.831      107248.088
> 2019  1 10  9 52  1.2000000  0 8                     
D3704   1112646.836    18631169.389       47127.345     1112646.712    26239521.094       66371.883
D3903   1192753.710    19972550.841      105605.197     1192753.579    28128680.736      148731.152
D4003    855318.005    14322215.993       88115.160      855317.851    20170935.393      124097.760
D4103    784142.934    13130401.144       29665.932      784142.780    18492416.522       41780.711
D5627    831564.705    13924473.597       66844.065      831564.641    19610771.058       94140.465
D5727    498143.664     8341374.737       11014.407      498143.608    11747710.147       15511.325
D5826   1168503.646    19566484.701      104575.501     1168503.514    27556793.097      147281.079
D5926   1034812.316    17327840.010       76070.905     1034812.112    24403953.213      107135.861
> 2019  1 10  9 52  1.4000000  0 8                     
D3704   1112083.965    18621743.920       46913.028     1112083.829    26226246.718       66071.812
D3903   1191492.373    19951429.801      105596.511     1191492.247    28098934.506      148719.221
D4003    854265.515    14304592.961       88014.775      854265.353    20146115.841      123956.869
D4103    783788.600    13124467.958       29499.189      783788.507    18484060.380       41544.614
D5627    830766.304    13911104.784       66736.319      830766.195    19591942.965       93989.489
D5727    498012.121     8339171.855       10675.144      498012.089    11744607.882       15033.706
D5826   1167254.591    19545569.600      104509.906     1167254.449    27527336.882      147187.374
D5926   1033903.695    17312625.829       75998.692     1033903.590    24382526.041      107033.009
> 2019  1 10  9 52  1.6000000  0 8                     
D3704   1111523.561    18612361.314       46872.051     1111523.462    26213032.355       66012.510
D3903   1190231.134    19930310.499      105516.578     1190230.962    28069190.662      148605.206
D4003    853214.270    14286990.006       87905.841      853214.140    20121324.467      123803.224
D4103    783436.252    13118568.120       29271.061      783436.170    18475751.457       41224.789
D5627    829969.225    13897757.520       66558.181      829969.133    19573145.068       93738.293
D5727    497884.678     8337036.826       10308.816      497884.590    11741601.140       14520.226
D5826   1166006.336    19524667.619      104552.264     1166006.197    27497899.407      147247.887
D5926   1032995.982    17297426.091       75925.329     1032995.891    24361119.439      106929.515
> 2019  1 10  9 52  1.8000000  0 8                     
D3704   1110963.764    18602986.904       46764.601     1110963.590    26199829.853       65862.496
D3903   1188970.900    19909207.184      105495.406     1188970.691    28039469.620      148576.356
D4003    852164.272    14269408.837       87870.391      852164.234    20096563.822      123754.040
D4103    783086.745    13112713.908       29070.491      783086.518    18467506.499       40942.552
D5627    829174.291    13884445.884       66433.522      829174.164    19554397.409       93564.034
D5727    497761.469     8334975.063       10024.348      497761.458    11738697.095       14115.895
D5826   1164757.613    19503757.166      104499.048     1164757.504    27468449.829      147172.998
D5926   1032089.188    17282241.025       75770.519     1032088.992    24339733.536      106713.295
> 2019  1 10  9 52  2.0000000  0 8                     
D3704   1110405.173    18593633.984       46520.855     1110405.084    26186657.354       65517.243
D3903   1187710.877    19888108.102      105492.920     1187710.687    28009754.349      148573.185
D4003    851114.823    14251834.759       87708.137      851114.708    20071813.014      123526.029
D4103    782739.427    13106899.810       28937.404      782739.275    18459317.989       40753.110
D5627    828380.771    13871159.180       66300.409      828380.668    19535684.602       93374.525
D5727    497641.828     8332970.194        9762.835      497641.748    11735873.916       13750.826
D5826   1163509.471    19482857.357      104461.031     1163509.295    27439015.230      147120.721
D5926   1031184.223    17267086.921       75668.615     1031184.067    24318390.877      106569.036
> 2019  1 10  9 52  2.2000000  0 8                     
D3704   1109849.576    18584329.813       46461.903     1109849.445    26173553.906       65436.712
D3903   1186450.793    19867009.518      105466.153     1186450.643    27980039.712      148534.046
D4003    850067.246    14234293.132       87718.446      850067.123    20047107.808      123537.710
D4103    782393.811    13101112.329       28701.286      782393.641    18451167.367       40421.574
D5627    827588.911    13857899.098       66142.043      827588.793    19517009.697       93151.728
D5727    497525.191     8331017.627        9434.440      497525.098    11733123.751       13287.333
D5826   1162261.781    19461965.151      104378.391     1162261.634    27409591.086      147003.258
D5926   1030280.405    17251953.198       75640.595     1030280.262    24297077.070      106530.533
> 2019  1 10  9 52  2.4000000  0 8                     
D3704   1109294.632    18575037.432       46345.574     1109294.476    26160466.563       65270.531
D3903   1185191.132    19845916.288      105396.382     1185190.933    27950332.903      148437.379
D4003    849019.570    14216749.443       87581.480      849019.429    20022400.266      123347.978
D4103    782051.026    13095372.072       28545.961      782050.957    18443083.052       40203.225
D5627    826798.901    13844670.689       66051.701      826798.812    19498379.352       93024.894
D5727    497412.520     8329130.739        9138.427      497412.432    11730466.284       12870.026
D5826   1161015.059    19441089.472      104388.428     1161015.002    27380190.434      147016.261
D5926   1029376.866    17236825.079       75453.204     1029376.808    24275770.963      106263.696
> 2019  1 10  9 52  2.6000000  0 8                     
D3704   1108741.075    18565768.317       46134.151     1108740.898    26147412.457       64973.673
D3903   1183932.279    19824837.011      105419.612     1183932.146    27920645.427      148469.275
D4003    847973.496    14199233.146       87403.318      847973.366    19997730.670      123096.458
D4103    781710.084    13089662.880       28309.219      781709.953    18435042.407       39871.099
D5627    826010.019    13831460.349       65893.913      826009.877    19479774.373       92803.843
D5727    497303.355     8327303.053        8663.616      497303.315    11727892.279       12202.075
D5826   1159768.311    19420211.787      104460.519     1159768.099    27350787.182      147117.993
D5926   1028475.724    17221734.438       75391.240     1028475.636    24254518.224      106180.021
> 2019  1 10  9 52  2.8000000  0 8                     
D3704   1108190.055    18556541.487       46103.885     1108189.913    26134417.722       64932.466
D3903   1182673.109    19803753.089      105350.916     1182672.986    27890951.572      148372.359
D4003    846929.461    14181752.483       87454.466      846929.411    19973111.379      123167.413
D4103    781371.917    13084001.036       28167.796      781371.829    18427068.187       39669.727
D5627    825222.964    13818281.566       65756.814      825222.791    19461213.604       92609.245
D5727    497199.871     8325570.330        8484.230      497199.791    11725451.864       11948.288
D5826   1158520.669    19399319.683      104276.989     1158520.546    27321363.583      146860.216
D5926   1027575.216    17206656.190       75297.824     1027575.122    24233282.220      106045.822
> 2019  1 10  9 52  3.0000000  0 8                     
D3704   1107639.407    18547320.710       45939.833     1107639.232    26121431.229       64698.768
D3903   1181414.902    19782682.906      105358.533     1181414.741    27861277.100      148384.763
D4003    845885.027    14164261.590       87331.499      845884.846    19948477.896      122995.546
D4103    781035.523    13078367.476       27874.928      781035.355    18419134.242       39258.493
D5627    824437.541    13805130.203       65597.034      824437.450    19442691.755       92384.066
D5727    497098.517     8323873.484        8149.714      497098.503    11723062.207       11478.747
D5826   1157275.159    19378464.285      104302.635     1157274.975    27291991.540      146897.530
D5926   1026675.907    17191596.626       75153.721     1026675.748    24212073.056      105843.981
> 2019  1 10  9 52  3.2000000  0 8                     
D3704   1107090.688    18538132.744       45819.011     1107090.543    26108491.476       64529.628
D3903   1180156.441    19761611.199      105381.204     1180156.272    27831600.148      148413.625
D4003    844841.860    14146795.290       87245.430      844841.820    19923878.787      122873.445
D4103    780702.551    13072792.491       27815.946      780702.438    18411282.543       39173.454
D5627    823654.137    13792010.797       65533.593      823653.920    19424214.942       92295.911
D5727    497001.171     8322243.541        7828.610      497001.116    11720766.457       11024.998
D5826   1156029.373    19357603.758      104286.107     1156029.190    27262612.034      146872.340
D5926   1025778.313    17176565.882       75121.755     1025778.170    24190904.260      105802.220
> 2019  1 10  9 52  3.4000000  0 8                     
D3704   1106543.429    18528968.941       45682.899     1106543.270    26095585.550       64338.188
D3903   1178897.822    19740534.958      105288.578     1178897.656    27801917.423      148286.182
D4003    843799.861    14129346.204       87168.089      843799.675    19899304.098      122763.633
D4103    780370.417    13067229.302       27555.019      780370.266    18403447.852       38808.720
D5627    822871.310    13778904.078       65349.074      822871.210    19405755.760       92034.894
D5727    496907.684     8320677.819        7461.516      496907.558    11718561.458       10508.450
D5826   1154783.832    19336746.537      104208.781     1154783.620    27233237.566      146764.705
D5926   1024880.911    17161541.530       75005.982     1024880.872    24169743.816      105633.995
> 2019  1 10  9 52  3.6000000  0 8                     
D3704   1105997.875    18519832.362       45510.268     1105997.719    26082717.912       64095.062
D3903   1177640.219    19719477.243      105216.871     1177640.080    27772260.186      148184.142
D4003    842758.746    14111912.586       87037.748      842758.607    19874751.372      122581.279
D4103    780041.221    13061718.298       27350.418      780041.122    18395686.108       38520.159
D5627    822090.824    13765834.263       65237.057      822090.721    19387348.781       91876.728
D5727    496818.591     8319185.516        7219.068      496818.488    11716459.768       10167.541
D5826   1153539.103    19315904.780      104267.468     1153538.978    27203884.625      146844.464
D5926   1023985.176    17146540.334       74895.139     1023985.041    24148617.017      105478.694
> 2019  1 10  9 52  3.8000000  0 8                     
D3704   1105454.248    18510730.308       45429.506     1105454.113    26069898.900       63981.491
D3903   1176383.540    19698433.869      105296.183     1176383.361    27742623.358      148295.660
D4003    841719.172    14094505.036       87026.664      841719.059    19850235.116      122563.940
D4103    779714.498    13056248.214       27186.342      779714.407    18387982.077       38289.390
D5627    821311.694    13752786.852       65010.012      821311.555    19368973.436       91560.029
D5727    496732.313     8317741.702        6790.247      496732.219    11714426.260        9562.585
D5826   1152293.863    19295051.287      104153.979     1152293.610    27174515.732      146689.665
D5926   1023090.675    17131561.306       74787.602     1023090.491    24127521.278      105328.987
> 2019  1 10  9 52  4.0000000  0 8                     
D3704   1104911.707    18501644.407       45258.636     1104911.543    26057102.602       63741.687
D3903   1175125.866    19677374.632      105126.369     1175125.694    27712964.226      148055.773
D4003    840679.799    14077099.703       86886.499      840679.637    19825722.328      122369.966
D4103    779389.825    13050810.946       26952.688      779389.685    18380324.198       37958.222
D5627    820535.159    13739784.850       65003.617      820535.041    19350661.430       91549.197
D5727    496651.258     8316383.653        6562.862      496651.177    11712513.743        9243.269
D5826   1151049.741    19274220.491      104186.923     1151049.540    27145177.799      146732.993
D5926   1022197.453    17116603.786       74699.010     1022197.257    24106455.481      105204.443
> 2019  1 10  9 52  4.2000000  0 8                     
D3704   1104371.099    18492592.680       45143.147     1104370.915    26044354.265       63576.905
D3903   1173870.271    19656349.358      105228.857     1173870.126    27683353.071      148202.137
D4003    839641.987    14059722.404       86836.185      839641.886    19801248.335      122297.920
D4103    779067.932    13045420.408       26773.009      779067.766    18372732.554       37705.501
D5627    819758.743    13726784.126       64783.764      819758.637    19332351.590       91238.516
D5727    496572.795     8315071.080        6267.100      496572.734    11710665.089        8825.891
D5826   1149805.417    19253383.107      104058.116     1149805.169    27115831.201      146551.474
D5926   1021305.114    17101663.984       74573.573     1021305.076    24085414.592      105025.619
> 2019  1 10  9 52  4.4000000  0 8                     
D3704   1103831.909    18483564.050       45052.907     1103831.739    26031638.883       63450.799
D3903   1172613.387    19635303.587      105184.421     1172613.278    27653712.644      148135.288
D4003    838604.744    14042355.167       86734.936      838604.629    19776788.751      122152.584
D4103    778748.154    13040065.806       26651.532      778748.029    18365191.454       37534.523
D5627    818984.972    13713827.373       64641.355      818984.872    19314103.887       91039.696
D5727    496498.058     8313817.661        5883.656      496497.938    11708899.911        8286.592
D5826   1148562.570    19232571.483      104159.767     1148562.349    27086520.906      146694.746
D5926   1020414.498    17086749.269       74541.943     1020414.293    24064409.468      104982.207
> 2019  1 10  9 52  4.6000000  0 8                     
D3704   1103293.828    18474553.469       44863.245     1103293.687    26018948.724       63184.746
D3903   1171357.154    19614266.703      105096.528     1171356.982    27624085.586      148015.331
D4003    837568.845    14025008.179       86548.221      837568.768    19752358.234      121891.854
D4103    778429.903    13034735.500       26409.215      778429.732    18357684.549       37193.931
D5627    818212.904    13700899.102       64503.403      818212.760    19295895.948       90844.370
D5727    496427.704     8312640.929        5552.299      496427.685    11707242.592        7819.320
D5826   1147318.462    19211739.530      104025.138     1147318.282    27057181.957      146506.299
D5926   1019524.152    17071840.881       74386.159     1019524.038    24043413.027      104763.163
> 2019  1 10  9 52  4.8000000  0 8                     
D3704   1102757.940    18465580.820       44761.988     1102757.788    26006311.775       63041.154
D3903   1170101.847    19593247.397      105128.346     1170101.652    27594482.520      148058.956
D4003    836535.107    14007698.535       86580.297      836535.016    19727979.863      121938.064
D4103    778114.416    13029453.657       26171.581      778114.273    18350245.763       36860.173
D5627    817442.413    13687998.422       64468.275      817442.346    19277727.074       90793.814
D5727    496361.431     8311530.470        5309.649      496361.316    11705678.728        7478.229
D5826   1146075.949    19190934.502      103983.793     1146075.805    27027880.697      146448.266
D5926   1018635.677    17056963.649       74322.310     1018635.609    24022460.394      104673.753
> 2019  1 10  9 52  5.0000000  0 8                     
D3704   1102223.339    18456628.422       44632.118     1102223.163    25993703.544       62858.429
D3903   1168846.236    19572221.728      105120.054     1168846.094    27564870.729      148048.253
D4003    835500.994    13990382.476       86514.720      835500.871    19703592.250      121843.969
D4103    777801.784    13024219.341       26047.023      777801.676    18342873.728       36684.181
D5627    816672.510    13675104.767       64230.256      816672.375    19259568.311       90459.337
D5727    496297.976     8310468.540        4872.063      496297.905    11704183.082        6861.693
D5826   1144833.906    19170137.744      103965.598     1144833.751    26998591.044      146420.261
D5926   1017748.003    17042099.187       74118.815     1017747.873    24001525.644      104385.773
> 2019  1 10  9 52  5.2000000  0 8                     
D3704   1101690.207    18447701.999       44488.366     1101690.059    25981131.858       62653.674
D3903   1167590.636    19551197.717      104959.180     1167590.516    27535261.078      147822.132
D4003    834467.641    13973079.532       86302.321      834467.541    19679223.456      121546.001
D4103    777490.655    13019009.936       25816.797      777490.597    18335536.892       36359.520
D5627    815905.351    13662258.715       64101.081      815905.216    19241476.444       90278.729
D5727    496239.846     8309494.127        4668.761      496239.715    11702810.744        6574.960
D5826   1143592.225    19149344.624      103985.909     1143592.067    26969306.991      146451.059
D5926   1016862.700    17027275.424       74125.387     1016862.570    23980648.489      104398.184
> 2019  1 10  9 52  5.4000000  0 8                     
D3704   1101158.911    18438804.325       44298.840     1101158.829    25968601.123       62390.883
D3903   1166336.976    19530205.881      105066.514     1166336.864    27505696.652      147973.632
D4003    833436.869    13955819.068       86312.599      833436.730    19654914.256      121559.331
D4103    777182.369    13013846.577       25634.587      777182.138    18328264.988       36102.502
D5627    815139.656    13649438.499       63914.467      815139.548    19223420.698       90014.365
D5727    496184.052     8308560.375        4349.995      496183.990    11701495.752        6127.078
D5826   1142350.191    19128547.442      103961.263     1142350.077    26940016.780      146414.232
D5926   1015977.312    17012450.347       73970.140     1015977.151    23959768.852      104173.513
> 2019  1 10  9 52  5.6000000  0 8                     
D3704   1100629.806    18429944.557       44300.576     1100629.653    25956122.947       62390.657
D3903   1165082.062    19509192.578      105025.839     1165081.927    27476101.926      147912.584
D4003    832406.005    13938556.548       86105.138      832405.817    19630602.390      121267.767
D4103    776876.173    13008719.659       25431.110      776876.077    18321044.488       35817.678
D5627    814376.384    13636655.606       63873.290      814376.206    19205417.825       89957.262
D5727    496132.116     8307690.376        3960.396      496132.023    11700270.336        5576.567
D5826   1141108.535    19107755.190      103882.528     1141108.348    26910733.933      146304.179
D5926   1015093.934    16997656.319       73925.491     1015093.746    23938934.150      104117.361
> 2019  1 10  9 52  5.8000000  0 8                     
D3704   1100100.654    18421084.442       44064.801     1100100.540    25943644.815       62060.750
D3903   1163827.695    19488187.410      104892.184     1163827.584    27446519.409      147725.557
D4003    831377.553    13921335.520       86140.205      831377.389    19606348.837      121316.870
D4103    776572.314    13003633.437       25194.309      776572.310    18313880.952       35481.971
D5627    813613.424    13623880.948       63682.110      813613.297    19187426.372       89688.167
D5727    496084.874     8306898.297        3660.684      496084.717    11699155.023        5156.630
D5826   1139867.734    19086978.684      103847.014     1139867.620    26881473.098      146257.028
D5926   1014210.846    16982871.220       73722.689     1014210.772    23918110.678      103827.724
> 2019  1 10  9 52  6.0000000  0 8                     
D3704   1099574.298    18412271.482       43966.042     1099574.164    25931232.665       61920.743
D3903   1162574.905    19467208.974      104992.060     1162574.766    27416974.297      147868.380
D4003    830348.675    13904107.479       86029.086      830348.537    19582085.463      121160.125
D4103    776271.540    12998594.575       25066.995      776271.321    18306784.558       35303.308
D5627    812852.787    13611144.526       63565.622      812852.645    19169488.739       89522.194
D5727    496041.065     8306166.160        3367.357      496040.911    11698123.697        4742.597
D5826   1138627.377    19066209.281      103829.797     1138627.236    26852221.692      146228.888
D5926   1013330.342    16968126.683       73694.627     1013330.183    23897345.133      103787.952
> 2019  1 10  9 52  6.2000000  0 8                     
D3704   1099049.173    18403478.274       43850.462     1099049.079    25918848.517       61755.951
D3903   1161320.924    19446210.562      104873.541     1161320.676    27387400.621      147700.328
D4003    829321.190    13886901.662       85937.150      829321.026    19557853.437      121030.800
D4103    775972.083    12993581.176       24896.473      775971.994    18299723.896       35064.074
D5627    812093.613    13598431.401       63374.311      812093.460    19151584.300       89254.607
D5727    496000.780     8305492.689        2965.453      496000.688    11697175.177        4176.798
D5826   1137387.233    19045443.322      103790.297     1137387.166    26822975.914      146175.140
D5926   1012450.190    16953387.757       73571.246     1012450.033    23876587.542      103615.565
> 2019  1 10  9 52  6.4000000  0 8                     
D3704   1098525.458    18394708.181       43659.872     1098525.315    25906497.327       61490.686
D3903   1160068.232    19425235.853      104875.306     1160068.100    27357860.556      147703.916
D4003    828294.724    13869714.232       85778.307      828294.615    19533647.278      120808.871
D4103    775674.757    12988601.882       24621.685      775674.557    18292711.082       34674.785
D5627    811336.663    13585756.539       63337.736      811336.548    19133733.379       89201.690
D5727    495965.412     8304899.598        2705.393      495965.352    11696339.818        3809.599
D5826   1136147.627    19024685.262      103795.457     1136147.501    26793740.886      146182.617
D5926   1011571.449    16938673.508       73475.595     1011571.339    23855864.429      103481.920
> 2019  1 10  9 52  6.6000000  0 8                     
D3704   1098003.983    18385976.207       43557.243     1098003.772    25894199.189       61342.650
D3903   1158815.623    19404260.792      104857.664     1158815.411    27328319.772      147677.301
D4003    827270.181    13852558.571       85745.360      827270.073    19509485.503      120761.098
D4103    775380.699    12983677.545       24449.729      775380.584    18285776.125       34434.576
D5627    810580.205    13573088.992       63104.748      810580.076    19115893.041       88876.094
D5727    495933.080     8304358.519        2418.692      495933.031    11695577.898        3406.473
D5826   1134907.893    19003926.171      103727.077     1134907.727    26764504.363      146087.139
D5926   1010693.798    16923978.389       73427.545     1010693.683    23835168.045      103411.322
> 2019  1 10  9 52  6.8000000  0 8                     
D3704   1097483.782    18377264.758       43522.510     1097483.620    25881930.660       61296.207
D3903   1157563.280    19383289.259      104843.709     1157563.089    27298784.312      147658.454
D4003    826245.974    13835409.499       85627.751      826245.911    19485333.284      120594.602
D4103    775088.592    12978787.599       24275.518      775088.540    18278889.209       34189.425
D5627    809826.477    13560468.043       62959.769      809826.382    19098117.822       88670.170
D5727    495904.165     8303874.781        2081.685      495904.119    11694896.604        2932.048
D5826   1133668.892    18983180.756      103715.929     1133668.749    26735286.935      146069.229
D5926   1009816.861    16909292.880       73291.018     1009816.764    23814485.781      103220.810
> 2019  1 10  9 52  7.0000000  0 8                     
D3704   1096963.952    18368560.256       43210.528     1096963.779    25869671.418       60855.908
D3903   1156310.951    19362320.518      104808.765     1156310.791    27269252.622      147607.525
D4003    825223.282    13818283.949       85525.873      825223.183    19461214.363      120451.622
D4103    774798.706    12973932.495       24076.413      774798.594    18272051.325       33907.931
D5627    809074.472    13547876.089       62839.096      809074.328    19080383.788       88500.921
D5727    495879.371     8303458.444        1769.953      495879.295    11694310.194        2492.271
D5826   1132430.083    18962437.570      103712.340     1132430.019    26706073.089      146064.596
D5926   1008941.533    16894634.676       73125.130     1008941.341    23793841.619      102987.821
> 2019  1 10  9 52  7.2000000  0 8                     
D3704   1096447.860    18359918.151       43165.919     1096447.680    25857500.237       60795.434
D3903   1155059.184    19341358.765      104729.959     1155059.043    27239731.116      147498.828
D4003    824201.819    13801178.774       85463.791      824201.679    19437124.039      120363.888
D4103    774511.074    12969117.213       23817.140      774511.048    18265269.738       33542.924
D5627    808323.937    13535308.269       62704.284      808323.801    19062683.604       88309.948
D5727    495858.210     8303104.453        1405.419      495858.071    11693811.740        1979.579
D5826   1131191.420    18941695.102      103578.446     1131191.244    26676860.170      145875.477
D5926   1008068.014    16880009.650       73062.172     1008067.867    23773244.055      102897.522
> 2019  1 10  9 52  7.4000000  0 8                     
D3704   1095932.233    18351284.967       43033.158     1095932.069    25845341.150       60605.187
D3903   1153808.247    19320412.773      104758.381     1153808.096    27210231.351      147539.666
D4003    823181.036    13784086.016       85307.598      823180.916    19413051.261      120145.000
D4103    774226.661    12964353.785       23680.151      774226.561    18258561.153       33351.897
D5627    807574.957    13522767.413       62562.383      807574.872    19045021.615       88111.521
D5727    495841.459     8302823.370        1094.501      495841.333    11693415.824        1540.214
D5826   1129954.402    18920979.413      103612.645     1129954.179    26647685.075      145925.695
D5926   1007195.458    16865397.216       72895.482     1007195.286    23752664.550      102663.107
> 2019  1 10  9 52  7.6000000  0 8                     
D3704   1095418.241    18342678.335       42891.014     1095418.088    25833220.113       60406.024
D3903   1152557.003    19299461.097      104685.342     1152556.894    27180723.418      147436.028
D4003    822162.078    13767024.496       85339.196      822161.965    19389022.261      120188.142
D4103    773943.810    12959617.754       23521.220      773943.674    18251890.774       33125.742
D5627    806827.676    13510254.936       62362.081      806827.629    19027399.311       87830.060
