     3.02           OBSERVATION DATA    M: Mixed            RINEX VERSION / TYPE
BUPT PLAN 6.0                           20210329 120000 UTC PGM / RUN BY / DATE 
                                                            MARKER NAME         
                                                            MARKER NUMBER       
                                                            MARKER TYPE         
                                                            OBSERVER / AGENCY   
                                                            REC # / TYPE / VERS 
                                                            ANT # / TYPE        
  4076128.1056   519876.3642  4878092.5196                  APPROX POSITION XYZ 
        0.0000        0.0000        0.0000                  ANTENNA: DELTA H/E/N 
D    6 C5D L5D D5D C7D L7D D7D                              SYS / # / OBS TYPES  
    30.000                                                  INTERVAL            
  2019     1    10     9    51   54.0000000     GPS         TIME OF FIRST OBS   
  2019     1    10     9    54   44.0000000     GPS         TIME OF LAST OBS   
                                                            END OF HEADER       
> 2019  1 10  9 51 54.0000000  0 8                     
D3704   1133898.539    18987029.346       50011.668     1133898.411    26740704.046       70434.005
D3903   1238356.911    20736170.909      103306.890     1238356.813    29204137.828      145494.326
D4003    893826.916    14967052.018       88253.138      893826.710    21079086.829      124293.575
D4103    798382.074    13368834.499       35341.339      798382.033    18828222.895       49773.573
D5627    861316.698    14422667.539       69500.543      861316.423    20312405.846       97882.133
D5727    505354.565     8462112.673       22286.400      505354.586    11917766.238       31383.777
D5826   1213699.610    20323283.968      106878.882     1213699.342    28622642.201      150525.442
D5926   1068266.718    17888023.402       82604.578     1068266.677    25192905.468      116336.774
> 2019  1 10  9 51 54.2000000  0 8                     
D3704   1133301.286    18977027.012       49677.099     1133301.189    26726617.245       69966.285
D3903   1237123.039    20715509.531      103097.319     1237122.862    29175038.963      145199.447
D4003    892772.627    14949401.391       88160.817      892772.466    21054228.114      124164.202
D4103    797959.892    13361766.231       35179.315      797959.851    18818268.180       49545.272
D5627    860486.638    14408767.431       69328.409      860486.567    20292829.420       97638.674
D5727    505088.428     8457655.393       21899.770      505088.537    11911489.482       30842.901
D5826   1212422.989    20301908.191      106673.113     1212422.836    28592537.112      150234.979
D5926   1067280.149    17871502.486       82405.842     1067279.970    25169638.113      116053.666
> 2019  1 10  9 51 54.4000000  0 8                     
D3704   1132707.871    18967091.592       49689.512     1132707.721    26712623.988       69978.597
D3903   1235891.532    20694890.067      103082.505     1235891.471    29145999.074      145176.523
D4003    891719.731    14931769.227       88089.788      891719.555    21029395.273      124062.751
D4103    797539.869    13354730.368       34951.011      797539.743    18808359.126       49223.194
D5627    859658.446    14394901.749       69152.476      859658.354    20273301.685       97392.576
D5727    504826.912     8453275.439       21616.147      504826.806    11905320.902       30444.206
D5826   1211148.845    20280573.569      106675.840     1211148.718    28562490.117      150243.168
D5926   1066295.883    17855021.318       82206.371     1066295.641    25146427.380      115780.108
> 2019  1 10  9 51 54.6000000  0 8                     
D3704   1132114.440    18957153.690       49449.724     1132114.217    26698628.268       69643.632
D3903   1234660.433    20674273.566      103078.297     1234660.227    29116963.769      145173.329
D4003    890667.443    14914151.270       87981.278      890667.450    21004582.723      123909.337
D4103    797122.319    13347740.166       34698.305      797122.279    18798514.487       48870.605
D5627    858832.685    14381071.254       69041.145      858832.450    20253823.170       97236.282
D5727    504568.722     8448952.209       21259.010      504568.666    11899232.061       29940.018
D5826   1209874.581    20259238.401      106637.404     1209874.550    28532441.483      150181.059
D5926   1065313.851    17838580.043       82226.419     1065313.758    25123271.359      115805.189
> 2019  1 10  9 51 54.8000000  0 8                     
D3704   1131523.856    18947263.745       49419.983     1131523.707    26684699.542       69603.036
D3903   1233429.073    20653657.906      103030.633     1233428.999    29087929.103      145103.006
D4003    889616.741    14896555.014       87942.551      889616.572    20979800.856      123854.051
D4103    796707.865    13340800.505       34665.039      796707.713    18788740.366       48816.084
D5627    858007.924    14367263.025       68984.202      858007.849    20234375.913       97153.681
D5727    504314.919     8444700.407       21056.765      504314.849    11893244.057       29655.709
D5826   1208601.048    20237910.920      106733.841     1208600.877    28502405.271      150321.243
D5926   1064331.821    17822134.760       82065.102     1064331.806    25100110.321      115574.815
> 2019  1 10  9 51 55.0000000  0 8                     
D3704   1130933.531    18937379.748       49312.671     1130933.321    26670778.935       69452.065
D3903   1232198.599    20633051.780      103004.949     1232198.559    29058908.502      145072.171
D4003    888566.484    14878966.504       87875.191      888566.323    20955030.046      123759.476
D4103    796293.940    13333867.497       34427.235      796293.822    18778977.149       48487.234
D5627    857184.122    14353466.184       68829.100      857183.970    20214945.177       96937.297
D5727    504063.344     8440489.054       20732.893      504063.133    11887312.916       29198.411
D5826   1207326.168    20216564.152      106598.094     1207326.135    28472341.023      150127.013
D5926   1063351.752    17805721.739       82074.748     1063351.788    25076995.358      115592.600
> 2019  1 10  9 51 55.2000000  0 8                     
D3704   1130344.433    18927517.214       49171.357     1130344.309    26656888.522       69249.837
D3903   1230968.286    20612450.790      103050.789     1230968.005    29029894.068      145131.971
D4003    887516.869    14861391.466       87790.356      887516.692    20930278.150      123641.432
D4103    795882.757    13326982.050       34241.710      795882.708    18769279.703       48224.846
D5627    856361.938    14339700.364       68749.781      856361.802    20195557.718       96823.489
D5727    503815.746     8436342.476       20359.944      503815.546    11881473.233       28676.488
D5826   1206053.137    20195244.533      106607.694     1206052.938    28442315.620      150143.962
D5926   1062371.551    17789306.790       81927.504     1062371.272    25053876.838      115387.091
> 2019  1 10  9 51 55.4000000  0 8                     
D3704   1129757.220    18917682.943       49076.237     1129757.106    26643038.554       69117.635
D3903   1229737.611    20591840.632      102977.714     1229737.459    29000867.674      145030.840
D4003    886468.334    14843833.394       87757.613      886468.131    20905549.864      123597.299
D4103    795473.704    13320133.708       34086.152      795473.577    18759634.733       48007.847
D5627    855540.850    14325950.408       68541.508      855540.639    20176193.020       96531.687
D5727    503572.500     8432270.487       20122.021      503572.457    11875737.936       28337.828
D5826   1204779.764    20173922.994      106556.259     1204779.712    28412286.828      150068.474
D5926   1061392.855    17772921.289       81862.130     1061392.619    25030799.419      115291.101
> 2019  1 10  9 51 55.6000000  0 8                     
D3704   1129171.047    18907867.695       48874.750     1129170.893    26629215.027       68834.275
D3903   1228507.543    20571245.089      102973.220     1228507.391    28971861.506      145023.850
D4003    885420.219    14826281.872       87662.012      885419.981    20880830.404      123459.921
D4103    795066.593    13313316.478       33959.240      795066.543    18750033.164       47826.458
D5627    854722.202    14312242.106       68502.324      854721.964    20156886.683       96479.848
D5727    503332.201     8428246.082       19742.833      503332.194    11870070.370       27805.892
D5826   1203507.001    20152611.743      106497.071     1203506.784    28382273.133      149986.678
D5926   1060415.104    17756548.863       81781.075     1060414.889    25007741.199      115176.720
> 2019  1 10  9 51 55.8000000  0 8                     
D3704   1128587.334    18898092.746       48894.277     1128587.258    26615448.172       68860.065
D3903   1227277.756    20550650.445      102880.834     1227277.492    28942856.736      144893.128
D4003    884373.069    14808749.469       87667.444      884372.954    20856138.420      123467.583
D4103    794660.993    13306524.630       33745.089      794660.859    18740467.872       47524.724
D5627    853903.934    14298541.642       68281.686      853903.745    20137590.713       96161.451
D5727    503096.344     8424297.516       19449.590      503096.333    11864509.192       27391.096
D5826   1202235.172    20131312.328      106538.877     1202234.965    28352275.797      150046.900
D5926   1059438.255    17740192.648       81690.674     1059438.123    24984705.855      115051.751
> 2019  1 10  9 51 56.0000000  0 8                     
D3704   1128003.394    18888313.890       48697.532     1128003.178    26601676.159       68582.701
D3903   1226048.906    20530074.279      102961.315     1226048.643    28913878.110      145007.020
D4003    883325.961    14791215.981       87438.426      883325.844    20831444.903      123146.072
D4103    794258.041    13299775.612       33634.165      794257.880    18730962.928       47370.505
D5627    853088.392    14284885.305       68226.614      853088.355    20118358.423       96089.431
D5727    502864.083     8420407.598       19159.968      502863.900    11859030.973       26984.011
D5826   1200962.541    20110004.553      106462.657     1200962.482    28322266.417      149940.210
D5926   1058462.521    17723854.513       81669.038     1058462.494    24961695.505      115017.676
> 2019  1 10  9 51 56.2000000  0 8                     
D3704   1127421.801    18878574.384       48583.413     1127421.591    26587959.619       68421.365
D3903   1224819.072    20509482.016      102878.566     1224818.937    28884876.706      144893.615
D4003    882281.622    14773728.295       87526.720      882281.493    20806815.689      123267.575
D4103    793856.212    13293048.779       33419.479      793856.013    18721488.827       47067.374
D5627    852273.450    14271239.982       68062.999      852273.403    20099140.537       95858.862
D5727    502635.181     8416575.604       18876.793      502635.076    11853634.171       26589.327
D5826   1199690.990    20088712.022      106461.934     1199690.749    28292278.375      149934.990
D5926   1057487.193    17707520.705       81493.571     1057487.030    24938691.970      114774.061
> 2019  1 10  9 51 56.4000000  0 8                     
D3704   1126841.494    18868857.701       48485.930     1126841.264    26574275.346       68288.296
D3903   1223590.229    20488906.303      102876.842     1223590.126    28855897.983      144885.446
D4003    881236.202    14756222.951       87366.152      881236.064    20782162.174      123044.402
D4103    793457.035    13286364.883       33221.603      793456.932    18712075.352       46788.280
D5627    851460.549    14257627.382       67975.395      851460.511    20079968.764       95735.331
D5727    502409.752     8412800.246       18549.671      502409.578    11848316.305       26121.302
D5826   1198419.359    20067419.635      106480.958     1198419.227    28262291.377      149964.404
D5926   1056513.744    17691221.991       81447.916     1056513.565    24915737.158      114709.080
> 2019  1 10  9 51 56.6000000  0 8                     
D3704   1126262.322    18859160.515       48397.001     1126262.064    26560617.687       68160.254
D3903   1222361.636    20468330.934      102873.678     1222361.454    28826920.894      144883.875
D4003    880192.685    14738749.721       87350.715      880192.465    20757553.294      123021.060
D4103    793060.276    13279720.563       33114.919      793060.214    18702717.696       46638.403
D5627    850648.537    14244032.303       67832.332      850648.442    20060821.698       95532.597
D5727    502188.193     8409090.312       18244.390      502188.169    11843092.045       25697.099
D5826   1197147.692    20046123.443      106404.553     1197147.432    28232298.497      149858.237
D5926   1055540.962    17674932.408       81323.531     1055540.743    24892795.342      114532.205
> 2019  1 10  9 51 56.8000000  0 8                     
D3704   1125684.245    18849481.115       48261.759     1125684.133    26546985.636       67970.191
D3903   1221132.886    20447756.198      102817.876     1221132.629    28797944.119      144807.059
D4003    879149.501    14721279.578       87254.630      879149.318    20732949.082      122887.072
D4103    792664.807    13273097.579       32903.578      792664.561    18693390.015       46338.008
D5627    849838.401    14230465.836       67677.301      849838.283    20041715.179       95311.962
D5727    501970.192     8405441.433       17886.530      501970.234    11837952.625       25191.349
D5826   1195876.652    20024842.533      106393.929     1195876.482    28202326.849      149843.040
D5926   1054569.619    17658667.702       81316.436     1054569.504    24869888.901      114523.394
> 2019  1 10  9 51 57.0000000  0 8                     
D3704   1125107.809    18839828.763       48136.168     1125107.573    26533391.598       67793.661
D3903   1219904.882    20427192.623      102823.950     1219904.715    28768982.707      144812.660
D4003    878107.201    14703828.652       87169.587      878107.012    20708371.667      122767.488
D4103    792271.730    13266516.863       32741.179      792271.567    18684122.414       46114.038
D5627    849030.069    14216930.376       67648.608      849030.087    20022652.787       95276.676
D5727    501756.707     8401864.127       17640.870      501756.602    11832914.355       24844.459
D5826   1194605.851    20003563.747      106329.538     1194605.696    28172358.241      149749.644
D5926   1053598.352    17642404.415       81182.761     1053598.199    24846984.222      114334.138
> 2019  1 10  9 51 57.2000000  0 8                     
D3704   1124533.004    18830201.529       48017.275     1124532.804    26519832.866       67624.215
D3903   1218676.805    20406627.833      102845.916     1218676.566    28740020.175      144845.935
D4003    877065.913    14686394.735       87163.792      877065.973    20683818.170      122759.101
D4103    791880.510    13259968.628       32576.502      791880.524    18674899.606       45876.258
D5627    848222.203    14203400.655       67400.813      848222.062    20003597.451       94923.128
D5727    501545.938     8398335.953       17333.152      501545.817    11827945.463       24410.042
D5826   1193336.008    19982297.839      106393.752     1193335.734    28142408.312      149841.464
D5926   1052628.771    17626167.862       81072.759     1052628.657    24824117.394      114182.249
> 2019  1 10  9 51 57.4000000  0 8                     
D3704   1123959.301    18820598.074       47934.008     1123959.225    26506308.023       67511.125
D3903   1217448.309    20386058.650      102795.211     1217448.083    28711050.988      144770.371
D4003    876024.935    14668961.976       87018.652      876024.840    20659266.350      122554.712
D4103    791491.571    13253453.327       32374.421      791491.432    18665724.354       45595.465
D5627    847417.112    14189920.492       67302.342      847417.100    19984612.826       94787.758
D5727    501338.917     8394869.323       16972.185      501338.833    11823063.455       23903.182
D5826   1192065.117    19961019.089      106281.040     1192065.008    28112440.019      149682.764
D5926   1051660.390    17609953.311       81041.219     1051660.187    24801280.945      114134.794
> 2019  1 10  9 51 57.6000000  0 8                     
D3704   1123386.781    18811011.273       47774.836     1123386.739    26492805.798       67284.157
D3903   1216220.537    20365499.608      102706.876     1216220.349    28682096.914      144649.797
D4003    874985.496    14651558.246       86984.756      874985.622    20634755.407      122504.635
D4103    791104.843    13246978.443       32218.000      791104.810    18656605.261       45375.458
D5627    846613.315    14176460.024       67231.049      846613.094    19965655.274       94684.937
D5727    501136.224     8391474.886       16712.033      501136.234    11818282.819       23537.374
D5826   1190795.740    19939762.881      106293.884     1190795.636    28082503.467      149698.094
D5926   1050692.538    17593745.067       80952.507     1050692.431    24778453.986      114011.565
> 2019  1 10  9 51 57.8000000  0 8                     
D3704   1122816.307    18801456.305       47683.298     1122816.034    26479348.966       67157.671
D3903   1214993.773    20344958.233      102698.169     1214993.727    28653166.955      144637.448
D4003    873946.843    14634161.295       86905.244      873946.592    20610254.480      122395.338
D4103    790720.140    13240534.843       32082.137      790719.879    18647530.170       45186.926
D5627    845810.181    14163013.814       67086.324      845810.113    19946718.287       94478.385
D5727    500936.459     8388132.479       16438.638      500936.565    11813575.344       23148.972
D5826   1189526.216    19918504.104      106293.763     1189526.031    28052563.848      149702.940
D5926   1049725.659    17577554.565       80838.757     1049725.562    24755651.673      113851.323
> 2019  1 10  9 51 58.0000000  0 8                     
D3704   1122246.741    18791919.646       47551.876     1122246.391    26465917.432       66968.542
D3903   1213767.258    20324418.599      102720.939     1213766.937    28624239.465      144667.233
D4003    872908.626    14616780.246       86846.569      872908.584    20585775.413      122311.963
D4103    790336.801    13234118.416       31836.426      790336.692    18638492.785       44835.257
D5627    845009.048    14149596.549       66945.769      845008.830    19927822.610       94289.142
D5727    500740.206     8384844.752       16043.188      500740.209    11808945.549       22598.809
D5826   1188256.538    19897245.352      106218.660     1188256.533    28022623.260      149593.593
D5926   1048759.949    17561386.814       80690.622     1048759.928    24732881.408      113640.229
> 2019  1 10  9 51 58.2000000  0 8                     
D3704   1121678.689    18782409.271       47479.450     1121678.553    26452523.724       66868.306
D3903   1212540.283    20303874.411      102694.423     1212540.157    28595306.018      144630.556
D4003    871871.450    14599410.932       86736.516      871871.252    20561313.020      122154.775
D4103    789956.584    13227751.131       31788.514      789956.499    18629525.733       44765.908
D5627    844209.477    14136207.395       66828.113      844209.204    19908964.781       94116.588
D5727    500548.728     8381636.114       15717.166      500548.645    11804425.787       22134.614
D5826   1186988.048    19876001.620      106219.401     1186987.790    27992704.541      149595.052
D5926   1047796.236    17545248.690       80712.209     1047796.232    24710153.362      113671.903
> 2019  1 10  9 51 58.4000000  0 8                     
D3704   1121111.626    18772913.381       47351.017     1121111.491    26439150.062       66690.898
D3903   1211313.689    20283335.527      102670.851     1211313.590    28566379.907      144600.113
D4003    870835.500    14582063.629       86680.706      870835.341    20536882.065      122079.144
D4103    789577.035    13221393.428       31487.745      789576.962    18620572.552       44348.465
D5627    843411.212    14122841.773       66660.392      843410.999    19890141.464       93881.227
D5727    500360.856     8378492.681       15536.102      500360.901    11799998.865       21879.383
D5826   1185719.376    19854757.739      106164.027     1185719.264    27962785.531      149521.025
D5926   1046832.272    17529106.248       80536.459     1046832.166    24687418.982      113428.430
> 2019  1 10  9 51 58.6000000  0 8                     
D3704   1120546.157    18763443.177       47163.342     1120546.057    26425811.883       66419.606
D3903   1210087.428    20262801.356      102619.460     1210087.296    28537459.885      144525.484
D4003    869800.240    14564727.487       86659.713      869800.080    20512466.236      122048.223
D4103    789200.915    13215095.879       31358.466      789200.790    18611702.859       44163.476
D5627    842615.146    14109509.694       66591.760      842614.939    19871365.218       93783.842
D5727    500175.307     8375385.461       15053.210      500175.131    11795622.988       21200.800
D5826   1184451.242    19833524.934      106180.348     1184450.991    27932881.326      149539.005
D5926   1045870.287    17512998.956       80523.980     1045870.169    24664733.296      113403.606
> 2019  1 10  9 51 58.8000000  0 8                     
D3704   1119982.930    18754010.509       47127.555     1119982.757    26412527.961       66375.489
D3903   1208861.755    20242277.464      102624.408     1208861.625    28508554.788      144533.767
D4003    868765.113    14547395.545       86506.795      868764.923    20488056.591      121836.791
D4103    788826.432    13208824.185       31207.596      788826.211    18602870.164       43954.724
D5627    841819.509    14096191.342       66408.808      841819.424    19852608.450       93534.738
D5727    499995.613     8372374.819       14860.410      499995.298    11791382.828       20927.774
D5826   1183182.955    19812288.864      106085.867     1183182.856    27902973.525      149408.690
D5926   1044908.666    17496894.160       80408.587     1044908.294    24642052.574      113245.108
> 2019  1 10  9 51 59.0000000  0 8                     
D3704   1119419.803    18744584.998       46951.486     1119419.735    26399252.864       66124.396
D3903   1207635.931    20221752.583      102628.648     1207635.828    28479648.034      144538.609
D4003    867731.837    14530094.186       86532.049      867731.753    20463689.233      121867.823
D4103    788453.563    13202582.666       31046.314      788453.386    18594079.219       43720.483
D5627    841026.469    14082909.581       66291.597      841026.186    19833901.502       93358.990
D5727    499818.047     8369402.737       14516.811      499817.952    11787197.273       20445.508
D5826   1181916.172    19791071.691      106191.130     1181915.849    27873091.787      149553.777
D5926   1043948.354    17480812.443       80314.427     1043947.945    24619403.553      113112.535
> 2019  1 10  9 51 59.2000000  0 8                     
D3704   1118859.038    18735194.701       46879.467     1118858.937    26386027.984       66021.348
D3903   1206410.007    20201226.853      102526.239     1206410.068    28450740.313      144395.079
D4003    866698.231    14512787.776       86353.967      866698.124    20439315.669      121614.670
D4103    788082.916    13196373.403       30833.141      788082.728    18585335.122       43429.442
D5627    840234.722    14069651.261       66192.583      840234.553    19815229.704       93224.823
D5727    499644.681     8366499.374       14173.295      499644.484    11783108.172       19961.290
D5826   1180647.721    19769833.465      106033.958     1180647.730    27843181.031      149334.574
D5926   1042988.996    17464749.557       80227.670     1042988.628    24596781.046      112990.304
> 2019  1 10  9 51 59.4000000  0 8                     
D3704   1118299.120    18725818.807       46751.698     1118298.905    26372823.715       65841.382
D3903   1205185.674    20180721.605      102596.593     1205185.520    28421861.297      144494.887
D4003    865666.895    14495516.983       86356.208      865666.845    20414992.735      121622.811
D4103    787714.452    13190206.775       30678.887      787714.425    18576649.234       43204.508
D5627    839444.054    14056412.745       66007.788      839444.031    19796584.740       92962.073
D5727    499475.461     8363664.715       13843.990      499475.324    11779115.913       19497.598
D5826   1179381.304    19748626.674      106086.539     1179381.144    27813314.116      149410.551
D5926   1042030.711    17448704.023       80055.508     1042030.567    24574182.985      112748.113
> 2019  1 10  9 51 59.6000000  0 8                     
D3704   1117740.895    18716468.468       46645.720     1117740.593    26359655.439       65696.507
D3903   1203960.234    20160202.287      102507.277     1203960.061    28392962.320      144366.475
D4003    864635.356    14478245.741       86275.920      864635.346    20390668.172      121507.352
D4103    787348.026    13184070.998       30501.792      787348.037    18568008.332       42956.900
D5627    838655.647    14043211.187       65921.577      838655.622    19777992.325       92842.627
D5727    499309.961     8360895.917       13639.996      499309.907    11775216.394       19211.182
D5826   1178114.163    19727409.366      106003.309     1178114.031    27783432.006      149291.572
D5926   1041074.613    17432692.922       80109.079     1041074.430    24551633.362      112821.095
> 2019  1 10  9 51 59.8000000  0 8                     
D3704   1117183.810    18707139.323       46508.574     1117183.505    26346516.137       65501.985
D3903   1202735.895    20139700.831      102512.090     1202735.829    28364089.024      144371.763
D4003    863604.934    14460990.557       86163.682      863604.788    20366366.702      121352.492
D4103    786983.746    13177970.640       30337.015      786983.724    18559416.952       42729.177
D5627    837868.357    14030026.872       65791.306      837868.272    19759423.800       92657.942
D5727    499147.144     8358167.918       13259.797      499147.090    11771374.157       18674.016
D5826   1176848.030    19706208.704      105972.867     1176847.872    27753573.692      149249.912
D5926   1040117.694    17416671.106       79919.962     1040117.687    24529069.143      112557.669
> 2019  1 10  9 52  0.0000000  0 8                     
D3704   1116628.152    18697837.609       46419.298     1116627.990    26333415.740       65373.059
D3903   1201511.636    20119198.413      102550.442     1201511.382    28335214.672      144431.265
D4003    862575.906    14443757.820       86113.259      862575.695    20342096.204      121278.520
D4103    786621.466    13171903.237       30110.426      786621.323    18550871.117       42404.144
D5627    837082.599    14016868.611       65606.368      837082.296    19740892.211       92398.382
D5727    498988.845     8355515.959       12925.480      498988.625    11767639.354       18202.500
D5826   1175582.193    19685014.131      106023.902     1175582.146    27723723.709      149315.770
D5926   1039163.160    17400687.113       79874.525     1039162.902    24506557.610      112492.155
> 2019  1 10  9 52  0.2000000  0 8                     
D3704   1116073.676    18688553.749       46238.321     1116073.610    26320341.128       65120.192
D3903   1200286.648    20098688.325      102384.563     1200286.529    28306328.419      144194.838
D4003    861547.225    14426535.169       86073.650      861547.201    20317840.500      121222.656
D4103    786261.766    13165881.151       29979.245      786261.631    18542390.288       42220.446
D5627    836298.949    14003747.337       65505.717      836298.805    19722412.535       92251.870
D5727    498834.323     8352930.863       12680.181      498834.345    11763998.854       17858.564
D5826   1174316.063    19663809.350      105935.712     1174315.844    27693860.555      149199.458
D5926   1038209.050    17384712.208       79770.939     1038209.042    24484059.178      112348.956
> 2019  1 10  9 52  0.4000000  0 8                     
D3704   1115521.369    18679306.085       46127.975     1115521.368    26307317.090       64967.110
D3903   1199063.768    20078211.412      102487.150     1199063.570    28277489.451      144338.791
D4003    860519.424    14409320.438       85960.879      860519.221    20293595.969      121064.876
D4103    785903.859    13159885.302       29805.388      785903.658    18533946.198       41978.059
D5627    835516.536    13990646.194       65379.531      835516.454    19703962.161       92081.837
D5727    498682.768     8350394.827       12270.913      498682.941    11760427.141       17281.912
D5826   1173050.556    19642622.208      105872.446     1173050.444    27664020.664      149105.705
D5926   1037256.399    17368758.021       79633.841     1037256.101    24461589.387      112150.813
> 2019  1 10  9 52  0.6000000  0 8                     
D3704   1114970.470    18670080.490       46088.642     1114970.278    26294323.668       64910.331
D3903   1197839.730    20057713.982      102387.539     1197839.511    28248621.693      144198.919
D4003    859492.632    14392128.263       85890.123      859492.567    20269382.993      120965.543
D4103    785547.695    13153924.225       29638.095      785547.660    18525550.587       41741.595
D5627    834735.681    13977570.287       65177.843      834735.511    19685545.794       91794.251
D5727    498536.235     8347940.644       12041.735      498536.301    11756970.759       16959.945
D5826   1171786.056    19621447.719      105937.561     1171785.912    27634199.523      149201.203
D5926   1036305.307    17352831.253       79632.446     1036305.089    24439159.225      112153.991
> 2019  1 10  9 52  0.8000000  0 8                     
D3704   1114420.049    18660862.762       45924.763     1114419.911    26281341.602       64678.783
D3903   1196616.948    20037236.475      102383.250     1196616.620    28219781.909      144192.132
D4003    858466.611    14374950.238       85775.709      858466.666    20245189.885      120801.370
D4103    785193.663    13147996.606       29457.869      785193.588    18517202.268       41489.825
D5627    833957.165    13964534.719       65191.693      833957.050    19667186.943       91813.498
D5727    498392.468     8345532.297       11629.008      498392.332    11753578.770       16376.059
D5826   1170520.848    19600260.206      105893.161     1170520.677    27604359.282      149135.727
D5926   1035354.131    17336904.763       79524.231     1035353.982    24416728.426      111999.610
> 2019  1 10  9 52  1.0000000  0 8                     
D3704   1113871.522    18651677.809       45819.482     1113871.349    26268405.845       64529.243
D3903   1195393.923    20016759.825      102371.926     1195393.756    28190943.483      144179.749
D4003    857442.209    14357795.096       85747.618      857442.171    20221029.611      120764.896
D4103    784841.951    13142105.032       29269.805      784841.783    18508904.303       41220.173
D5627    833178.489    13951496.380       64972.053      833178.430    19648824.244       91505.506
D5727    498253.678     8343206.495       11453.300      498253.419    11750303.558       16129.751
D5826   1169256.162    19579081.574      105838.921     1169255.875    27574532.137      149059.130
D5926   1034404.129    17320999.917       79425.006     1034404.029    24394328.504      111861.708
> 2019  1 10  9 52  1.2000000  0 8                     
D3704   1113324.267    18642513.913       45652.374     1113324.148    26255499.996       64297.487
D3903   1194171.165    19996285.439      102357.307     1194170.875    28162107.533      144156.430
D4003    856418.117    14340645.573       85653.948      856417.922    20196876.632      120632.310
D4103    784492.388    13136251.071       29102.723      784492.193    18500660.268       40988.389
D5627    832402.463    13938501.970       64853.841      832402.216    19630523.142       91336.441
D5727    498116.869     8340915.835       11007.717      498116.744    11747077.608       15507.471
D5826   1167991.811    19557913.790      105755.809     1167991.741    27544720.311      148944.428
D5926   1033455.624    17305114.916       79357.660     1033455.425    24371956.163      111762.254
> 2019  1 10  9 52  1.4000000  0 8                     
D3704   1112779.007    18633383.438       45635.807     1112778.731    26242640.499       64272.584
D3903   1192948.657    19975813.978      102334.841     1192948.487    28133276.247      144123.901
D4003    855395.027    14323514.783       85621.905      855394.963    20172750.170      120586.752
D4103    784144.686    13130430.527       28916.691      784144.605    18492462.590       40722.734
D5627    831627.806    13925531.201       64712.837      831627.890    19612255.854       91140.512
D5727    497985.263     8338714.292       10744.606      497985.217    11743976.114       15131.147
D5826   1166728.737    19536762.628      105880.870     1166728.500    27514931.425      149117.614
D5926   1032507.724    17289243.384       79156.422     1032507.663    24349603.712      111478.849
> 2019  1 10  9 52  1.6000000  0 8                     
D3704   1112233.702    18624256.277       45409.466     1112233.849    26229785.982       63951.139
D3903   1191726.406    19955347.010      102280.898     1191726.150    28104451.467      144049.124
D4003    854372.374    14306390.402       85500.141      854372.270    20148632.819      120415.947
D4103    783799.360    13124647.188       28759.562      783799.204    18484318.043       40506.537
D5627    830854.896    13912588.634       64527.223      830854.887    19594027.752       90877.945
D5727    497857.005     8336565.371       10484.680      497856.890    11740949.884       14764.718
D5826   1165464.270    19515586.454      105739.274     1165463.889    27485107.902      148919.122
D5926   1031562.324    17273412.100       79140.741     1031562.254    24327307.942      111459.505
> 2019  1 10  9 52  1.8000000  0 8                     
D3704   1111691.598    18615174.383       45313.694     1111691.334    26216995.754       63819.573
D3903   1190504.622    19934890.830      102317.853     1190504.469    28075641.642      144101.737
D4003    853351.219    14289290.374       85434.062      853350.982    20124549.630      120322.464
D4103    783455.635    13118895.276       28518.047      783455.669    18476216.736       40162.428
D5627    830084.232    13899683.189       64460.406      830083.921    19575852.163       90782.726
D5727    497731.806     8334468.435       10052.227      497731.710    11737996.941       14156.907
D5826   1164201.203    19494438.599      105770.566     1164200.985    27455324.078      148968.202
D5926   1030617.141    17257583.952       79012.714     1030616.947    24305016.041      111279.002
> 2019  1 10  9 52  2.0000000  0 8                     
D3704   1111150.282    18606111.645       45223.349     1111150.191    26204231.840       63691.770
D3903   1189282.789    19914427.260      102229.510     1189282.554    28046821.295      143974.741
D4003    852330.696    14272203.561       85401.997      852330.623    20100485.137      120278.298
D4103    783115.328    13113191.667       28414.288      783115.056    18468184.250       40019.465
D5627    829314.301    13886791.108       64340.358      829314.243    19557695.618       90615.507
D5727    497611.690     8332457.989        9792.850      497611.881    11735165.559       13793.759
D5826   1162937.617    19473284.486      105643.243     1162937.661    27425530.437      148777.639
D5926   1029673.393    17241781.409       78967.947     1029673.300    24282760.241      111217.054
> 2019  1 10  9 52  2.2000000  0 8                     
D3704   1110610.169    18597066.975       45111.382     1110610.007    26191493.486       63530.078
D3903   1188061.565    19893981.358      102272.947     1188061.548    28018026.346      144038.229
D4003    851310.642    14255123.162       85231.786      851310.610    20076429.478      120036.200
D4103    782775.739    13107508.809       28266.247      782775.760    18460180.357       39808.064
D5627    828545.944    13873923.036       64185.776      828545.771    19539572.516       90397.299
D5727    497494.728     8330499.419        9471.995      497494.588    11732406.808       13338.267
D5826   1161676.232    19452155.838      105683.453     1161676.029    27395774.910      148846.642
D5926   1028730.112    17225987.819       78885.740     1028730.089    24260516.830      111098.130
> 2019  1 10  9 52  2.4000000  0 8                     
D3704   1110071.403    18588044.698       44947.629     1110071.132    26178787.470       63305.137
D3903   1186840.084    19873526.768      102187.583     1186840.003    27989218.700      143918.299
D4003    850292.601    14238076.805       85244.805      850292.527    20052422.238      120056.348
D4103    782438.262    13101855.560       28041.498      782438.075    18452218.745       39495.682
D5627    827779.359    13861085.881       63967.218      827779.190    19521493.057       90089.472
D5727    497381.673     8328605.020        9133.013      497381.547    11729739.154       12862.236
D5826   1160413.858    19431019.147      105712.284     1160413.674    27366005.581      148881.702
D5926   1027787.911    17210210.671       78730.853     1027787.894    24238297.204      110883.708
> 2019  1 10  9 52  2.6000000  0 8                     
D3704   1109534.524    18579055.173       44855.282     1109534.342    26166126.443       63169.552
D3903   1185619.645    19853089.252      102235.785     1185619.375    27960435.041      143988.074
D4003    849274.580    14221027.844       85164.395      849274.436    20028410.968      119942.676
D4103    782103.274    13096247.260       27810.422      782103.219    18444319.608       39164.045
D5627    827015.133    13848292.438       63967.853      827015.036    19503475.162       90091.570
D5727    497272.441     8326778.418        8901.916      497272.396    11727166.707       12538.418
D5826   1159151.089    19409876.690      105556.143     1159151.068    27336229.241      148660.519
D5926   1026847.633    17194464.501       78674.180     1026847.436    24216120.462      110803.424
> 2019  1 10  9 52  2.8000000  0 8                     
D3704   1108998.699    18570084.116       44725.182     1108998.612    26153492.532       62991.136
D3903   1184398.378    19832642.095      102138.202     1184398.347    27931637.426      143845.429
D4003    848257.386    14203994.965       85040.502      848257.144    20004422.433      119768.751
D4103    781771.210    13090685.175       27737.597      781771.043    18436486.799       39066.173
D5627    826251.260    13835498.867       63770.270      826251.074    19485456.848       89811.387
D5727    497166.299     8324998.034        8494.789      497166.075    11724659.023       11963.548
D5826   1157890.304    19388765.462      105634.556     1157890.114    27306497.137      148771.787
D5926   1025907.991    17178729.665       78607.116     1025907.825    24193959.777      110705.789
> 2019  1 10  9 52  3.0000000  0 8                     
D3704   1108464.642    18561139.080       44648.151     1108464.412    26140894.305       62882.643
D3903   1183178.664    19812214.454      102161.164     1183178.406    27902868.340      143881.736
D4003    847241.650    14186986.864       84958.771      847241.456    19980468.683      119650.590
D4103    781439.745    13085137.656       27438.641      781439.769    18428673.565       38642.999
D5627    825489.499    13822744.813       63579.724      825489.411    19467494.571       89543.814
D5727    497064.749     8323299.077        8244.115      497064.777    11722266.314       11609.494
D5826   1156628.704    19367638.551      105520.127     1156628.737    27276742.780      148610.137
D5926   1024969.125    17163008.242       78458.043     1024968.781    24171818.620      110499.926
> 2019  1 10  9 52  3.2000000  0 8                     
D3704   1107931.123    18552209.450       44439.385     1107931.118    26128317.776       62584.113
D3903   1181958.216    19791782.221      102080.983     1181958.104    27874091.993      143768.282
D4003    846226.973    14169995.110       84918.634      846226.691    19956538.565      119599.645
D4103    781112.213    13079649.928       27356.765      781112.003    18420944.965       38529.355
D5627    824729.994    13810028.868       63413.788      824729.972    19449585.808       89308.442
D5727    496966.180     8321650.253        7914.198      496966.325    11719944.415       11147.813
D5826   1155368.416    19346534.525      105553.453     1155368.303    27247020.752      148658.039
D5926   1024031.915    17147316.633       78372.318     1024031.842    24149718.635      110375.457
> 2019  1 10  9 52  3.4000000  0 8                     
D3704   1107400.330    18543321.572       44352.770     1107400.494    26115800.954       62465.343
D3903   1180739.057    19771366.025      102137.711     1180738.967    27845338.336      143846.133
D4003    845212.672    14153011.383       84793.317      845212.521    19932618.636      119421.209
D4103    780785.292    13074178.575       27147.289      780785.287    18413239.094       38233.780
D5627    823972.801    13797346.111       63389.411      823972.509    19431724.120       89275.045
D5727    496871.708     8320067.414        7550.349      496871.676    11717714.852       10633.201
D5826   1154107.854    19325423.835      105484.511     1154107.474    27217289.145      148562.621
D5926   1023095.866    17131642.169       78342.170     1023095.679    24127643.543      110335.093
> 2019  1 10  9 52  3.6000000  0 8                     
D3704   1106870.788    18534451.018       44270.923     1106870.637    26103307.885       62351.036
D3903   1179519.220    19750938.483      102060.394     1179519.151    27816569.110      143736.051
D4003    844199.837    14136052.720       84781.110      844199.738    19908734.394      119400.086
D4103    780461.058    13068749.117       27008.155      780461.008    18405592.338       38036.041
D5627    823215.514    13784668.229       63233.069      823215.510    19413869.111       89053.411
D5727    496781.749     8318557.344        7233.457      496781.575    11715588.212       10186.076
D5826   1152847.782    19304326.932      105481.010     1152847.739    27187576.620      148558.576
D5926   1022160.282    17115973.735       78147.092     1022160.013    24105576.524      110057.767
> 2019  1 10  9 52  3.8000000  0 8                     
D3704   1106342.104    18525596.834       44117.068     1106341.760    26090837.678       62133.821
D3903   1178300.269    19730526.404      102061.970     1178299.884    27787821.900      143743.746
D4003    843187.229    14119096.498       84623.569      843187.151    19884854.377      119183.275
D4103    780138.448    13063347.486       26796.858      780138.447    18397985.130       37739.300
D5627    822460.409    13772021.615       63052.110      822460.160    19396058.428       88803.597
D5727    496695.183     8317110.653        6990.017      496695.097    11713550.997        9846.970
D5826   1151587.891    19283230.730      105465.936     1151587.669    27157864.905      148532.852
D5926   1021226.992    17100344.317       78128.591     1021226.645    24083564.971      110035.545
> 2019  1 10  9 52  4.0000000  0 8                     
D3704   1105815.055    18516773.420       44014.460     1105815.010    26078410.914       61986.190
D3903   1177081.073    19710114.010      102014.872     1177080.971    27759073.150      143673.089
D4003    842176.523    14102171.784       84661.487      842176.340    19861017.722      119232.684
D4103    779818.386    13057988.114       26578.240      779818.440    18390437.270       37430.361
D5627    821707.231    13759411.193       62926.045      821707.066    19378297.709       88622.160
D5727    496611.691     8315712.649        6621.442      496611.576    11711581.603        9324.556
D5826   1150328.197    19262137.543      105498.838     1150328.157    27128158.335      148578.624
D5926   1020293.478    17084718.599       78064.085     1020293.455    24061557.862      109942.369
> 2019  1 10  9 52  4.2000000  0 8                     
D3704   1105289.392    18507970.528       43903.223     1105289.333    26066013.676       61834.063
D3903   1175862.688    19689711.035      101951.421     1175862.641    27730338.533      143583.971
D4003    841165.240    14085239.487       84478.026      841165.136    19837171.185      118976.579
D4103    779500.992    13052672.466       26474.523      779500.867    18382951.197       37288.957
D5627    820955.699    13746825.984       62762.199      820955.665    19360573.277       88393.064
D5727    496532.532     8314388.361        6232.814      496532.529    11709716.692        8776.618
D5826   1149068.154    19241037.775      105308.599     1149067.987    27098442.610      148314.687
D5926   1019361.275    17069105.782       77942.520     1019361.164    24039569.388      109772.252
> 2019  1 10  9 52  4.4000000  0 8                     
D3704   1104765.144    18499189.884       43775.088     1104764.713    26053646.863       61648.771
D3903   1174644.993    19669320.751      102007.832     1174644.752    27701621.738      143663.853
D4003    840156.364    14068343.882       84431.693      840156.203    19813375.869      118912.351
D4103    779184.790    13047377.562       26214.641      779184.721    18375493.406       36918.364
D5627    820206.015    13734273.544       62667.264      820205.825    19342894.664       88257.240
D5727    496458.048     8313141.798        6042.025      496458.029    11707961.368        8509.828
D5826   1147810.339    19219976.055      105369.435     1147810.136    27068779.672      148399.660
D5926   1018430.276    17053517.278       77711.186     1018430.151    24017614.938      109445.420
> 2019  1 10  9 52  4.6000000  0 8                     
D3704   1104242.182    18490434.866       43597.922     1104242.035    26041317.109       61405.244
D3903   1173426.524    19648919.185      101908.563     1173426.550    27672888.968      143527.441
D4003    839147.791    14051457.543       84307.871      839147.798    19789593.399      118732.925
D4103    778871.814    13042134.634       26062.672      778871.572    18368109.733       36702.948
D5627    819457.592    13721740.091       62518.178      819457.434    19325243.216       88049.291
D5727    496386.078     8311933.393        5652.689      496385.941    11706259.403        7962.365
D5826   1146551.856    19198902.168      105412.527     1146551.708    27039099.740      148459.478
D5926   1017502.063    17037975.040       77728.664     1017501.995    23995725.854      109469.935
> 2019  1 10  9 52  4.8000000  0 8                     
D3704   1103721.463    18481715.281       43551.752     1103721.235    26029036.060       61335.988
D3903   1172209.387    19628537.472      101967.840     1172209.355    27644183.480      143606.549
D4003    838140.780    14034595.969       84232.392      838140.887    19765846.814      118632.943
D4103    778560.485    13036922.099       25864.060      778560.279    18360769.144       36428.953
D5627    818710.776    13709236.455       62359.012      818710.652    19307633.358       87824.002
D5727    496318.462     8310802.855        5404.990      496318.337    11704666.930        7609.961
D5826   1145292.777    19177819.663      105299.741     1145292.623    27009407.845      148299.953
D5926   1016573.760    17022429.308       77704.883     1016573.485    23973831.867      109436.933
> 2019  1 10  9 52  5.0000000  0 8                     
D3704   1103201.155    18473004.931       43350.108     1103201.139    26016768.863       61052.273
D3903   1170991.621    19608143.904      101867.024     1170991.461    27615462.170      143468.563
D4003    837134.914    14017749.490       84243.841      837134.731    19742120.225      118646.012
D4103    778251.447    13031749.287       25747.968      778251.318    18353483.353       36264.641
D5627    817966.064    13696764.653       62213.170      817965.788    19290068.557       87620.892
D5727    496253.957     8309721.857        5028.951      496253.989    11703144.937        7085.557
D5826   1144035.115    19156759.715      105263.825     1144034.842    26979747.854      148249.482
D5926   1015645.698    17006888.331       77459.745     1015645.429    23951944.480      109092.870
> 2019  1 10  9 52  5.2000000  0 8                     
D3704   1102683.392    18464334.910       43309.653     1102683.343    26004558.408       60995.068
D3903   1169774.776    19587770.499      101909.181     1169774.694    27586768.457      143523.273
D4003    836128.662    14000900.722       84151.952      836128.542    19718391.023      118515.396
D4103    777943.970    13026599.694       25590.865      777943.832    18346230.425       36040.233
D5627    817222.793    13684322.019       62119.211      817222.877    19272544.379       87483.596
D5727    496193.796     8308716.067        4688.103      496193.628    11701727.826        6600.275
D5826   1142777.724    19135706.950      105239.153     1142777.791    26950097.958      148217.486
D5926   1014720.460    16991396.382       77516.127     1014720.307    23930125.906      109169.258
> 2019  1 10  9 52  5.4000000  0 8                     
D3704   1102166.193    18455672.979       43131.448     1102166.069    25992359.395       60744.730
D3903   1168557.558    19567388.663      101842.005     1168557.497    27558063.803      143430.465
D4003    835123.425    13984070.332       84012.951      835123.248    19694687.944      118320.908
D4103    777638.308    13021481.521       25331.882      777638.221    18339022.378       35674.397
D5627    816481.080    13671898.177       61916.418      816480.967    19255047.660       87202.984
D5727    496137.962     8307778.447        4375.965      496137.720    11700407.771        6165.560
D5826   1141520.833    19114659.119      105253.319     1141520.743    26920454.461      148234.435
D5926   1013794.723    16975893.157       77272.979     1013794.447    23908292.055      108830.276
> 2019  1 10  9 52  5.6000000  0 8                     
D3704   1101650.985    18447046.689       43047.781     1101650.865    25980210.449       60630.346
D3903   1167341.270    19547020.262      101847.981     1167341.085    27529377.710      143440.721
D4003    834119.984    13967267.741       83934.559      834120.045    19671023.762      118211.755
D4103    777335.829    13016415.144       25193.818      777335.734    18331887.499       35482.514
D5627    815741.549    13659514.893       61752.837      815741.364    19237607.063       86968.911
D5727    496085.675     8306903.254        4093.296      496085.431    11699174.659        5761.545
D5826   1140263.730    19093608.456      105217.927     1140263.446    26890807.574      148182.906
D5926   1012871.816    16960438.561       77283.953     1012871.460    23886525.999      108843.036
> 2019  1 10  9 52  5.8000000  0 8                     
D3704   1101136.932    18438437.133       42859.523     1101136.641    25968084.380       60358.625
D3903   1166124.749    19526650.666      101743.696     1166124.507    27500689.565      143290.657
D4003    833117.586    13950480.830       83813.865      833117.343    19647381.411      118040.026
D4103    777034.952    13011376.381       24945.236      777034.685    18324790.996       35134.292
D5627    815003.811    13647164.326       61703.369      815003.759    19220213.281       86903.302
D5727    496036.840     8306084.594        3751.735      496036.560    11698022.350        5284.780
D5826   1139007.040    19072564.870      105115.429     1139006.918    26861170.993      148042.834
D5926   1011948.611    16944981.770       77145.168     1011948.492    23864757.392      108650.573
> 2019  1 10  9 52  6.0000000  0 8                     
D3704   1100624.885    18429865.229       42792.987     1100624.792    25956012.655       60268.339
D3903   1164909.530    19506301.927      101864.963     1164909.550    27472031.434      143465.076
D4003    832116.421    13933718.057       83801.773      832116.352    19623773.406      118023.123
D4103    776736.868    13006387.334       24855.388      776736.870    18317764.138       35004.489
D5627    814266.890    13634823.652       61488.136      814266.822    19202832.621       86596.662
D5727    495991.908     8305334.247        3405.904      495991.762    11696965.394        4795.888
D5826   1137751.562    19051541.784      105149.398     1137751.421    26831562.426      148086.246
D5926   1011027.134    16929552.737       77035.642     1011026.975    23843027.277      108492.363
> 2019  1 10  9 52  6.2000000  0 8                     
D3704   1100113.772    18421306.631       42624.313     1100113.706    25943958.987       60028.171
D3903   1163692.937    19485928.935      101748.315     1163692.698    27443338.419      143296.468
D4003    831115.555    13916957.702       83716.399      831115.534    19600168.781      117902.769
D4103    776440.053    13001416.256       24638.249      776439.903    18310763.240       34700.775
D5627    813532.475    13622526.025       61394.111      813532.224    19185513.288       86466.727
D5727    495951.240     8304653.066        3108.307      495951.266    11696006.217        4377.307
D5826   1136495.676    19030511.905      105119.970     1136495.551    26801945.177      148049.708
D5926   1010107.115    16914145.608       76910.557     1010106.866    23821328.805      108317.611
> 2019  1 10  9 52  6.4000000  0 8                     
D3704   1099604.770    18412781.769       42608.998     1099604.560    25931953.353       60013.128
D3903   1162477.664    19465579.272      101670.474     1162477.412    27414679.125      143190.643
D4003    830115.825    13900214.422       83633.216      830115.580    19576588.227      117787.122
D4103    776145.754    12996488.606       24392.805      776145.616    18303823.085       34354.778
D5627    812799.271    13610247.203       61240.408      812799.244    19168219.943       86249.831
D5727    495914.085     8304031.405        2781.049      495913.985    11695130.755        3919.243
D5826   1135239.931    19009487.911      105073.677     1135239.782    26772335.235      147983.556
D5926   1009188.402    16898763.497       76853.040     1009188.348    23799665.283      108238.897
> 2019  1 10  9 52  6.6000000  0 8                     
D3704   1099095.770    18404259.969       42398.321     1099095.581    25919950.727       59711.457
D3903   1161263.222    19445245.177      101746.760     1161263.129    27386040.997      143297.178
D4003    829116.881    13883487.779       83496.018      829116.607    19553030.803      117594.604
D4103    775854.369    12991610.045       24333.251      775854.315    18296952.129       34270.275
D5627    812067.672    13597999.121       61082.625      812067.620    19150969.977       86023.540
D5727    495880.792     8303475.195        2501.652      495880.766    11694346.907        3523.197
D5826   1133985.081    18988473.175      105026.731     1133984.935    26742738.524      147914.178
D5926   1008270.565    16883392.889       76735.089     1008270.367    23778017.503      108072.515
> 2019  1 10  9 52  6.8000000  0 8                     
D3704   1098589.428    18395780.305       42296.011     1098589.405    25908008.436       59569.965
D3903   1160048.090    19424895.825      101712.229     1160047.735    27357381.561      143248.520
D4003    828119.491    13866788.575       83517.276      828119.329    19529511.882      117623.566
D4103    775563.642    12986743.395       24042.476      775563.602    18290098.074       33858.582
D5627    811338.187    13585782.596       60887.511      811338.046    19133765.269       85754.019
D5727    495850.943     8302974.865        2201.165      495850.858    11693642.267        3100.285
D5826   1132730.687    18967467.829      105037.196     1132730.498    26713155.688      147932.169
D5926   1007353.978    16868045.871       76701.818     1007353.802    23756403.000      108023.874
> 2019  1 10  9 52  7.0000000  0 8                     
D3704   1098084.259    18387321.103       42153.617     1098083.953    25896094.443       59366.220
D3903   1158833.116    19404553.379      101636.461     1158833.063    27328731.857      143140.205
D4003    827122.004    13850085.120       83319.025      827121.708    19505987.169      117341.787
D4103    775276.569    12981934.900       23886.591      775276.519    18283326.358       33639.643
D5627    810610.979    13573605.094       60837.479      810610.888    19116614.465       85679.037
D5727    495824.713     8302534.632        1793.326      495824.659    11693022.210        2527.033
D5826   1131476.251    18946460.390      104982.422     1131476.036    26683569.255      147852.740
D5926   1006437.681    16852705.508       76456.912     1006437.646    23734798.225      107676.454
> 2019  1 10  9 52  7.2000000  0 8                     
D3704   1097580.777    18378890.379       42022.746     1097580.705    25884221.199       59186.019
D3903   1157619.234    19384226.087      101613.207     1157618.987    27300103.816      143109.659
D4003    826126.731    13833421.315       83297.667      826126.647    19482518.811      117313.188
D4103    774991.286    12977157.582       23757.836      774991.241    18276598.429       33460.512
D5627    809884.323    13561437.598       60627.252      809884.224    19099478.657       85388.234
D5727    495803.224     8302175.967        1502.533      495803.197    11692516.804        2114.691
D5826   1130222.198    18925463.906      104910.647     1130222.108    26653998.707      147752.587
D5926   1005524.636    16837414.125       76511.903     1005524.470    23713262.935      107759.009
> 2019  1 10  9 52  7.4000000  0 8                     
D3704   1097078.924    18370485.830       41942.569     1097078.562    25872383.995       59070.623
D3903   1156405.686    19363903.445      101582.147     1156405.337    27271481.884      143067.375
D4003    825131.977    13816761.781       83230.454      825131.710    19459056.174      117216.138
D4103    774707.531    12972406.014       23567.945      774707.420    18269906.327       33193.965
D5627    809160.170    13549312.148       60480.055      809160.120    19082401.011       85175.844
D5727    495785.465     8301875.460        1177.873      495785.296    11692093.866        1657.977
D5826   1128969.238    18904481.776      104937.735     1128969.092    26624448.189      147791.388
D5926   1004610.900    16822111.745       76314.345     1004610.670    23691711.133      107476.833
> 2019  1 10  9 52  7.6000000  0 8                     
D3704   1096577.893    18362097.316       41712.290     1096577.835    25860569.870       58743.391
D3903   1155192.307    19343587.016      101610.562     1155192.047    27242868.409      143103.597
D4003    824137.922    13800115.691       83047.073      824137.753    19435612.946      116966.319
D4103    774426.034    12967692.426       23304.153      774425.900    18263267.534       32819.178
D5627    808437.859    13537216.137       60394.945      808437.644    19065365.842       85057.936
