     3.02           OBSERVATION DATA    M: Mixed            RINEX VERSION / TYPE
BUPT PLAN 6.0                           20210329 120000 UTC PGM / RUN BY / DATE 
                                                            MARKER NAME         
                                                            MARKER NUMBER       
                                                            MARKER TYPE         
                                                            OBSERVER / AGENCY   
                                                            REC # / TYPE / VERS 
                                                            ANT # / TYPE        
  4076128.1056   519876.3642  4878092.5196                  APPROX POSITION XYZ 
        0.0000        0.0000        0.0000                  ANTENNA: DELTA H/E/N 
D    6 C5D L5D D5D C7D L7D D7D                              SYS / # / OBS TYPES  
    30.000                                                  INTERVAL            
  2019     1    10     9    51   54.0000000     GPS         TIME OF FIRST OBS   
  2019     1    10     9    54   44.0000000     GPS         TIME OF LAST OBS   
                                                            END OF HEADER       
> 2019  1 10  9 51 54.0000000  0 8                     
D3704   1133899.003    18987034.904       49814.088     1133898.795    26740710.383       70158.650
D3903   1238356.754    20736173.847      102927.677     1238356.516    29204130.546      144960.193
D4003    893827.236    14967052.878       88005.839      893827.064    21079100.772      123945.332
D4103    798381.832    13368824.218       35249.485      798381.757    18828213.665       49643.713
D5627    861316.791    14422673.911       69208.947      861316.681    20312404.415       97473.500
D5727    505354.002     8462109.234       22271.418      505353.940    11917746.529       31367.167
D5826   1213700.110    20323297.958      107008.057     1213699.991    28622658.833      150705.188
D5926   1068266.307    17888021.872       82920.318     1068266.159    25192893.638      116782.012
> 2019  1 10  9 51 54.2000000  0 8                     
D3704   1133304.035    18977072.086       49553.479     1133303.799    26726678.653       69788.019
D3903   1237127.346    20715588.312      102712.054     1237127.176    29175138.507      144657.950
D4003    892776.110    14949451.711       87790.855      892775.927    21054311.706      123642.443
D4103    797960.845    13361774.321       34951.651      797960.695    18818284.922       49223.705
D5627    860490.128    14408832.122       69142.388      860490.018    20292909.715       97376.799
D5727    505088.026     8457654.950       21859.884      505087.915    11911473.096       30785.838
D5826   1212422.043    20301896.347      106884.944     1212421.825    28592517.796      150531.796
D5926   1067275.885    17871437.809       82684.569     1067275.732    25169537.236      116450.765
> 2019  1 10  9 51 54.4000000  0 8                     
D3704   1132712.128    18967161.390       49433.034     1132712.000    26712721.049       69620.915
D3903   1235900.540    20695045.901      102782.666     1235900.379    29146206.917      144755.791
D4003    891727.430    14931893.540       87763.730      891727.338    21029583.217      123603.633
D4103    797543.425    13354783.991       34859.137      797543.232    18808440.181       49096.819
D5627    859664.320    14395003.644       69026.547      859664.215    20273434.355       97214.644
D5727    504826.903     8453282.974       21697.435      504826.842    11905315.928       30558.011
D5826   1211145.407    20280519.358      106795.868     1211145.235    28562411.437      150407.590
D5926   1066288.303    17854900.895       82617.407     1066288.156    25146247.083      116356.675
> 2019  1 10  9 51 54.6000000  0 8                     
D3704   1132121.703    18957274.784       49317.665     1132121.564    26698796.866       69453.718
D3903   1234672.872    20674489.368      102609.648     1234672.740    29117255.759      144509.643
D4003    890679.232    14914340.794       87714.008      890679.100    21004862.491      123533.507
D4103    797126.894    13347812.164       34679.754      797126.837    18798620.818       48841.277
D5627    858839.861    14381198.335       68813.351      858839.703    20253991.426       96913.615
D5727    504567.738     8448943.487       21282.765      504567.628    11899204.326       29973.667
D5826   1209869.885    20259160.184      106858.384     1209869.694    28532329.919      150496.851
D5926   1065301.510    17838377.413       82607.803     1065301.377    25122975.748      116340.311
> 2019  1 10  9 51 54.8000000  0 8                     
D3704   1131532.764    18947411.251       49234.557     1131532.642    26684906.123       69342.240
D3903   1233447.391    20653967.438      102682.480     1233447.266    29088353.830      144614.807
D4003    889631.626    14896797.992       87699.234      889631.458    20980155.789      123511.721
D4103    796712.751    13340876.213       34442.464      796712.618    18788852.562       48507.119
D5627    858018.036    14367435.664       68723.277      858017.896    20234608.703       96788.795
D5727    504313.550     8444686.934       20972.702      504313.435    11893209.593       29538.392
D5826   1208593.543    20237788.508      106758.192     1208593.313    28502230.548      150354.668
D5926   1064314.882    17821855.853       82391.271     1064314.759    25099707.685      116037.986
> 2019  1 10  9 51 55.0000000  0 8                     
D3704   1130944.609    18937564.339       49049.504     1130944.499    26671037.675       69080.215
D3903   1232220.946    20633430.942      102676.750     1232220.760    29059430.869      144608.519
D4003    888584.149    14879258.145       87558.046      888583.997    20955453.445      123314.056
D4103    796301.426    13333987.720       34315.232      796301.270    18779151.138       48328.352
D5627    857197.049    14353691.009       68615.347      857197.016    20215250.944       96635.018
D5727    504062.971     8440492.393       20706.902      504062.951    11887301.914       29162.045
D5826   1207318.451    20216436.869      106666.811     1207318.239    28472159.615      150225.782
D5926   1063330.764    17805377.599       82433.434     1063330.620    25076500.088      116096.534
> 2019  1 10  9 51 55.2000000  0 8                     
D3704   1130358.767    18927754.438       48997.942     1130358.621    26657221.632       69008.466
D3903   1230994.549    20612895.592      102597.089     1230994.355    29030509.165      144492.527
D4003    887538.357    14861746.536       87494.886      887538.257    20930790.634      123224.503
D4103    795891.580    13327124.674       34157.950      795891.384    18769485.468       48107.318
D5627    856377.580    14339967.939       68518.177      856377.523    20195923.941       96499.024
D5727    503815.682     8436351.013       20398.566      503815.611    11881469.505       28729.499
D5826   1206044.408    20195103.507      106762.760     1206044.229    28442114.458      150360.331
D5926   1062346.229    17788890.912       82290.267     1062346.019    25053280.781      115895.511
> 2019  1 10  9 51 55.4000000  0 8                     
D3704   1129773.536    18917954.850       48906.648     1129773.359    26643419.938       68877.138
D3903   1229769.144    20592376.174      102607.677     1229768.978    29001610.660      144508.665
D4003    886493.310    14844247.559       87446.202      886493.217    20906145.733      123156.321
D4103    795483.595    13320293.084       34060.468      795483.458    18759864.004       47970.016
D5627    855559.228    14326264.304       68357.327      855559.125    20176624.136       96273.923
D5727    503572.068     8432271.300       20077.753      503571.973    11875723.605       28276.439
D5826   1204769.252    20173750.955      106671.994     1204769.059    28412042.392      150234.646
D5926   1061363.315    17772432.858       82182.059     1061363.215    25030101.679      115742.974
> 2019  1 10  9 51 55.6000000  0 8                     
D3704   1129189.404    18908173.520       48709.213     1129189.244    26629644.511       68601.267
D3903   1228543.658    20571854.639      102568.958     1228543.487    28972708.927      144455.742
D4003    885448.904    14826758.318       87402.808      885448.737    20881514.469      123094.851
D4103    795076.736    13313480.990       33795.589      795076.581    18750270.001       47594.622
D5627    854742.721    14312592.839       68267.523      854742.579    20157369.351       96142.394
D5727    503332.303     8428255.749       19763.945      503332.151    11870068.318       27834.959
D5826   1203495.209    20152416.556      106680.509     1203495.000    28381995.463      150243.563
D5926   1060381.687    17755996.447       82142.379     1060381.584    25006953.084      115686.237
> 2019  1 10  9 51 55.8000000  0 8                     
D3704   1128607.554    18898431.678       48667.613     1128607.468    26615924.257       68540.181
D3903   1227318.565    20551340.847      102538.337     1227318.399    28943817.778      144412.341
D4003    884404.988    14809277.757       87301.281      884404.822    20856895.499      122952.970
D4103    794673.166    13306721.872       33663.360      794672.994    18740751.077       47411.878
D5627    853927.461    14298939.334       68151.396      853927.306    20138140.873       95983.220
D5727    503096.139     8424302.960       19479.156      503096.117    11864501.326       27432.790
D5826   1202221.012    20131080.454      106611.768     1202220.879    28351946.750      150150.863
D5926   1059400.619    17739567.971       82055.975     1059400.483    24983815.837      115565.723
> 2019  1 10  9 51 56.0000000  0 8                     
D3704   1128026.379    18888698.155       48518.783     1128026.182    26602216.221       68333.206
D3903   1226093.862    20530833.180      102592.499     1226093.640    28914935.310      144486.488
D4003    883362.219    14791817.501       87261.727      883362.064    20832304.905      122896.204
D4103    794271.005    13299989.200       33488.273      794270.911    18731268.701       47164.820
D5627    853113.366    14285309.055       67929.893      853113.320    20118944.229       95670.822
D5727    502863.568     8420407.129       19170.815      502863.462    11859014.768       27000.401
D5826   1200947.566    20109758.101      106640.958     1200947.390    28321916.578      150189.332
D5926   1058420.503    17723156.776       81927.463     1058420.422    24960702.692      115382.659
> 2019  1 10  9 51 56.2000000  0 8                     
D3704   1127446.822    18878994.399       48445.926     1127446.732    26588549.580       68229.042
D3903   1224868.493    20510314.680      102558.820     1224868.320    28886038.012      144440.734
D4003    882319.973    14774365.155       87155.628      882319.875    20807725.664      122746.469
D4103    793871.014    13293291.546       33332.552      793870.860    18721835.737       46943.053
D5627    852302.012    14271723.076       67873.504      852301.899    20099810.064       95591.375
D5727    502634.549     8416572.966       18865.343      502634.486    11853614.688       26569.475
D5826   1199673.856    20088429.909      106616.630     1199673.668    28291878.711      150155.643
D5926   1057442.011    17706771.283       81932.186     1057441.899    24937626.160      115390.658
> 2019  1 10  9 51 56.4000000  0 8                     
D3704   1126868.186    18869305.213       48279.186     1126868.100    26574903.772       67995.640
D3903   1223643.532    20489802.916      102451.632     1223643.405    28857149.866      144289.830
D4003    881278.999    14756934.030       87060.579      881278.826    20783176.370      122614.851
D4103    793472.909    13286625.035       33149.721      793472.776    18712447.126       46687.265
D5627    851491.301    14258148.375       67721.619      851491.244    20080691.789       95376.463
D5727    502409.261     8412799.897       18621.422      502409.224    11848300.793       26225.348
D5826   1198400.459    20067106.583      106581.420     1198400.283    28261847.583      150104.959
D5926   1056463.431    17690384.846       81773.367     1056463.230    24914548.029      115166.493
> 2019  1 10  9 51 56.6000000  0 8                     
D3704   1126291.586    18859649.376       48213.650     1126291.414    26561304.644       67901.407
D3903   1222419.839    20469312.590      102534.825     1222419.706    28828291.900      144405.898
D4003    880239.096    14739521.914       87084.754      880238.994    20758653.400      122646.568
D4103    793076.985    13279995.091       32956.131      793076.834    18703109.673       46414.598
D5627    850682.474    14244604.052       67657.006      850682.322    20061616.496       95285.530
D5727    502186.843     8409075.613       18167.283      502186.682    11843055.723       25586.369
D5826   1197127.464    20045790.299      106548.947     1197127.265    28231826.591      150060.196
D5926   1055486.805    17674030.173       81671.908     1055486.608    24891514.730      115024.343
> 2019  1 10  9 51 56.8000000  0 8                     
D3704   1125715.727    18850006.646       48078.076     1125715.550    26547724.362       67712.291
D3903   1221195.252    20448805.625      102434.618     1221195.085    28799410.720      144267.002
D4003    879199.035    14722104.963       86931.658      879198.941    20734124.086      122431.343
D4103    792683.362    13273403.865       32840.456      792683.216    18693826.754       46250.782
D5627    849874.449    14231072.651       67499.508      849874.320    20042559.390       95063.358
D5727    501969.853     8405442.156       17965.692      501969.703    11837938.450       25301.838
D5826   1195854.853    20024480.510      106465.468     1195854.751    28201814.552      149942.267
D5926   1054511.257    17657695.791       81714.358     1054511.120    24868509.861      115083.122
> 2019  1 10  9 51 57.0000000  0 8                     
D3704   1125141.433    18840391.031       47920.857     1125141.254    26534181.904       67489.838
D3903   1219971.710    20428318.701      102484.827     1219971.566    28770557.320      144335.537
D4003    878160.713    14704718.631       86924.519      878160.554    20709637.818      122421.210
D4103    792291.085    13266835.774       32674.284      792290.984    18684576.598       46018.306
D5627    849068.174    14217572.749       67319.975      849068.120    20023546.719       94809.900
D5727    501755.284     8401849.018       17594.981      501755.218    11832878.082       24780.300
D5826   1194583.243    20003187.416      106560.361     1194583.087    28171826.098      150075.002
D5926   1053535.232    17641352.920       81489.547     1053535.151    24845493.237      114768.530
> 2019  1 10  9 51 57.2000000  0 8                     
D3704   1124569.105    18830806.859       47950.016     1124568.963    26520683.936       67530.210
D3903   1218747.605    20407821.736      102405.116     1218747.491    28741690.213      144222.668
D4003    877122.502    14687333.728       86831.829      877122.361    20685153.576      122292.026
D4103    791900.810    13260300.917       32462.113      791900.769    18675372.936       45719.078
D5627    848264.250    14204108.754       67266.361      848264.078    20004584.739       94736.916
D5727    501545.113     8398330.022       17355.042      501545.104    11827922.022       24442.572
D5826   1193310.529    19981875.344      106493.003     1193310.338    28141811.098      149981.676
D5926   1052561.997    17625055.010       81444.064     1052561.781    24822539.531      114702.599
> 2019  1 10  9 51 57.4000000  0 8                     
D3704   1123996.427    18821216.856       47667.631     1123996.307    26507177.894       67133.580
D3903   1217524.567    20387340.713      102385.590     1217524.395    28712845.679      144195.380
D4003    876085.361    14669967.362       86781.678      876085.257    20660695.171      122220.189
D4103    791513.086    13253808.494       32287.316      791512.929    18666229.121       45471.425
D5627    847460.729    14190655.482       67060.024      847460.593    19985637.356       94444.923
D5727    501337.865     8394859.013       17017.694      501337.761    11823033.507       23967.240
D5826   1192038.578    19960576.743      106404.472     1192038.345    28111814.763      149857.214
D5926   1051589.234    17608766.197       81390.088     1051589.079    24799599.011      114625.326
> 2019  1 10  9 51 57.6000000  0 8                     
D3704   1123427.118    18811683.330       47603.095     1123426.892    26493751.178       67043.544
D3903   1216301.720    20366863.595      102400.470     1216301.482    28684006.603      144220.183
D4003    875048.827    14652611.026       86672.217      875048.760    20636251.133      122066.498
D4103    791127.499    13247351.031       32150.217      791127.365    18657134.836       45280.406
D5627    846659.725    14177243.477       66985.805      846659.655    19966748.371       94341.863
D5727    501134.616     8391455.474       16690.192      501134.504    11818240.059       23505.287
D5826   1190767.654    19939295.849      106426.769     1190767.511    28081843.320      149887.059
D5926   1050617.145    17592488.180       81283.823     1050616.934    24776673.946      114478.170
> 2019  1 10  9 51 57.8000000  0 8                     
D3704   1122858.519    18802162.711       47469.887     1122858.340    26480342.469       66853.808
D3903   1215078.574    20346383.501      102366.046     1215078.439    28655162.566      144168.362
D4003    874013.660    14635276.583       86648.399      874013.525    20611837.833      122033.152
D4103    790743.473    13240920.988       31954.375      790743.307    18648078.754       45002.647
D5627    845859.693    14163846.316       66870.690      845859.560    19947879.998       94179.398
D5727    500935.274     8388117.436       16341.365      500935.154    11813539.002       23014.981
D5826   1189496.530    19918010.495      106416.889     1189496.380    28051865.908      149874.648
D5926   1049646.225    17576231.415       81150.246     1049646.198    24753778.312      114288.605
> 2019  1 10  9 51 58.0000000  0 8                     
D3704   1122291.562    18792668.733       47441.916     1122291.366    26466971.708       66817.478
D3903   1213855.916    20325910.292      102303.158     1213855.756    28626328.894      144079.139
D4003    872978.730    14617946.903       86525.608      872978.527    20587431.203      121858.620
D4103    790361.867    13234530.112       31841.539      790361.750    18639078.225       44845.687
D5627    845060.934    14150472.178       66755.113      845060.860    19929044.119       94014.694
D5727    500740.062     8384849.163       16125.062      500739.976    11808936.006       22710.643
D5826   1188225.460    19896727.117      106394.517     1188225.318    28021890.979      149842.031
D5926   1048677.093    17560001.366       81120.897     1048676.809    24730920.591      114249.415
> 2019  1 10  9 51 58.2000000  0 8                     
D3704   1121724.857    18783180.350       47270.987     1121724.684    26453608.212       66573.507
D3903   1212633.996    20305449.660      102323.969     1212633.869    28597513.066      144109.297
D4003    871945.271    14600641.781       86477.977      871945.199    20563059.479      121792.712
D4103    789981.474    13228161.805       31599.617      789981.380    18630109.088       44503.177
D5627    844263.662    14137121.155       66561.327      844263.549    19910241.180       93741.396
D5727    500547.457     8381624.151       15766.031      500547.348    11804393.877       22204.796
D5826   1186954.719    19875448.214      106337.296     1186954.535    27991922.573      149761.979
D5926   1047708.083    17543777.187       81006.908     1047707.975    24708070.708      114087.405
> 2019  1 10  9 51 58.4000000  0 8                     
D3704   1121160.254    18773726.153       47160.399     1121160.149    26440293.511       66420.010
D3903   1211411.909    20284984.866      102293.428     1211411.711    28568691.207      144066.157
D4003    870912.433    14583346.186       86402.313      870912.269    20538700.936      121687.177
D4103    789604.048    13221841.881       31461.042      789603.923    18621208.452       44307.921
D5627    843468.710    14123808.890       66460.759      843468.594    19891492.901       93601.174
D5727    500359.100     8378470.944       15436.393      500359.044    11799952.918       21739.634
D5826   1185684.648    19854180.755      106319.600     1185684.459    27961970.177      149736.521
D5926   1046740.508    17527575.805       80959.436     1046740.388    24685253.227      114022.238
> 2019  1 10  9 51 58.6000000  0 8                     
D3704   1120596.983    18764294.073       47037.357     1120596.840    26427009.509       66245.831
D3903   1210190.138    20264526.181      102263.222     1210189.939    28539877.975      144025.176
D4003    869880.395    14566065.723       86305.654      869880.310    20514363.501      121549.637
D4103    789228.270    13215549.673       31282.147      789228.211    18612346.868       44056.007
D5627    842674.925    14110516.738       66317.312      842674.820    19872772.666       93399.570
D5727    500174.757     8375383.666       15168.271      500174.646    11795604.991       21362.006
D5826   1184414.761    19832916.835      106228.078     1184414.609    27932022.873      149609.835
D5926   1045773.534    17511383.918       80871.946     1045773.348    24662448.780      113896.910
> 2019  1 10  9 51 58.8000000  0 8                     
D3704   1120035.216    18754886.602       46897.264     1120035.033    26413760.343       66048.302
D3903   1208968.692    20244073.536      102292.957     1208968.508    28511072.940      144065.512
D4003    868849.542    14548804.592       86292.224      868849.466    20490053.574      121531.442
D4103    788854.671    13209293.243       31123.440      788854.569    18603535.667       43832.892
D5627    841882.842    14097253.276       66242.738      841882.638    19854092.752       93294.783
D5727    499993.601     8372350.011       14776.777      499993.537    11791332.590       20810.941
D5826   1183145.892    19811671.219      106309.140     1183145.777    27902100.906      149721.766
D5926   1044807.606    17495209.529       80706.303     1044807.475    24639669.397      113662.487
> 2019  1 10  9 51 59.0000000  0 8                     
D3704   1119474.973    18745507.149       46848.197     1119474.909    26400550.682       65981.583
D3903   1207746.961    20223614.945      102186.539     1207746.769    28482259.838      143917.459
D4003    867818.930    14531546.147       86209.220      867818.782    20465747.285      121413.680
D4103    788483.023    13203068.555       30915.832      788482.818    18594769.088       43543.120
D5627    841091.611    14084004.728       66136.518      841091.418    19835433.795       93144.454
D5727    499817.127     8369394.656       14564.113      499817.024    11787170.402       20511.720
D5826   1181876.153    19790409.391      106308.971     1181876.011    27872156.552      149721.659
D5926   1043843.668    17479068.268       80679.612     1043843.578    24616936.900      113626.056
> 2019  1 10  9 51 59.2000000  0 8                     
D3704   1118915.377    18736137.509       46719.181     1118915.251    26387354.366       65796.452
D3903   1206526.351    20203177.637      102206.375     1206526.235    28453476.346      143943.907
D4003    866789.213    14514304.303       86129.659      866789.065    20441464.549      121302.760
D4103    788113.672    13196885.389       30774.709      788113.573    18586060.464       43341.868
D5627    840301.610    14070777.425       65894.976      840301.494    19816804.905       92804.126
D5727    499643.164     8366481.833       14204.482      499643.084    11783068.058       20004.687
D5826   1180606.421    19769147.597      106194.122     1180606.301    27842212.221      149560.205
D5926   1042880.098    17462932.345       80565.033     1042879.919    24594211.689      113467.177
> 2019  1 10  9 51 59.4000000  0 8                     
D3704   1118357.434    18726793.673       46578.634     1118357.302    26374195.075       65600.120
D3903   1205305.673    20182736.362      102235.959     1205305.427    28424687.565      143984.775
D4003    865760.464    14497078.372       86032.681      865760.336    20417203.997      121164.313
D4103    787746.076    13190730.447       30561.895      787745.975    18577392.091       43041.275
D5627    839514.669    14057598.430       65739.756      839514.480    19798244.079       92584.566
D5727    499473.553     8363640.937       13918.059      499473.402    11779067.121       19602.874
D5826   1179338.086    19747908.773      106173.923     1179337.968    27812300.180      149529.887
D5926   1041917.785    17446819.339       80535.811     1041917.640    24571518.254      113421.668
> 2019  1 10  9 51 59.6000000  0 8                     
D3704   1117801.131    18717477.946       46445.343     1117800.974    26361075.051       65410.490
D3903   1204084.579    20162289.170      102148.106     1204084.399    28395890.610      143862.267
D4003    864732.995    14479871.836       85966.783      864732.810    20392971.134      121074.391
D4103    787381.097    13184618.068       30393.356      787380.962    18568783.836       42805.615
D5627    838729.477    14044450.478       65776.185      838729.292    19779727.166       92637.292
D5727    499307.242     8360857.325       13506.179      499307.202    11775146.546       19021.045
D5826   1178070.042    19726673.988      106163.642     1178069.853    27782394.202      149517.440
D5926   1040955.906    17430712.177       80348.115     1040955.758    24548833.920      113160.621
> 2019  1 10  9 51 59.8000000  0 8                     
D3704   1117246.359    18708188.878       46351.607     1117246.293    26347992.953       65279.556
D3903   1202864.456    20141859.549      102107.103     1202864.340    28367118.156      143805.104
D4003    863706.105    14462678.479       85934.427      863706.032    20368756.256      121026.727
D4103    787017.991    13178539.397       30298.710      787017.934    18560222.713       42671.821
D5627    837943.816    14031295.241       65493.582      837943.685    19761199.708       92238.495
D5727    499145.914     8358156.089       13351.659      499145.876    11771342.337       18803.942
D5826   1176801.983    19705441.260      106090.248     1176801.876    27752490.714      149415.957
D5926   1039996.215    17414642.554       80324.357     1039996.112    24526201.796      113127.035
> 2019  1 10  9 52  0.0000000  0 8                     
D3704   1116692.807    18698918.556       46183.693     1116692.656    26334937.042       65043.492
D3903   1201644.891    20121438.129      102149.236     1201644.756    28338357.136      143861.913
D4003    862679.676    14445491.594       85790.590      862679.659    20344550.911      120823.607
D4103    786656.169    13172479.655       30101.711      786656.077    18551688.349       42394.147
D5627    837161.564    14018196.525       65424.301      837161.384    19742752.009       92142.022
D5727    498986.520     8355485.758       12901.697      498986.341    11767581.548       18169.784
D5826   1175534.756    19684223.210      106134.111     1175534.639    27722607.523      149474.770
D5926   1039036.735    17398577.682       80267.758     1039036.693    24503576.389      113045.232
> 2019  1 10  9 52  0.2000000  0 8                     
D3704   1116141.167    18689681.818       46144.181     1116141.081    26321928.344       64988.815
D3903   1200424.900    20101008.281      102088.604     1200424.755    28309584.753      143777.753
D4003    861655.106    14428333.476       85822.883      861655.000    20320386.190      120870.627
D4103    786296.649    13166459.313       29875.019      786296.515    18543209.519       42074.582
D5627    836380.123    14005111.664       65295.820      836380.012    19724323.604       91961.335
D5727    498832.359     8352905.418       12693.159      498832.298    11763947.592       17877.917
D5826   1174267.171    19662996.388      106106.720     1174267.031    27692712.569      149437.083
D5926   1038078.161    17382524.131       80137.248     1038077.978    24480967.342      112864.178
> 2019  1 10  9 52  0.4000000  0 8                     
D3704   1115590.084    18680452.981       46026.553     1115589.861    26308930.581       64821.897
D3903   1199205.626    20080590.561      102066.959     1199205.378    28280829.202      143748.418
D4003    860629.987    14411168.899       85665.465      860629.856    20296212.064      120650.914
D4103    785939.794    13160484.309       29706.996      785939.712    18534794.603       41837.936
D5627    835600.161    13992052.500       65167.105      835600.096    19705931.337       91779.262
D5727    498680.743     8350366.786       12267.215      498680.661    11760372.008       17275.867
D5826   1172999.846    19641775.044      106065.641     1172999.713    27662825.152      149379.496
D5926   1037120.916    17366496.681       79987.704     1037120.846    24458394.507      112650.674
> 2019  1 10  9 52  0.6000000  0 8                     
D3704   1115040.286    18671247.671       45844.934     1115040.217    26295966.201       64568.136
D3903   1197986.474    20060177.169      102101.580     1197986.351    28252079.519      143797.797
D4003    859606.771    14394035.806       85618.565      859606.682    20272081.881      120579.900
D4103    785585.018    13154542.910       29590.775      785584.866    18526427.016       41675.436
D5627    834821.851    13979019.079       65023.923      834821.707    19687575.485       91576.146
D5727    498534.255     8347913.343       12047.444      498534.175    11756916.835       16966.898
D5826   1171732.972    19620561.916      106014.927     1171732.801    27632949.253      149308.094
D5926   1036165.645    17350499.140       79957.132     1036165.447    24435864.372      112607.572
> 2019  1 10  9 52  0.8000000  0 8                     
D3704   1114492.657    18662078.684       45784.293     1114492.541    26283052.574       64477.912
D3903   1196766.968    20039756.853      101965.554     1196766.801    28223319.959      143603.854
D4003    858584.148    14376912.093       85540.086      858584.065    20247965.901      120471.651
D4103    785231.558    13148624.755       29387.310      785231.428    18518091.928       41388.684
D5627    834045.267    13966014.295       64877.880      834045.150    19669260.256       91372.569
D5727    498390.408     8345503.855       11659.788      498390.312    11753523.455       16421.306
D5826   1170466.748    19599358.931      106007.675     1170466.581    27603087.634      149297.212
D5926   1035210.667    17334507.714       79900.009     1035210.517    24413342.858      112530.922
> 2019  1 10  9 52  1.0000000  0 8                     
D3704   1113945.954    18652921.825       45598.765     1113945.819    26270156.992       64220.957
D3903   1195549.072    20019363.742      102062.620     1195548.932    28194599.188      143740.709
D4003    857562.526    14359804.076       85510.157      857562.383    20223871.571      120429.284
D4103    784880.548    13142747.293       29225.146      784880.470    18509814.192       41159.161
D5627    833270.314    13953038.719       64719.775      833270.149    19650985.742       91150.166
D5727    498251.104     8343171.897       11410.046      498251.063    11750239.194       16070.089
D5826   1169200.574    19578157.395      105966.608     1169200.441    27573228.192      149241.022
D5926   1034256.300    17318527.712       79790.069     1034256.118    24390836.673      112373.088
> 2019  1 10  9 52  1.2000000  0 8                     
D3704   1113401.311    18643802.072       45578.336     1113401.167    26257312.800       64192.450
D3903   1194330.096    19998951.218      101989.538     1194329.903    28165851.047      143639.865
D4003    856541.229    14342702.044       85333.568      856541.087    20199785.714      120180.667
D4103    784531.517    13136902.264       29011.999      784531.406    18501582.359       40859.190
D5627    832497.283    13940094.764       64610.521      832497.208    19632755.709       90994.245
D5727    498114.791     8340889.888       11039.929      498114.760    11747025.176       15547.701
D5826   1167934.924    19556964.074      105991.736     1167934.739    27543379.988      149274.370
D5926   1033303.288    17302569.699       79663.139     1033303.134    24368362.056      112195.159
> 2019  1 10  9 52  1.4000000  0 8                     
D3704   1112856.830    18634686.405       45416.368     1112856.781    26244474.310       63963.046
D3903   1193112.014    19978553.310      101920.587     1193111.755    28137123.074      143542.359
D4003    855522.020    14325635.331       85350.000      855521.873    20175749.581      120204.487
D4103    784184.956    13131099.864       28819.206      784184.830    18493410.521       40588.743
D5627    831725.620    13927172.660       64561.292      831725.520    19614556.860       90925.613
D5727    497982.956     8338681.902       10808.826      497982.915    11743915.636       15223.449
D5826   1166669.042    19535765.727      105931.774     1166668.839    27513525.114      149190.232
D5926   1032351.774    17286637.071       79593.082     1032351.645    24345923.024      112095.856
> 2019  1 10  9 52  1.6000000  0 8                     
D3704   1112314.411    18625603.131       45289.465     1112314.207    26231681.701       63784.429
D3903   1191894.572    19958169.193      101971.226     1191894.413    28108414.602      143613.064
D4003    854502.587    14308565.331       85213.941      854502.445    20151708.683      120012.655
D4103    783840.755    13125336.023       28757.989      783840.596    18485292.773       40501.068
D5627    830954.578    13914260.401       64303.264      830954.381    19596371.737       90564.221
D5727    497853.812     8336520.137       10379.960      497853.776    11740870.946       14618.233
D5826   1165403.762    19514579.372      105929.942     1165403.632    27483687.067      149188.882
D5926   1031401.113    17270718.454       79481.932     1031400.978    24323503.853      111942.199
> 2019  1 10  9 52  1.8000000  0 8                     
D3704   1111773.466    18616545.238       45196.888     1111773.277    26218924.815       63651.957
D3903   1190676.580    19937774.948      101926.976     1190676.381    28079691.989      143549.560
D4003    853484.816    14291522.543       85201.318      853484.641    20127706.152      119994.166
D4103    783497.351    13119584.425       28501.234      783497.185    18477192.559       40140.005
D5627    830186.417    13901399.749       64238.474      830186.331    19578258.893       90469.400
D5727    497729.858     8334444.145       10139.789      497729.830    11737947.299       14281.428
D5826   1164138.522    19493393.383      105851.389     1164138.401    27453849.291      149076.529
D5926   1030451.659    17254822.068       79369.780     1030451.568    24301115.413      111779.789
> 2019  1 10  9 52  2.0000000  0 8                     
D3704   1111233.714    18607505.861       45045.625     1111233.531    26206194.424       63441.408
D3903   1189459.233    19917389.553      101876.566     1189459.087    28050982.077      143479.442
D4003    852467.161    14274482.279       85106.695      852467.061    20103707.319      119862.713
D4103    783156.896    13113884.178       28386.040      783156.738    18469164.558       39977.879
D5627    829419.215    13888552.054       64053.395      829419.095    19560165.013       90210.588
D5727    497608.750     8332416.187        9877.789      497608.720    11735091.014       13911.066
D5826   1162874.333    19472223.106      105829.359     1162874.132    27424033.985      149045.994
D5926   1029503.819    17238948.112       79411.438     1029503.605    24278759.455      111841.098
> 2019  1 10  9 52  2.2000000  0 8                     
D3704   1110695.608    18598496.736       44945.579     1110695.448    26193506.142       63300.553
D3903   1188242.450    19897014.239      101824.506     1188242.279    28022286.189      143404.958
D4003    851450.668    14257460.940       85014.129      851450.518    20079734.777      119730.489
D4103    782817.847    13108206.970       28047.425      782817.723    18461168.982       39501.369
D5627    828654.188    13875741.375       63987.483      828654.016    19542122.895       90118.519
D5727    497490.819     8330440.629        9445.928      497490.669    11732308.801       13302.871
D5826   1161610.268    19451057.234      105824.911     1161610.101    27394224.786      149042.632
D5926   1028555.344    17223065.824       79205.905     1028555.129    24256391.236      111549.106
> 2019  1 10  9 52  2.4000000  0 8                     
D3704   1110158.800    18589507.620       44765.812     1110158.640    26180846.032       63045.753
D3903   1187026.269    19876649.338      101886.225     1187026.111    27993605.197      143494.309
D4003    850435.244    14240458.114       84985.791      850435.079    20055788.679      119691.510
D4103    782482.816    13102597.485       27980.811      782482.762    18453268.709       39406.005
D5627    827889.937    13862943.878       63807.303      827889.793    19524099.192       89863.561
D5727    497377.986     8328551.444        9133.150      497377.908    11729648.226       12862.478
D5826   1160346.247    19429892.252      105800.442     1160346.100    27364416.260      149005.590
D5926   1027609.298    17207224.643       79107.350     1027609.204    24234081.415      111412.316
> 2019  1 10  9 52  2.6000000  0 8                     
D3704   1109624.112    18580554.458       44705.679     1109624.013    26168236.881       62961.976
D3903   1185809.359    19856272.093      101836.974     1185809.154    27964906.335      143423.593
D4003    849420.113    14223460.956       84782.855      849420.050    20031850.377      119405.554
D4103    782148.728    13097001.323       27816.788      782148.553    18445387.508       39176.951
D5627    827127.853    13850182.418       63669.488      827127.688    19506126.479       89669.908
D5727    497268.853     8326724.813        8869.435      497268.868    11727075.731       12491.314
D5826   1159082.575    19408732.163      105730.599     1159082.443    27334615.142      148907.449
D5926   1026664.406    17191403.173       79058.742     1026664.276    24211798.951      111344.360
> 2019  1 10  9 52  2.8000000  0 8                     
D3704   1109090.206    18571613.322       44566.287     1109090.013    26155644.486       62765.965
D3903   1184592.977    19835904.698      101805.000     1184592.903    27936221.617      143380.056
D4003    848407.505    14206504.385       84840.964      848407.389    20007969.266      119486.332
D4103    781816.422    13091437.966       27661.596      781816.284    18437552.118       38957.716
D5627    826367.385    13837448.520       63564.514      826367.219    19488192.498       89523.636
D5727    497162.921     8324950.926        8515.302      497162.808    11724577.468       11993.141
D5826   1157819.778    19387586.044      105736.571     1157819.592    27304833.652      148916.660
D5926   1025720.139    17175591.425       78950.547     1025719.981    24189530.079      111189.478
> 2019  1 10  9 52  3.0000000  0 8                     
D3704   1108557.854    18562700.065       44475.397     1108557.713    26143091.293       62637.531
D3903   1183376.992    19815543.698      101763.699     1183376.825    27907545.605      143319.724
D4003    847394.191    14189536.192       84661.177      847394.040    19984072.000      119234.185
D4103    781486.017    13085905.646       27442.053      781485.898    18429760.574       38648.586
D5627    825608.119    13824735.617       63303.545      825607.974    19470287.771       89151.992
D5727    497061.229     8323247.866        8212.048      497061.122    11722178.840       11565.401
D5826   1156556.817    19366438.729      105721.066     1156556.621    27275050.320      148893.398
D5926   1024777.260    17159801.316       78862.037     1024777.053    24167292.184      111066.961
> 2019  1 10  9 52  3.2000000  0 8                     
D3704   1108026.618    18553804.985       44326.777     1108026.503    26130563.786       62428.014
D3903   1182161.614    19795190.959      101737.474     1182161.385    27878881.661      143285.656
D4003    846382.993    14172603.957       84687.146      846382.887    19960225.163      119271.139
D4103    781158.202    13080417.236       27257.634      781158.151    18422030.857       38388.252
D5627    824852.094    13812074.908       63285.152      824851.965    19452457.372       89129.492
D5727    496963.172     8321605.456        7912.902      496963.153    11719865.759       11144.295
D5826   1155294.061    19345294.516      105651.189     1155293.948    27245271.640      148796.485
D5926   1023835.275    17144028.908       78717.381     1023835.151    24145078.792      110864.105
> 2019  1 10  9 52  3.4000000  0 8                     
D3704   1107497.269    18544939.630       44259.631     1107497.098    26118078.184       62335.305
D3903   1180946.361    19774843.464      101769.381     1180946.244    27850224.530      143325.772
D4003    845371.530    14155666.528       84555.161      845371.383    19936370.935      119083.286
D4103    780832.705    13074965.709       27105.072      780832.564    18414353.207       38173.974
D5627    824096.221    13799417.878       63102.728      824096.083    19434631.474       88871.695
D5727    496868.643     8320022.876        7611.734      496868.540    11717636.901       10720.293
D5826   1154032.176    19324164.278      105729.239     1154032.060    27215512.343      148904.424
D5926   1022895.095    17128285.432       78651.824     1022894.899    24122905.970      110772.441
> 2019  1 10  9 52  3.6000000  0 8                     
D3704   1106968.550    18536087.703       44111.891     1106968.371    26105611.123       62124.877
D3903   1179730.908    19754489.588      101712.640     1179730.768    27821559.375      143249.690
D4003    844361.619    14138755.495       84466.386      844361.432    19912554.278      118961.510
D4103    780508.951    13069544.695       26935.961      780508.845    18406718.412       37936.484
D5627    823342.528    13786797.332       62997.566      823342.345    19416857.135       88724.533
D5727    496777.756     8318500.529        7244.430      496777.664    11715492.842       10202.722
D5826   1152769.401    19303018.430      105586.066     1152769.273    27185731.458      148703.515
D5926   1021955.590    17112555.067       78650.316     1021955.500    24100751.482      110766.733
> 2019  1 10  9 52  3.8000000  0 8                     
D3704   1106441.755    18527265.325       43934.693     1106441.504    26093186.147       61877.843
D3903   1178516.083    19734147.060      101662.414     1178515.896    27792909.437      143177.157
D4003    843352.679    14121862.218       84428.160      843352.583    19888761.976      118905.055
D4103    780187.160    13064157.502       26745.210      780187.139    18399131.115       37666.804
D5627    822590.107    13774197.819       62809.080      822589.888    19399112.228       88459.259
D5727    496691.186     8317051.643        6963.669      496691.168    11713452.298        9808.243
D5826   1151508.312    19281901.217      105620.629     1151508.128    27155990.755      148751.096
D5926   1021016.281    17096825.004       78462.857     1021016.135    24078598.136      110503.881
> 2019  1 10  9 52  4.0000000  0 8                     
D3704   1105916.868    18518478.387       43792.958     1105916.760    26080810.579       61673.716
D3903   1177301.818    19713814.577      101713.632     1177301.680    27764274.006      143252.574
D4003    842344.336    14104976.586       84303.494      842344.172    19864980.965      118731.178
D4103    779867.797    13058808.460       26577.247      779867.649    18391597.754       37429.787
D5627    821839.824    13761636.003       62726.576      821839.722    19381420.376       88342.211
D5727    496608.063     8315658.909        6632.903      496607.912    11711490.649        9340.967
D5826   1150246.803    19260777.091      105485.074     1150246.663    27126240.536      148561.906
D5926   1020079.130    17081132.432       78309.402     1020079.022    24056497.360      110289.935
> 2019  1 10  9 52  4.2000000  0 8                     
D3704   1105393.898    18509719.795       43781.423     1105393.793    26068475.836       61661.685
D3903   1176086.883    19693471.851      101634.315     1176086.751    27735623.491      143138.257
D4003    841337.336    14088115.887       84273.779      841337.206    19841234.729      118686.870
D4103    779550.319    13053493.011       26414.034      779550.238    18384111.797       37202.251
D5627    821090.612    13749090.688       62548.717      821090.479    19363751.934       88089.600
D5727    496528.809     8314332.329        6296.363      496528.721    11709622.456        8867.831
D5826   1148986.840    19239680.076      105608.669     1148986.773    27096528.155      148739.633
D5926   1019143.749    17065470.552       78367.448     1019143.649    24034439.373      110369.827
> 2019  1 10  9 52  4.4000000  0 8                     
D3704   1104870.975    18500963.510       43680.421     1104870.808    26056143.499       61516.909
D3903   1174872.958    19673144.987      101585.410     1174872.887    27706995.839      143067.871
D4003    840330.837    14071261.131       84158.039      840330.724    19817497.355      118526.606
D4103    779234.861    13048210.204       26217.379      779234.747    18376671.347       36922.779
D5627    820343.614    13736580.945       62463.323      820343.452    19346134.014       87972.798
D5727    496453.580     8313073.056        6011.051      496453.467    11707848.889        8465.764
D5826   1147725.409    19218558.342      105506.406     1147725.225    27066780.229      148587.723
D5926   1018207.764    17049797.062       78152.715     1018207.616    24012365.407      110066.835
> 2019  1 10  9 52  4.6000000  0 8                     
D3704   1104349.272    18492227.426       43509.693     1104349.126    26043840.117       61277.663
D3903   1173659.659    19652827.906      101610.776     1173659.513    27678382.265      143105.685
D4003    839325.663    14054429.524       84123.490      839325.529    19793792.034      118475.113
D4103    778921.685    13042966.728       26021.293      778921.611    18369286.791       36647.472
D5627    819597.467    13724088.280       62297.587      819597.361    19328539.454       87737.601
D5727    496381.766     8311870.846        5647.256      496381.768    11706155.737        7953.433
D5826   1146465.384    19197457.061      105477.595     1146465.250    27037062.684      148552.494
D5926   1017274.321    17034166.519       78126.610     1017274.174    23990352.040      110030.643
> 2019  1 10  9 52  4.8000000  0 8                     
D3704   1103829.722    18483525.488       43351.244     1103829.476    26031584.584       61056.526
D3903   1172446.042    19632505.750      101605.069     1172445.871    27649761.128      143095.887
D4003    838320.935    14037604.826       83981.077      838320.804    19770097.011      118277.081
D4103    778610.931    13037762.470       25842.307      778610.816    18361957.297       36395.974
D5627    818853.441    13711628.763       62047.432      818853.295    19310991.934       87384.966
D5727    496314.353     8310741.395        5378.361      496314.303    11704565.050        7574.005
D5826   1145205.491    19176361.542      105454.147     1145205.346    27007352.185      148517.238
D5926   1016341.199    17018541.197       77976.402     1016341.061    23968345.912      109820.419
> 2019  1 10  9 52  5.0000000  0 8                     
D3704   1103311.755    18474855.239       43283.292     1103311.605    26019373.279       60958.389
D3903   1171232.539    19612184.737      101513.859     1171232.395    27621141.951      142969.903
D4003    837317.810    14020808.610       83921.501      837317.675    19746441.595      118192.315
D4103    778302.221    13032594.008       25713.109      778302.157    18354678.102       36213.076
D5627    818112.382    13699219.276       62065.656      818112.182    19293514.941       87411.854
D5727    496250.166     8309665.722        5007.794      496250.099    11703050.249        7053.268
D5826   1143945.967    19155270.713      105441.242     1143945.838    26977648.738      148501.536
D5926   1015409.802    17002945.917       77933.157     1015409.678    23946381.828      109758.818
> 2019  1 10  9 52  5.2000000  0 8                     
D3704   1102794.779    18466198.580       43081.991     1102794.666    26007181.601       60674.331
D3903   1170020.028    19591881.965      101500.416     1170019.905    27592547.970      142950.867
D4003    836315.430    14004024.310       83874.928      836315.329    19722803.132      118125.401
D4103    777995.130    13027451.387       25491.942      777994.993    18347435.487       35901.249
D5627    817371.076    13686806.145       61832.121      817370.868    19276032.570       87081.822
D5727    496190.301     8308664.164        4693.394      496190.258    11701639.595        6610.399
D5826   1142686.606    19134182.464      105420.502     1142686.405    26947948.431      148470.725
D5926   1014478.996    16987359.286       77789.592     1014478.851    23924430.064      109554.892
> 2019  1 10  9 52  5.4000000  0 8                     
D3704   1102280.256    18457582.182       43061.455     1102280.184    25995046.735       60645.332
D3903   1168807.636    19571581.882      101510.278     1168807.576    27563957.797      142963.475
D4003    835313.782    13987249.325       83736.435      835313.624    19699178.052      117932.605
D4103    777690.723    13022352.998       25310.849      777690.580    18340255.237       35647.659
D5627    816632.503    13674439.721       61737.632      816632.338    19258616.206       86949.229
D5727    496134.217     8307725.485        4437.376      496134.170    11700317.515        6248.482
D5826   1141427.424    19113098.364      105336.460     1141427.259    26918254.286      148351.930
D5926   1013549.922    16971801.367       77735.880     1013549.787    23902519.086      109480.595
> 2019  1 10  9 52  5.6000000  0 8                     
D3704   1101765.968    18448969.891       42865.069     1101765.830    25982917.669       60371.340
D3903   1167595.258    19551279.826      101467.845     1167595.131    27535365.102      142903.659
D4003    834313.526    13970502.038       83680.027      834313.409    19675591.531      117852.686
D4103    777388.382    13017290.828       25169.277      777388.219    18333125.705       35447.189
D5627    815895.126    13662092.195       61525.254      815894.968    19241226.360       86650.828
D5727    496081.278     8306838.010        4062.125      496081.196    11699067.819        5721.923
D5826   1140169.312    19092031.072      105360.374     1140169.192    26888583.899      148384.484
D5926   1012621.457    16956254.191       77566.345     1012621.262    23880622.967      109243.360
> 2019  1 10  9 52  5.8000000  0 8                     
D3704   1101253.937    18440396.877       42787.628     1101253.825    25970843.401       60259.815
D3903   1166383.329    19530986.257      101427.548     1166383.238    27506784.370      142845.784
D4003    833314.030    13953766.032       83630.019      833313.906    19652020.994      117780.006
D4103    777087.743    13012256.973       24931.864      777087.677    18326036.267       35114.284
D5627    815160.237    13649787.144       61393.516      815160.176    19223896.194       86465.206
D5727    496032.711     8306025.585        3751.635      496032.656    11697923.434        5283.531
D5826   1138910.913    19070958.997      105259.980     1138910.735    26858907.003      148248.196
D5926   1011694.974    16940740.922       77525.290     1011694.776    23858774.295      109184.200
> 2019  1 10  9 52  6.0000000  0 8                     
D3704   1100742.908    18431839.352       42563.380     1100742.819    25958791.438       59945.236
D3903   1165171.889    19510700.747      101465.462     1165171.727    27478215.213      142900.499
D4003    832315.245    13937040.028       83489.179      832315.192    19628464.992      117583.933
D4103    776789.899    13007270.600       24777.538      776789.873    18319013.410       34895.901
D5627    814426.988    13637508.441       61317.107      814426.832    19206603.153       86357.155
D5727    495987.931     8305275.258        3473.077      495987.848    11696866.728        4890.732
D5826   1137653.641    19049907.001      105311.965     1137653.481    26829257.363      148316.220
D5926   1010768.967    16925235.864       77436.529     1010768.888    23836937.455      109057.710
> 2019  1 10  9 52  6.2000000  0 8                     
D3704   1100234.529    18423326.676       42656.878     1100234.364    25946802.391       60076.425
D3903   1163960.097    19490407.655      101387.864     1163959.875    27449635.114      142792.293
D4003    831318.034    13920342.192       83473.373      831317.857    19604948.206      117561.023
D4103    776493.967    13002315.093       24610.152      776493.872    18312034.230       34659.782
D5627    813694.524    13625245.019       61140.618      813694.416    19189331.722       86107.200
D5727    495946.432     8304580.642        3128.332      495946.352    11695888.582        4406.469
D5826   1136395.824    19028844.608      105218.182     1136395.683    26799594.119      148186.694
D5926   1009844.156    16909748.559       77297.526     1009844.017    23815125.913      108863.659
> 2019  1 10  9 52  6.4000000  0 8                     
D3704   1099725.032    18414795.300       42351.990     1099724.818    25934787.106       59647.164
D3903   1162749.011    19470130.082      101410.724     1162748.924    27421076.655      142822.835
D4003    830321.080    13903647.518       83371.814      830320.887    19581436.001      117419.898
D4103    776200.051    12997393.062       24459.832      776199.963    18305102.274       34448.302
D5627    812964.342    13613016.896       61026.649      812964.237    19172110.282       85947.908
D5727    495909.059     8303954.976        2783.795      495908.995    11695007.288        3919.641
D5826   1135139.128    19007800.972      105280.990     1135138.938    26769956.781      148274.751
D5926   1008920.840    16894289.053       77274.891     1008920.765    23793353.181      108830.593
> 2019  1 10  9 52  6.6000000  0 8                     
D3704   1099219.228    18406324.902       42244.668     1099218.990    25922857.673       59495.807
D3903   1161537.790    19449847.937      101321.293     1161537.741    27392512.088      142699.474
D4003    829325.229    13886973.155       83278.178      829325.080    19557952.022      117285.775
D4103    775907.942    12992501.096       24203.005      775907.791    18298212.613       34087.049
D5627    812235.422    13600811.566       60825.504      812235.341    19154920.700       85664.472
D5727    495875.887     8303398.217        2470.472      495875.703    11694223.360        3480.719
D5826   1133881.622    18986744.774      105170.289     1133881.429    26740301.830      148117.497
D5926   1007997.977    16878834.075       77112.236     1007997.822    23771587.063      108604.642
> 2019  1 10  9 52  6.8000000  0 8                     
D3704   1098714.666    18397875.969       42129.650     1098714.536    25910958.511       59334.563
D3903   1160327.571    19429583.679      101293.360     1160327.392    27363972.193      142656.154
D4003    828330.571    13870317.519       83201.675      828330.424    19534494.867      117178.805
D4103    775618.863    12987660.495       24111.846      775618.695    18291395.204       33958.045
D5627    811508.943    13588646.465       60632.093      811508.860    19137787.806       85391.382
D5727    495846.324     8302904.123        2182.935      495846.261    11693527.216        3073.461
D5826   1132625.495    18965710.716      105145.834     1132625.297    26710678.331      148083.162
D5926   1007076.828    16863411.628       77023.355     1007076.753    23749866.134      108474.752
> 2019  1 10  9 52  7.0000000  0 8                     
D3704   1098211.402    18389450.039       42079.435     1098211.242    25899091.599       59262.848
D3903   1159117.722    19409325.007      101341.734     1159117.671    27335440.962      142728.242
D4003    827336.752    13853677.185       83101.506      827336.705    19511059.106      117036.978
D4103    775330.824    12982838.126       23830.419      775330.694    18284603.595       33561.630
D5627    810784.847    13576520.047       60626.007      810784.665    19120709.529       85384.049
D5727    495820.249     8302467.536        1803.086      495820.200    11692912.524        2540.960
D5826   1131369.639    18944681.549      105117.194     1131369.475    26681061.698      148043.672
D5926   1006156.942    16848006.957       76936.107     1006156.832    23728171.184      108354.303
> 2019  1 10  9 52  7.2000000  0 8                     
D3704   1097708.849    18381034.151       41924.446     1097708.703    25887239.029       59043.830
D3903   1157907.374    19389056.660      101241.543     1157907.132    27306895.314      142582.703
D4003    826344.209    13837056.883       83093.005      826344.092    19487651.710      117025.691
D4103    775046.222    12978072.042       23738.617      775046.073    18277891.269       33431.936
D5627    810060.660    13564394.845       60401.277      810060.567    19103632.720       85067.335
D5727    495798.692     8302106.918        1500.237      495798.547    11692404.332        2112.221
D5826   1130114.141    18923658.110      105165.942     1130114.007    26651452.964      148110.837
D5926   1005238.099    16832619.735       76799.419     1005237.856    23706500.324      108161.688
> 2019  1 10  9 52  7.4000000  0 8                     
D3704   1097208.183    18372649.262       41750.309     1097207.998    25875430.263       58802.079
D3903   1156698.230    19368808.352      101285.019     1156698.037    27278378.774      142648.999
D4003    825351.760    13820438.282       82969.928      825351.675    19464246.572      116850.478
D4103    774762.711    12973324.319       23565.284      774762.622    18271204.881       33189.065
D5627    809339.228    13552314.590       60256.727      809339.121    19086619.253       84864.440
D5727    495780.774     8301806.871        1261.317      495780.715    11691981.888        1776.643
D5826   1128858.052    18902624.922      105030.077     1128857.880    26621830.796      147921.801
D5926   1004320.728    16817259.852       76794.294     1004320.627    23684867.986      108155.424
> 2019  1 10  9 52  7.6000000  0 8                     
D3704   1096709.369    18364299.200       41734.494     1096709.249    25863669.847       58775.065
D3903   1155488.368    19348551.348      101228.470     1155488.216    27249848.974      142565.907
D4003    824360.851    13803844.297       82853.044      824360.721    19440876.476      116689.490
D4103    774481.220    12968611.262       23297.680      774481.107    18264567.069       32811.546
D5627    808619.529    13540263.245       60183.197      808619.403    19069646.365       84758.973
