     3.02           OBSERVATION DATA    M: Mixed            RINEX VERSION / TYPE
BUPT PLAN 6.0                           20210329 120000 UTC PGM / RUN BY / DATE 
                                                            MARKER NAME         
                                                            MARKER NUMBER       
                                                            MARKER TYPE         
                                                            OBSERVER / AGENCY   
                                                            REC # / TYPE / VERS 
                                                            ANT # / TYPE        
  4076128.1056   519876.3642  4878092.5196                  APPROX POSITION XYZ 
        0.0000        0.0000        0.0000                  ANTENNA: DELTA H/E/N 
D    6 C5D L5D D5D C7D L7D D7D                              SYS / # / OBS TYPES  
    30.000                                                  INTERVAL            
  2019     1    10     9    51   54.0000000     GPS         TIME OF FIRST OBS   
  2019     1    10     9    54   44.0000000     GPS         TIME OF LAST OBS   
                                                            END OF HEADER       
> 2019  1 10  9 51 54.0000000  0 8                     
D3704   1137284.432    19043731.208           0.000      1137284.237    26820551.575           0.000 
D3903   1226363.316    20535339.464           0.000      1226363.362    28921292.555           0.000 
D4003    878872.380    14716651.936           0.000       878872.803    20726442.027           0.000 
D4103    782524.782    13103308.947           0.000       782524.822    18454274.624           0.000 
D5627    861076.460    14418640.189           0.000       861076.149    20306729.521           0.000 
D5727    505669.010     8467375.113           0.000       505668.588    11925169.625           0.000 
D5826   1230610.235    20606443.822           0.000      1230610.021    29021438.775           0.000 
D5926   1087887.364    18216580.416           0.000      1087887.660    25655627.789           0.000 
> 2019  1 10  9 51 54.2000000  0 8                     
D3704   1136693.505    19033830.526           0.000      1136693.562    26806607.584           0.000 
D3903   1225096.858    20514140.666           0.000      1225096.559    28891436.826           0.000 
D4003    877791.555    14698540.618           0.000       877791.198    20700934.432           0.000 
D4103    782104.842    13096269.279           0.000       782104.681    18444360.132           0.000 
D5627    860201.003    14403993.470           0.000       860200.842    20286101.173           0.000 
D5727    505364.275     8462274.938           0.000       505364.508    11917986.753           0.000 
D5826   1229348.265    20585323.290           0.000      1229348.319    28991693.379           0.000 
D5926   1086935.590    18200638.847           0.000      1086935.493    25633175.969           0.000 
> 2019  1 10  9 51 54.4000000  0 8                     
D3704   1136102.572    19023932.877           0.000      1136102.199    26792668.077           0.000 
D3903   1223829.580    20492922.413           0.000      1223830.525    28861553.861           0.000 
D4003    876710.758    14680440.564           0.000       876710.412    20675443.255           0.000 
D4103    781687.394    13089283.488           0.000       781686.993    18434521.388           0.000 
D5627    859328.600    14389371.744           0.000       859327.781    20265508.776           0.000 
D5727    505064.751     8457258.137           0.000       505064.859    11910921.223           0.000 
D5826   1228087.353    20564205.292           0.000      1228087.876    28961951.621           0.000 
D5926   1085984.773    18184708.608           0.000      1085984.359    25610740.526           0.000 
> 2019  1 10  9 51 54.6000000  0 8                     
D3704   1135512.909    19014065.033           0.000      1135512.463    26778770.527           0.000 
D3903   1222564.140    20471725.158           0.000      1222564.126    28831700.164           0.000 
D4003    875630.994    14662371.810           0.000       875631.449    20649995.716           0.000 
D4103    781271.675    13082318.756           0.000       781271.633    18424712.934           0.000 
D5627    858457.098    14374781.329           0.000       858456.939    20244959.953           0.000 
D5727    504767.705     8452284.434           0.000       504767.331    11903916.500           0.000 
D5826   1226826.522    20543085.869           0.000      1226825.282    28932207.604           0.000 
D5926   1085033.928    18168793.130           0.000      1085033.640    25588325.638           0.000 
> 2019  1 10  9 51 54.8000000  0 8                     
D3704   1134924.233    19004205.497           0.000      1134924.401    26764884.684           0.000 
D3903   1221298.726    20450530.025           0.000      1221298.179    28801849.765           0.000 
D4003    874552.016    14644304.490           0.000       874552.750    20624550.391           0.000 
D4103    780858.836    13075405.971           0.000       780858.117    18414977.085           0.000 
D5627    857586.590    14360212.584           0.000       857586.750    20224441.710           0.000 
D5727    504474.183     8447363.838           0.000       504473.479    11896986.682           0.000 
D5826   1225565.951    20521984.865           0.000      1225565.596    28902489.636           0.000 
D5926   1084085.395    18152902.695           0.000      1084084.490    25565945.913           0.000 
> 2019  1 10  9 51 55.0000000  0 8                     
D3704   1134337.764    18994388.003           0.000      1134337.450    26751057.818           0.000 
D3903   1220032.979    20429339.008           0.000      1220032.445    28772005.119           0.000 
D4003    873474.798    14626252.832           0.000       873474.524    20599126.958           0.000 
D4103    780447.674    13068521.629           0.000       780446.950    18405281.474           0.000 
D5627    856717.901    14345657.716           0.000       856717.262    20203943.222           0.000 
D5727    504185.441     8442541.285           0.000       504185.313    11890194.394           0.000 
D5826   1224305.721    20500888.247           0.000      1224306.033    28872777.450           0.000 
D5926   1083136.670    18137020.856           0.000      1083136.379    25543578.734           0.000 
> 2019  1 10  9 51 55.2000000  0 8                     
D3704   1133753.100    18984595.872           0.000      1133752.416    26737266.905           0.000 
D3903   1218767.630    20408146.668           0.000      1218766.740    28742158.278           0.000 
D4003    872397.843    14608224.720           0.000       872398.181    20573736.901           0.000 
D4103    780038.607    13061669.027           0.000       780038.404    18395630.501           0.000 
D5627    855849.884    14331128.974           0.000       855849.958    20183481.514           0.000 
D5727    503898.564     8437741.478           0.000       503898.996    11883434.621           0.000 
D5826   1223045.952    20479786.059           0.000      1223045.905    28843058.275           0.000 
D5926   1082189.790    18121166.504           0.000      1082189.406    25521249.861           0.000 
> 2019  1 10  9 51 55.4000000  0 8                     
D3704   1133170.343    18974837.741           0.000      1133170.963    26723523.982           0.000 
D3903   1217501.816    20386955.614           0.000      1217502.238    28712313.898           0.000 
D4003    871321.271    14590198.330           0.000       871321.278    20548348.763           0.000 
D4103    779632.036    13054860.961           0.000       779631.695    18386042.017           0.000 
D5627    854983.975    14316633.501           0.000       854984.037    20163066.617           0.000 
D5727    503617.831     8433035.887           0.000       503617.750    11876807.401           0.000 
D5826   1221786.682    20458697.153           0.000      1221786.900    28813357.268           0.000 
D5926   1081242.595    18105315.626           0.000      1081242.546    25498925.977           0.000 
> 2019  1 10  9 51 55.6000000  0 8                     
D3704   1132587.582    18965087.617           0.000      1132587.965    26709791.886           0.000 
D3903   1216238.120    20365794.148           0.000      1216237.409    28682510.495           0.000 
D4003    870245.446    14572185.469           0.000       870245.740    20522980.171           0.000 
D4103    779228.050    13048094.381           0.000       779228.367    18376512.433           0.000 
D5627    854120.054    14302156.394           0.000       854119.307    20142677.215           0.000 
D5727    503339.527     8428366.467           0.000       503338.833    11870231.175           0.000 
D5826   1220526.405    20437605.129           0.000      1220526.454    28783651.944           0.000 
D5926   1080297.617    18089487.501           0.000      1080297.558    25476634.063           0.000 
> 2019  1 10  9 51 55.8000000  0 8                     
D3704   1132007.770    18955368.931           0.000      1132007.404    26696105.133           0.000 
D3903   1214973.540    20344619.574           0.000      1214973.058    28652688.982           0.000 
D4003    869171.717    14554197.514           0.000       869171.767    20497646.601           0.000 
D4103    778825.415    13041357.667           0.000       778825.268    18367024.701           0.000 
D5627    853256.563    14287699.299           0.000       853255.983    20122316.326           0.000 
D5727    503063.382     8423757.721           0.000       503063.975    11863740.319           0.000 
D5826   1219268.399    20416526.837           0.000      1219267.927    28753965.922           0.000 
D5926   1079353.699    18073677.800           0.000      1079353.016    25454368.603           0.000 
> 2019  1 10  9 51 56.0000000  0 8                     
D3704   1131428.686    18945668.266           0.000      1131428.000    26682442.848           0.000 
D3903   1213709.735    20323456.800           0.000      1213709.293    28622883.848           0.000 
D4003    868097.249    14536218.824           0.000       868097.844    20472325.855           0.000 
D4103    778425.997    13034667.990           0.000       778425.719    18357602.861           0.000 
D5627    852394.861    14273273.679           0.000       852394.483    20101999.755           0.000 
D5727    502793.087     8419222.248           0.000       502793.027    11857352.742           0.000 
D5826   1218009.492    20395458.475           0.000      1218009.899    28724293.880           0.000 
D5926   1078410.412    18057892.345           0.000      1078410.203    25432136.471           0.000 
> 2019  1 10  9 51 56.2000000  0 8                     
D3704   1130850.578    18936000.222           0.000      1130850.703    26668826.427           0.000 
D3903   1212445.021    20302277.932           0.000      1212445.295    28593056.631           0.000 
D4003    867026.115    14518271.498           0.000       867025.740    20447049.790           0.000 
D4103    778028.124    13028003.181           0.000       778027.631    18348216.546           0.000 
D5627    851533.952    14258862.917           0.000       851534.460    20081704.509           0.000 
D5727    502524.738     8414733.558           0.000       502524.171    11851030.887           0.000 
D5826   1216751.166    20374385.724           0.000      1216751.344    28694615.614           0.000 
D5926   1077468.926    18042119.314           0.000      1077468.694    25409922.565           0.000 
> 2019  1 10  9 51 56.4000000  0 8                     
D3704   1130274.821    18926356.140           0.000      1130274.970    26655244.549           0.000 
D3903   1211181.883    20281125.604           0.000      1211181.099    28563266.304           0.000 
D4003    865954.319    14500326.165           0.000       865954.381    20421776.183           0.000 
D4103    777632.292    13021385.600           0.000       777632.837    18338896.343           0.000 
D5627    850675.417    14244478.040           0.000       850675.094    20061445.178           0.000 
D5727    502261.721     8410317.295           0.000       502261.277    11844811.312           0.000 
D5826   1215493.415    20353325.422           0.000      1215493.895    28664954.876           0.000 
D5926   1076528.111    18026356.734           0.000      1076527.159    25387722.993           0.000 
> 2019  1 10  9 51 56.6000000  0 8                     
D3704   1129699.937    18916737.601           0.000      1129700.221    26641697.456           0.000 
D3903   1209918.325    20259975.114           0.000      1209918.079    28533478.460           0.000 
D4003    864883.186    14482389.605           0.000       864882.984    20396514.496           0.000 
D4103    777239.522    13014800.921           0.000       777239.429    18329623.124           0.000 
D5627    849817.411    14230118.815           0.000       849817.303    20041222.102           0.000 
D5727    502000.160     8405946.311           0.000       501999.929    11838655.515           0.000 
D5826   1214235.826    20332265.634           0.000      1214236.159    28635295.231           0.000 
D5926   1075588.341    18010631.146           0.000      1075587.466    25365575.481           0.000 
> 2019  1 10  9 51 56.8000000  0 8                     
D3704   1129127.892    18907140.714           0.000      1129127.535    26628181.562           0.000 
D3903   1208655.256    20238827.940           0.000      1208655.568    28503695.524           0.000 
D4003    863813.965    14464489.019           0.000       863813.501    20371304.524           0.000 
D4103    776848.382    13008260.359           0.000       776849.030    18320411.400           0.000 
D5627    848961.624    14215783.411           0.000       848961.270    20021032.618           0.000 
D5727    501743.766     8401654.155           0.000       501744.323    11832610.385           0.000 
D5826   1212978.971    20311216.730           0.000      1212978.638    28605650.731           0.000 
D5926   1074649.357    17994899.856           0.000      1074649.386    25343420.155           0.000 
> 2019  1 10  9 51 57.0000000  0 8                     
D3704   1128555.417    18897559.800           0.000      1128554.798    26614688.380           0.000 
D3903   1207393.373    20217683.863           0.000      1207392.866    28473916.702           0.000 
D4003    862745.294    14446587.910           0.000       862744.843    20346093.117           0.000 
D4103    776459.943    13001744.768           0.000       776460.154    18311234.907           0.000 
D5627    848106.214    14201461.234           0.000       848106.359    20000861.641           0.000 
D5727    501491.053     8397416.659           0.000       501490.679    11826642.441           0.000 
D5826   1211721.337    20290163.561           0.000      1211721.404    28575999.995           0.000 
D5926   1073711.176    17979196.763           0.000      1073711.080    25321304.465           0.000 
> 2019  1 10  9 51 57.2000000  0 8                     
D3704   1127986.012    18888019.793           0.000      1127985.345    26601252.812           0.000 
D3903   1206130.465    20196547.956           0.000      1206130.640    28444149.817           0.000 
D4003    861677.136    14428706.234           0.000       861677.349    20320908.860           0.000 
D4103    776074.458    12995286.207           0.000       776073.584    18302139.117           0.000 
D5627    847253.661    14187184.879           0.000       847253.208    19980755.439           0.000 
D5727    501241.495     8393241.839           0.000       501241.533    11820762.826           0.000 
D5826   1210464.656    20269123.212           0.000      1210464.896    28546367.340           0.000 
D5926   1072774.566    17963513.079           0.000      1072774.690    25299215.989           0.000 
> 2019  1 10  9 51 57.4000000  0 8                     
D3704   1127416.301    18878493.126           0.000      1127416.566    26587835.434           0.000 
D3903   1204868.562    20175412.945           0.000      1204868.427    28414384.017           0.000 
D4003    860610.956    14410848.526           0.000       860610.321    20295758.576           0.000 
D4103    775689.399    12988843.568           0.000       775689.117    18293065.534           0.000 
D5627    846401.571    14172915.463           0.000       846401.329    19960658.617           0.000 
D5727    500995.932     8389122.861           0.000       500995.762    11814961.763           0.000 
D5826   1209207.526    20248073.489           0.000      1209207.638    28516721.996           0.000 
D5926   1071838.743    17947844.507           0.000      1071838.420    25277148.948           0.000 
> 2019  1 10  9 51 57.6000000  0 8                     
D3704   1126850.031    18869006.674           0.000      1126849.938    26574475.003           0.000 
D3903   1203606.727    20154279.328           0.000      1203606.460    28384620.054           0.000 
D4003    859543.576    14392990.158           0.000       859543.909    20270607.841           0.000 
D4103    775307.381    12982454.140           0.000       775307.416    18284066.837           0.000 
D5627    845551.143    14158682.279           0.000       845551.069    19940613.180           0.000 
D5727    500754.082     8385081.456           0.000       500754.526    11809270.006           0.000 
D5826   1207952.540    20227052.354           0.000      1207952.848    28487116.584           0.000 
D5926   1070904.801    17932202.044           0.000      1070904.661    25255118.489           0.000 
> 2019  1 10  9 51 57.8000000  0 8                     
D3704   1126284.990    18859536.810           0.000      1126284.825    26561138.101           0.000 
D3903   1202345.109    20133167.054           0.000      1202345.168    28354886.017           0.000 
D4003    858479.405    14375157.445           0.000       858479.396    20245492.655           0.000 
D4103    774928.012    12976102.711           0.000       774928.116    18275121.723           0.000 
D5627    844702.159    14144467.962           0.000       844702.746    19920594.472           0.000 
D5727    500515.625     8381089.548           0.000       500515.812    11803647.862           0.000 
D5826   1206697.423    20206033.629           0.000      1206697.481    28457514.029           0.000 
D5926   1069969.840    17916555.022           0.000      1069970.019    25233081.646           0.000 
> 2019  1 10  9 51 58.0000000  0 8                     
D3704   1125720.347    18850092.107           0.000      1125720.081    26547836.723           0.000 
D3903   1201084.078    20112048.560           0.000      1201084.384    28325143.571           0.000 
D4003    857415.073    14357342.435           0.000       857415.502    20220402.336           0.000 
D4103    774550.080    12969774.292           0.000       774549.802    18266209.071           0.000 
D5627    843854.892    14130273.382           0.000       843855.060    19900603.096           0.000 
D5727    500280.652     8377152.651           0.000       500280.840    11798103.339           0.000 
D5826   1205441.914    20185014.575           0.000      1205442.322    28427911.791           0.000 
D5926   1069037.951    17900942.336           0.000      1069037.705    25211093.476           0.000 
> 2019  1 10  9 51 58.2000000  0 8                     
D3704   1125158.090    18840673.597           0.000      1125157.807    26534571.947           0.000 
D3903   1199824.019    20090935.046           0.000      1199823.506    28295408.069           0.000 
D4003    856352.716    14339546.613           0.000       856352.329    20195339.307           0.000 
D4103    774176.391    12963506.160           0.000       774175.714    18257381.031           0.000 
D5627    843009.044    14116112.421           0.000       843009.023    19880659.196           0.000 
D5727    500049.868     8373291.387           0.000       500049.941    11792665.361           0.000 
D5826   1204186.704    20163993.677           0.000      1204186.511    28398306.348           0.000 
D5926   1068105.987    17885339.280           0.000      1068106.118    25189118.939           0.000 
> 2019  1 10  9 51 58.4000000  0 8                     
D3704   1124597.823    18831285.096           0.000      1124597.154    26521349.163           0.000 
D3903   1198562.848    20069827.622           0.000      1198562.675    28265681.053           0.000 
D4003    855290.818    14321762.182           0.000       855290.119    20170292.299           0.000 
D4103    773803.061    12957258.700           0.000       773802.999    18248582.493           0.000 
D5627    842164.110    14101963.254           0.000       842164.247    19860732.111           0.000 
D5727    499822.940     8369487.586           0.000       499822.409    11787308.086           0.000 
D5826   1202931.911    20142981.341           0.000      1202931.695    28368713.332           0.000 
D5926   1067176.506    17869767.218           0.000      1067175.642    25167187.425           0.000 
> 2019  1 10  9 51 58.6000000  0 8                     
D3704   1124037.419    18821908.639           0.000      1124037.225    26508143.642           0.000 
D3903   1197303.179    20048731.034           0.000      1197303.198    28235969.114           0.000 
D4003    854229.870    14303999.316           0.000       854229.530    20145275.633           0.000 
D4103    773432.434    12951050.981           0.000       773431.947    18239839.782           0.000 
D5627    841321.758    14087851.407           0.000       841321.632    19840857.337           0.000 
D5727    499599.123     8365747.370           0.000       499599.504    11782040.619           0.000 
D5826   1201677.814    20121975.650           0.000      1201677.464    28339130.102           0.000 
D5926   1066247.224    17854206.209           0.000      1066246.557    25145271.966           0.000 
> 2019  1 10  9 51 58.8000000  0 8                     
D3704   1123479.488    18812551.187           0.000      1123478.326    26494964.998           0.000 
D3903   1196043.639    20027640.482           0.000      1196043.382    28206266.304           0.000 
D4003    853169.464    14286241.780           0.000       853169.106    20120266.817           0.000 
D4103    773064.587    12944891.206           0.000       773064.486    18231164.420           0.000 
D5627    840480.596    14073758.207           0.000       840480.008    19821008.903           0.000 
D5727    499380.003     8362057.182           0.000       499379.023    11776843.457           0.000 
D5826   1200422.835    20100967.457           0.000      1200422.162    28309542.689           0.000 
D5926   1065318.137    17838665.073           0.000      1065318.551    25123384.496           0.000 
> 2019  1 10  9 51 59.0000000  0 8                     
D3704   1122923.240    18803248.657           0.000      1122923.068    26481863.517           0.000 
D3903   1194783.995    20006536.514           0.000      1194782.740    28176544.188           0.000 
D4003    852109.958    14268504.722           0.000       852110.012    20095286.669           0.000 
D4103    772698.314    12938759.370           0.000       772698.322    18222528.461           0.000 
D5627    839639.537    14059686.970           0.000       839639.157    19801191.643           0.000 
D5727    499163.189     8358443.875           0.000       499163.368    11771754.479           0.000 
D5826   1199169.926    20079983.058           0.000      1199169.150    28279988.889           0.000 
D5926   1064391.826    17823142.830           0.000      1064391.540    25101523.160           0.000 
> 2019  1 10  9 51 59.2000000  0 8                     
D3704   1122367.876    18793955.618           0.000      1122367.999    26468775.667           0.000 
D3903   1193525.259    19985462.731           0.000      1193524.226    28146864.394           0.000 
D4003    851052.331    14250797.502           0.000       851052.472    20070348.444           0.000 
D4103    772333.876    12932663.483           0.000       772334.231    18213943.187           0.000 
D5627    838801.713    14045658.785           0.000       838801.738    19781434.666           0.000 
D5727    498950.712     8354876.954           0.000       498950.110    11766731.119           0.000 
D5826   1197916.956    20059004.219           0.000      1197917.044    28250442.824           0.000 
D5926   1063465.086    17807628.164           0.000      1063464.962    25079673.004           0.000 
> 2019  1 10  9 51 59.4000000  0 8                     
D3704   1121814.741    18784689.763           0.000      1121814.483    26455726.089           0.000 
D3903   1192265.562    19964374.236           0.000      1192265.546    28117164.415           0.000 
D4003    849994.960    14233088.516           0.000       849994.819    20045407.367           0.000 
D4103    771972.716    12926613.799           0.000       771972.447    18205423.045           0.000 
D5627    837964.199    14031627.481           0.000       837963.955    19761673.521           0.000 
D5727    498742.589     8351389.550           0.000       498742.070    11761819.436           0.000 
D5826   1196662.642    20038014.657           0.000      1196663.402    28220881.972           0.000 
D5926   1062540.681    17792147.167           0.000      1062540.094    25057870.277           0.000 
> 2019  1 10  9 51 59.6000000  0 8                     
D3704   1121262.383    18775442.416           0.000      1121262.284    26442702.191           0.000 
D3903   1191007.580    19943309.937           0.000      1191007.180    28087497.829           0.000 
D4003    848938.022    14215397.152           0.000       848938.232    20020491.346           0.000 
D4103    771614.399    12920607.292           0.000       771613.355    18196963.632           0.000 
D5627    837128.098    14017641.405           0.000       837128.467    19741975.963           0.000 
D5727    498537.379     8347954.846           0.000       498536.497    11756982.083           0.000 
D5826   1195411.303    20017038.837           0.000      1195410.454    28191340.390           0.000 
D5926   1061616.675    17776678.355           0.000      1061616.483    25036084.225           0.000 
> 2019  1 10  9 51 59.8000000  0 8                     
D3704   1120712.595    18766237.140           0.000      1120712.991    26429737.893           0.000 
D3903   1189748.185    19922229.178           0.000      1189747.988    28057808.464           0.000 
D4003    847883.791    14197734.119           0.000       847883.125    19995615.138           0.000 
D4103    771258.269    12914641.422           0.000       771257.952    18188561.501           0.000 
D5627    836294.831    14003675.978           0.000       836294.099    19722307.568           0.000 
D5727    498335.647     8344584.555           0.000       498335.712    11752235.295           0.000 
D5826   1194158.386    19996072.430           0.000      1194158.699    28161811.964           0.000 
D5926   1060693.935    17761223.722           0.000      1060693.865    25014318.312           0.000 
> 2019  1 10  9 52  0.0000000  0 8                     
D3704   1120163.702    18757042.111           0.000      1120163.548    26416787.756           0.000 
D3903   1188491.006    19901167.159           0.000      1188490.202    28028145.231           0.000 
D4003    846829.072    14180072.919           0.000       846828.410    19970742.008           0.000 
D4103    770902.979    12908699.208           0.000       770902.868    18180192.695           0.000 
D5627    835462.026    13989729.443           0.000       835461.644    19702665.608           0.000 
D5727    498138.004     8341277.554           0.000       498138.034    11747578.101           0.000 
D5826   1192906.359    19975096.705           0.000      1192905.544    28132270.306           0.000 
D5926   1059772.269    17745791.849           0.000      1059772.045    24992584.555           0.000 
> 2019  1 10  9 52  0.2000000  0 8                     
D3704   1119616.076    18747877.412           0.000      1119615.923    26403880.699           0.000 
D3903   1187232.449    19880100.481           0.000      1187232.436    27998475.699           0.000 
D4003    845775.904    14162433.011           0.000       845775.493    19945898.548           0.000 
D4103    770551.024    12902804.486           0.000       770550.783    18171890.653           0.000 
D5627    834629.930    13975814.877           0.000       834630.185    19683068.706           0.000 
D5727    497943.942     8338025.756           0.000       497944.714    11742998.484           0.000 
D5826   1191654.978    19954147.701           0.000      1191654.523    28102766.315           0.000 
D5926   1058851.752    17730375.927           0.000      1058851.993    24970873.431           0.000 
> 2019  1 10  9 52  0.4000000  0 8                     
D3704   1119070.098    18738730.065           0.000      1119069.835    26390997.864           0.000 
D3903   1185975.274    19859045.836           0.000      1185975.080    27968823.186           0.000 
D4003    844723.026    14144814.643           0.000       844723.542    19921085.516           0.000 
D4103    770201.372    12896949.423           0.000       770201.253    18163644.964           0.000 
D5627    833801.307    13961929.882           0.000       833801.167    19663513.671           0.000 
D5727    497754.009     8334843.615           0.000       497753.962    11738516.638           0.000 
D5826   1190403.895    19933193.276           0.000      1190403.206    28073255.114           0.000 
D5926   1057932.526    17714990.662           0.000      1057932.817    24949205.558           0.000 
> 2019  1 10  9 52  0.6000000  0 8                     
D3704   1118526.671    18729634.529           0.000      1118526.813    26378187.820           0.000 
D3903   1184719.054    19838003.751           0.000      1184718.322    27939188.005           0.000 
D4003    843672.691    14127224.387           0.000       843672.541    19896311.877           0.000 
D4103    769853.844    12891134.421           0.000       769854.012    18155455.233           0.000 
D5627    832972.631    13948053.994           0.000       832972.622    19643971.196           0.000 
D5727    497567.614     8331723.401           0.000       497567.529    11734122.324           0.000 
D5826   1189152.999    19912258.708           0.000      1189153.066    28043771.661           0.000 
D5926   1057014.566    17699609.179           0.000      1057013.816    24927542.351           0.000 
> 2019  1 10  9 52  0.8000000  0 8                     
D3704   1117983.798    18720542.357           0.000      1117983.991    26365383.116           0.000 
D3903   1183461.603    19816963.286           0.000      1183462.219    27909555.274           0.000 
D4003    842622.649    14109633.421           0.000       842621.888    19871537.422           0.000 
D4103    769508.505    12885340.969           0.000       769508.461    18147295.797           0.000 
D5627    832146.169    13934216.992           0.000       832146.265    19624483.628           0.000 
D5727    497386.708     8328678.728           0.000       497385.462    11729834.324           0.000 
D5826   1187901.607    19891308.536           0.000      1187901.408    28014266.067           0.000 
D5926   1056096.806    17684250.860           0.000      1056096.760    24905912.492           0.000 
> 2019  1 10  9 52  1.0000000  0 8                     
D3704   1117442.682    18711480.817           0.000      1117442.680    26352620.896           0.000 
D3903   1182206.154    19795934.501           0.000      1182206.045    27879939.237           0.000 
D4003    841572.486    14092066.176           0.000       841573.125    19846796.139           0.000 
D4103    769165.815    12879613.964           0.000       769166.072    18139230.185           0.000 
D5627    831321.274    13920395.465           0.000       831320.575    19605017.879           0.000 
D5727    497206.396     8325674.576           0.000       497206.342    11725603.326           0.000 
D5826   1186651.674    19870373.810           0.000      1186652.213    27984781.790           0.000 
D5926   1055180.615    17668910.401           0.000      1055181.038    24884307.667           0.000 
> 2019  1 10  9 52  1.2000000  0 8                     
D3704   1116903.048    18702447.404           0.000      1116903.395    26339898.680           0.000 
D3903   1180949.327    19774888.354           0.000      1180949.168    27850298.632           0.000 
D4003    840524.771    14074514.555           0.000       840524.821    19822077.060           0.000 
D4103    768824.394    12873899.489           0.000       768824.979    18131182.382           0.000 
D5627    830497.428    13906607.976           0.000       830497.385    19585600.006           0.000 
D5727    497030.808     8322738.845           0.000       497031.372    11721468.668           0.000 
D5826   1185401.825    19849443.295           0.000      1185402.055    27955304.441           0.000 
D5926   1054266.258    17653588.438           0.000      1054265.069    24862728.765           0.000 
> 2019  1 10  9 52  1.4000000  0 8                     
D3704   1116365.255    18693440.227           0.000      1116365.398    26327213.096           0.000 
D3903   1179694.676    19753875.898           0.000      1179694.591    27820705.395           0.000 
D4003    839477.648    14056979.942           0.000       839477.964    19797381.971           0.000 
D4103    768486.648    12868233.501           0.000       768485.949    18123202.241           0.000 
D5627    829675.785    13892847.030           0.000       829675.562    19566219.736           0.000 
D5727    496860.311     8319879.588           0.000       496859.822    11717441.906           0.000 
D5826   1184152.216    19828517.923           0.000      1184151.964    27925833.441           0.000 
D5926   1053353.210    17638291.872           0.000      1053352.822    24841185.424           0.000 
> 2019  1 10  9 52  1.6000000  0 8                     
D3704   1115828.511    18684454.211           0.000      1115829.052    26314557.299           0.000 
D3903   1178437.934    19732843.089           0.000      1178438.121    27791083.309           0.000 
D4003    838431.533    14039465.812           0.000       838431.965    19772715.646           0.000 
D4103    768150.855    12862619.268           0.000       768150.487    18115295.169           0.000 
D5627    828855.471    13879111.648           0.000       828855.683    19546875.179           0.000 
D5727    496692.674     8317068.237           0.000       496692.948    11713482.487           0.000 
D5826   1182903.692    19807608.750           0.000      1182903.117    27896385.832           0.000 
D5926   1052439.757    17623005.239           0.000      1052439.515    24819656.167           0.000 
> 2019  1 10  9 52  1.8000000  0 8                     
D3704   1115293.649    18675496.596           0.000      1115293.882    26301942.004           0.000 
D3903   1177184.034    19711834.390           0.000      1177183.318    27761495.487           0.000 
D4003    837388.302    14021979.321           0.000       837387.351    19748087.998           0.000 
D4103    767817.542    12857029.126           0.000       767816.865    18107422.397           0.000 
D5627    828036.151    13865395.384           0.000       828037.044    19527557.720           0.000 
D5727    496529.164     8314322.959           0.000       496528.515    11709615.967           0.000 
D5826   1181654.572    19786691.785           0.000      1181654.191    27866927.339           0.000 
D5926   1051527.315    17607733.545           0.000      1051527.036    24798148.295           0.000 
> 2019  1 10  9 52  2.0000000  0 8                     
D3704   1114760.272    18666565.926           0.000      1114760.601    26289363.922           0.000 
D3903   1175928.751    19690832.072           0.000      1175929.920    27731916.439           0.000 
D4003    836341.917    14004474.467           0.000       836341.390    19723434.838           0.000 
D4103    767486.213    12851489.878           0.000       767486.253    18099621.016           0.000 
D5627    827219.870    13851717.564           0.000       827219.299    19508294.353           0.000 
D5727    496368.629     8311645.907           0.000       496368.441    11705845.935           0.000 
D5826   1180406.427    19765790.309           0.000      1180406.632    27837490.268           0.000 
D5926   1050616.955    17592493.957           0.000      1050617.191    24776685.237           0.000 
> 2019  1 10  9 52  2.2000000  0 8                     
D3704   1114229.196    18657674.407           0.000      1114229.159    26276841.765           0.000 
D3903   1174675.643    19669827.679           0.000      1174675.188    27702334.481           0.000 
D4003    835299.273    13987013.241           0.000       835299.746    19698843.248           0.000 
D4103    767157.304    12845977.817           0.000       767158.004    18091857.882           0.000 
D5627    826402.938    13838049.797           0.000       826403.228    19489045.022           0.000 
D5727    496213.010     8309033.443           0.000       496212.664    11702166.466           0.000 
D5826   1179158.075    19744886.510           0.000      1179157.456    27808049.774           0.000 
D5926   1049707.709    17577257.377           0.000      1049707.496    24755226.234           0.000 
> 2019  1 10  9 52  2.4000000  0 8                     
D3704   1113697.860    18648775.791           0.000      1113697.676    26264309.275           0.000 
D3903   1173420.609    19648821.805           0.000      1173421.101    27672750.902           0.000 
D4003    834256.606    13969567.970           0.000       834257.258    19674273.954           0.000 
D4103    766829.907    12840489.286           0.000       766829.608    18084128.530           0.000 
D5627    825589.501    13824415.679           0.000       825588.795    19469843.264           0.000 
D5727    496060.582     8306484.324           0.000       496060.055    11698576.526           0.000 
D5826   1177909.960    19723985.809           0.000      1177909.791    27778614.351           0.000 
D5926   1048799.547    17562055.208           0.000      1048799.585    24733816.132           0.000 
> 2019  1 10  9 52  2.6000000  0 8                     
D3704   1113169.966    18639931.967           0.000      1113170.350    26251854.074           0.000 
D3903   1172166.926    19627824.592           0.000      1172166.688    27643178.776           0.000 
D4003    833216.124    13952132.302           0.000       833215.855    19649717.969           0.000 
D4103    766506.072    12835075.614           0.000       766505.615    18076503.765           0.000 
D5627    824776.803    13810807.744           0.000       824776.539    19450678.078           0.000 
D5727    495911.836     8303995.146           0.000       495911.995    11695070.736           0.000 
D5826   1176662.281    19703089.149           0.000      1176661.577    27749184.165           0.000 
D5926   1047891.987    17546864.560           0.000      1047891.946    24712422.037           0.000 
> 2019  1 10  9 52  2.8000000  0 8                     
D3704   1112642.876    18631101.680           0.000      1112642.384    26239417.418           0.000 
D3903   1170913.099    19606839.070           0.000      1170913.938    27613623.472           0.000 
D4003    832176.088    13934716.933           0.000       832175.853    19625190.832           0.000 
D4103    766184.423    12829685.474           0.000       766184.236    18068912.698           0.000 
D5627    823965.538    13797226.512           0.000       823964.884    19431550.962           0.000 
D5727    495767.164     8301567.448           0.000       495766.772    11691651.470           0.000 
D5826   1175415.693    19682223.121           0.000      1175415.313    27719796.996           0.000 
D5926   1046985.975    17531692.078           0.000      1046986.625    24691053.575           0.000 
> 2019  1 10  9 52  3.0000000  0 8                     
D3704   1112116.443    18622294.716           0.000      1112116.609    26227014.331           0.000 
D3903   1169660.385    19585856.225           0.000      1169660.010    27584071.832           0.000 
D4003    831137.786    13917331.754           0.000       831137.454    19600706.022           0.000 
D4103    765865.004    12824329.569           0.000       765864.411    18061369.500           0.000 
D5627    823156.668    13783680.830           0.000       823155.538    19412473.623           0.000 
D5727    495625.254     8299194.273           0.000       495625.511    11688309.289           0.000 
D5826   1174169.075    19661351.739           0.000      1174169.423    27690402.462           0.000 
D5926   1046082.069    17516550.039           0.000      1046081.575    24669728.038           0.000 
> 2019  1 10  9 52  3.2000000  0 8                     
D3704   1111592.718    18613524.632           0.000      1111592.735    26214662.845           0.000 
D3903   1168407.750    19564879.855           0.000      1168407.379    27554529.620           0.000 
D4003    830100.808    13899953.828           0.000       830099.938    19576231.272           0.000 
D4103    765547.566    12819019.069           0.000       765547.229    18053890.222           0.000 
D5627    822347.459    13770134.104           0.000       822347.202    19393394.818           0.000 
D5727    495487.665     8296890.979           0.000       495487.858    11685065.510           0.000 
D5826   1172922.549    19640480.646           0.000      1172923.203    27661008.539           0.000 
D5926   1045178.427    17501418.874           0.000      1045177.898    24648418.004           0.000 
> 2019  1 10  9 52  3.4000000  0 8                     
D3704   1111070.554    18604786.563           0.000      1111070.643    26202356.105           0.000 
D3903   1167155.420    19543904.071           0.000      1167154.786    27524988.048           0.000 
D4003    829063.582    13882589.232           0.000       829062.898    19551775.769           0.000 
D4103    765233.233    12813754.123           0.000       765233.276    18046475.406           0.000 
D5627    821541.544    13756639.644           0.000       821541.492    19374389.729           0.000 
D5727    495354.797     8294664.048           0.000       495354.067    11681929.231           0.000 
D5826   1171676.383    19619606.660           0.000      1171675.940    27631610.417           0.000 
D5926   1044275.058    17486294.174           0.000      1044275.151    24627116.824           0.000 
> 2019  1 10  9 52  3.6000000  0 8                     
D3704   1110549.859    18596058.962           0.000      1110549.220    26190064.860           0.000 
D3903   1165903.854    19522951.503           0.000      1165903.741    27495479.157           0.000 
D4003    828027.876    13865250.401           0.000       828027.017    19527356.627           0.000 
D4103    764919.869    12808518.889           0.000       764920.383    18039102.107           0.000 
D5627    820736.988    13743162.242           0.000       820736.276    19355408.652           0.000 
D5727    495225.255     8292494.856           0.000       495224.819    11678874.087           0.000 
D5826   1170430.915    19598746.247           0.000      1170430.603    27602230.903           0.000 
D5926   1043374.581    17471210.390           0.000      1043374.336    24605873.551           0.000 
> 2019  1 10  9 52  3.8000000  0 8                     
D3704   1110031.456    18587373.290           0.000      1110031.098    26177832.297           0.000 
D3903   1164651.510    19501987.379           0.000      1164652.076    27465953.431           0.000 
D4003    826993.327    13847929.871           0.000       826993.387    19502962.833           0.000 
D4103    764609.861    12803320.695           0.000       764610.057    18031781.275           0.000 
D5627    819933.997    13729719.218           0.000       819933.935    19336475.942           0.000 
D5727    495099.070     8290380.157           0.000       495098.317    11675895.946           0.000 
D5826   1169186.134    19577903.642           0.000      1169185.367    27572876.700           0.000 
D5926   1042474.419    17456141.888           0.000      1042473.917    24584651.421           0.000 
> 2019  1 10  9 52  4.0000000  0 8                     
D3704   1109512.799    18578695.160           0.000      1109512.604    26165610.110           0.000 
D3903   1163401.056    19481039.629           0.000      1163400.230    27436451.617           0.000 
D4003    825960.565    13830628.222           0.000       825959.866    19478595.858           0.000 
D4103    764302.620    12798174.354           0.000       764302.842    18024533.061           0.000 
D5627    819131.512    13716291.146           0.000       819131.601    19317564.313           0.000 
D5727    494977.418     8288341.832           0.000       494976.640    11673025.092           0.000 
D5826   1167940.341    19557057.162           0.000      1167940.174    27543517.500           0.000 
D5926   1041574.737    17441079.790           0.000      1041575.354    24563438.100           0.000 
> 2019  1 10  9 52  4.2000000  0 8                     
D3704   1108996.537    18570056.279           0.000      1108996.261    26153443.348           0.000 
D3903   1162149.957    19460089.372           0.000      1162149.953    27406945.953           0.000 
D4003    824927.969    13813338.238           0.000       824927.794    19454245.258           0.000 
D4103    763997.874    12793060.060           0.000       763996.892    18017330.564           0.000 
D5627    818330.741    13702884.226           0.000       818331.086    19298682.369           0.000 
D5727    494858.213     8286356.543           0.000       494859.037    11670229.005           0.000 
D5826   1166696.002    19536218.111           0.000      1166696.273    27514168.217           0.000 
D5926   1040677.264    17426047.714           0.000      1040676.833    24542268.064           0.000 
> 2019  1 10  9 52  4.4000000  0 8                     
D3704   1108482.170    18561437.747           0.000      1108482.093    26141305.014           0.000 
D3903   1160899.477    19439150.461           0.000      1160899.132    27377456.736           0.000 
D4003    823896.394    13796065.112           0.000       823896.256    19429918.358           0.000 
D4103    763694.606    12787980.128           0.000       763693.791    18010176.021           0.000 
D5627    817533.272    13689519.292           0.000       817533.217    19279859.900           0.000 
D5727    494743.562     8284431.702           0.000       494743.511    11667518.203           0.000 
D5826   1165451.658    19515372.208           0.000      1165451.421    27484810.045           0.000 
D5926   1039781.297    17411033.711           0.000      1039780.544    24521122.113           0.000 
> 2019  1 10  9 52  4.6000000  0 8                     
D3704   1107969.567    18552859.084           0.000      1107969.839    26129223.702           0.000 
D3903   1159648.657    19418214.576           0.000      1159648.708    27347970.631           0.000 
D4003    822866.371    13778813.137           0.000       822866.010    19405621.032           0.000 
D4103    763392.596    12782940.056           0.000       763392.401    18003077.806           0.000 
D5627    816736.743    13676181.484           0.000       816737.148    19261074.951           0.000 
D5727    494632.852     8282582.819           0.000       494633.381    11664914.382           0.000 
D5826   1164208.514    19494553.661           0.000      1164208.196    27455489.833           0.000 
D5926   1038884.419    17396028.963           0.000      1038884.097    24499990.544           0.000 
> 2019  1 10  9 52  4.8000000  0 8                     
D3704   1107457.644    18544282.948           0.000      1107457.094    26117144.839           0.000 
D3903   1158399.071    19397280.038           0.000      1158398.784    27318487.538           0.000 
D4003    821835.948    13761568.306           0.000       821836.017    19381334.086           0.000 
D4103    763094.408    12777944.734           0.000       763094.183    17996042.497           0.000 
D5627    815941.232    13662865.207           0.000       815941.466    19242320.793           0.000 
D5727    494526.225     8280795.790           0.000       494526.598    11662397.633           0.000 
D5826   1162965.036    19473731.809           0.000      1162964.736    27426164.868           0.000 
D5926   1037990.593    17381059.261           0.000      1037990.602    24478907.540           0.000 
> 2019  1 10  9 52  5.0000000  0 8                     
D3704   1106948.916    18535767.066           0.000      1106949.240    26105151.799           0.000 
D3903   1157149.327    19376357.805           0.000      1157149.744    27289021.397           0.000 
D4003    820807.807    13744358.878           0.000       820808.128    19357096.737           0.000 
D4103    762799.498    12772997.469           0.000       762799.211    17989075.182           0.000 
D5627    815147.800    13649576.883           0.000       815147.756    19223606.010           0.000 
D5727    494422.022     8279048.795           0.000       494421.613    11659937.145           0.000 
D5826   1161721.302    19452914.186           0.000      1161721.684    27396846.124           0.000 
D5926   1037096.855    17366101.586           0.000      1037097.463    24457841.662           0.000 
> 2019  1 10  9 52  5.2000000  0 8                     
D3704   1106440.166    18527243.877           0.000      1106440.170    26093147.896           0.000 
D3903   1155900.012    19355440.923           0.000      1155899.688    27259563.034           0.000 
D4003    819780.777    13727161.980           0.000       819781.003    19332877.231           0.000 
D4103    762505.577    12768087.085           0.000       762505.783    17982159.442           0.000 
D5627    814356.299    13636317.368           0.000       814355.859    19204932.004           0.000 
D5727    494323.256     8277399.247           0.000       494323.375    11657613.960           0.000 
D5826   1160478.322    19432102.320           0.000      1160478.321    27367535.121           0.000 
D5926   1036206.053    17351178.561           0.000      1036206.172    24436824.549           0.000 
> 2019  1 10  9 52  5.4000000  0 8                     
D3704   1105934.232    18518769.854           0.000      1105934.003    26081213.149           0.000 
D3903   1154651.494    19334529.793           0.000      1154651.421    27230112.054           0.000 
D4003    818756.246    13709993.048           0.000       818755.449    19308697.338           0.000 
D4103    762213.509    12763192.891           0.000       762213.739    17975266.808           0.000 
D5627    813565.365    13623086.358           0.000       813566.035    19186297.788           0.000 
D5727    494228.311     8275809.872           0.000       494228.326    11655375.563           0.000 
D5826   1159235.919    19411298.426           0.000      1159235.499    27338235.601           0.000 
D5926   1035314.400    17336246.044           0.000      1035313.641    24415794.243           0.000 
> 2019  1 10  9 52  5.6000000  0 8                     
D3704   1105428.542    18510308.984           0.000      1105429.060    26069297.469           0.000 
D3903   1153402.510    19313624.573           0.000      1153402.468    27200669.967           0.000 
D4003    817730.840    13692829.434           0.000       817730.436    19284524.253           0.000 
D4103    761924.876    12758362.958           0.000       761924.920    17968464.291           0.000 
D5627    812776.756    13609866.769           0.000       812776.185    19167679.788           0.000 
D5727    494136.166     8274266.893           0.000       494135.790    11653202.321           0.000 
D5826   1157994.579    19390505.775           0.000      1157993.987    27308951.749           0.000 
D5926   1034424.817    17321349.911           0.000      1034424.551    24394814.652           0.000 
> 2019  1 10  9 52  5.8000000  0 8                     
D3704   1104924.998    18501872.230           0.000      1104924.962    26057415.178           0.000 
D3903   1152155.139    19292726.376           0.000      1152155.110    27171237.642           0.000 
D4003    816706.967    13675679.668           0.000       816706.396    19260371.211           0.000 
D4103    761638.422    12753565.753           0.000       761638.254    17961708.401           0.000 
D5627    811989.984    13596695.693           0.000       811989.708    19149129.961           0.000 
D5727    494049.687     8272802.717           0.000       494049.102    11651140.418           0.000 
D5826   1156752.643    19369717.406           0.000      1156752.384    27279674.526           0.000 
D5926   1033535.580    17306465.152           0.000      1033535.652    24373851.821           0.000 
> 2019  1 10  9 52  6.0000000  0 8                     
D3704   1104423.166    18493473.677           0.000      1104423.564    26045586.869           0.000 
D3903   1150907.173    19271831.657           0.000      1150906.928    27141810.100           0.000 
D4003    815684.272    13658557.153           0.000       815683.945    19236256.557           0.000 
D4103    761354.914    12748818.129           0.000       761354.920    17955021.528           0.000 
D5627    811204.534    13583543.956           0.000       811204.523    19130607.552           0.000 
D5727    493964.625     8271392.268           0.000       493964.811    11649154.048           0.000 
D5826   1155511.893    19348930.825           0.000      1155511.082    27250399.572           0.000 
D5926   1032648.722    17291614.051           0.000      1032648.559    24352935.795           0.000 
> 2019  1 10  9 52  6.2000000  0 8                     
D3704   1103923.427    18485101.543           0.000      1103922.375    26033795.780           0.000 
D3903   1149659.166    19250931.361           0.000      1149658.678    27112375.083           0.000 
D4003    814662.748    13641461.128           0.000       814663.228    19212179.010           0.000 
D4103    761073.084    12744091.012           0.000       761072.481    17948364.033           0.000 
D5627    810420.686    13570423.638           0.000       810420.540    19112129.394           0.000 
D5727    493883.949     8270042.710           0.000       493883.972    11647253.243           0.000 
D5826   1154271.473    19328158.335           0.000      1154270.985    27221144.019           0.000 
D5926   1031763.426    17276782.348           0.000      1031763.185    24332047.328           0.000 
> 2019  1 10  9 52  6.4000000  0 8                     
D3704   1103425.285    18476754.005           0.000      1103424.808    26022039.396           0.000 
D3903   1148412.168    19230055.569           0.000      1148412.594    27082974.097           0.000 
D4003    813642.751    13624379.836           0.000       813642.875    19188122.202           0.000 
D4103    760793.257    12739418.760           0.000       760793.898    17941783.692           0.000 
D5627    809639.066    13557326.051           0.000       809638.028    19093682.940           0.000 
D5727    493807.908     8268768.353           0.000       493808.265    11645458.524           0.000 
D5826   1153029.767    19307379.981           0.000      1153030.076    27191880.471           0.000 
D5926   1030878.226    17261965.774           0.000      1030877.573    24311180.015           0.000 
> 2019  1 10  9 52  6.6000000  0 8                     
D3704   1102928.478    18468432.594           0.000      1102927.733    26010320.167           0.000 
D3903   1147165.053    19209175.376           0.000      1147165.298    27053567.294           0.000 
D4003    812623.765    13607306.866           0.000       812623.177    19164077.465           0.000 
D4103    760517.759    12734785.060           0.000       760517.015    17935257.918           0.000 
D5627    808858.213    13544263.080           0.000       808858.345    19075285.311           0.000 
D5727    493735.195     8267556.673           0.000       493735.884    11643751.955           0.000 
D5826   1151790.842    19286624.453           0.000      1151790.154    27162648.858           0.000 
D5926   1029995.003    17247174.181           0.000      1029994.352    24290348.314           0.000 
> 2019  1 10  9 52  6.8000000  0 8                     
D3704   1102432.507    18460142.904           0.000      1102432.341    25998645.138           0.000 
D3903   1145919.142    19188307.221           0.000      1145918.390    27024177.040           0.000 
D4003    811606.116    13590263.485           0.000       811605.939    19140073.891           0.000 
D4103    760242.527    12730191.479           0.000       760242.919    17928788.303           0.000 
D5627    808079.716    13531215.144           0.000       808079.081    19056909.420           0.000 
D5727    493667.648     8266414.526           0.000       493667.750    11642143.288           0.000 
D5826   1150550.646    19265863.654           0.000      1150550.426    27133410.393           0.000 
D5926   1029113.159    17232395.987           0.000      1029112.583    24269535.448           0.000 
> 2019  1 10  9 52  7.0000000  0 8                     
D3704   1101938.664    18451870.576           0.000      1101938.906    25986994.631           0.000 
D3903   1144672.471    19167430.052           0.000      1144672.456    26994774.743           0.000 
D4003    810587.704    13573230.130           0.000       810588.328    19116084.755           0.000 
D4103    759970.701    12725637.293           0.000       759970.483    17922374.743           0.000 
D5627    807302.738    13518203.409           0.000       807302.190    19038583.968           0.000 
D5727    493601.938     8265320.737           0.000       493602.419    11640602.989           0.000 
D5826   1149311.605    19245113.300           0.000      1149311.404    27104186.027           0.000 
D5926   1028231.689    17217638.408           0.000      1028231.260    24248750.894           0.000 
> 2019  1 10  9 52  7.2000000  0 8                     
D3704   1101446.681    18443624.690           0.000      1101446.059    25975381.143           0.000 
D3903   1143426.885    19146579.536           0.000      1143426.635    26965409.170           0.000 
D4003    809572.713    13556225.743           0.000       809572.485    19092136.339           0.000 
D4103    759700.875    12721125.588           0.000       759701.471    17916020.158           0.000 
D5627    806526.284    13505210.181           0.000       806526.246    19020284.735           0.000 
D5727    493541.053     8264294.759           0.000       493540.808    11639157.947           0.000 
D5826   1148072.945    19224363.506           0.000      1148072.076    27074962.786           0.000 
D5926   1027350.958    17202893.205           0.000      1027350.697    24227984.711           0.000 
> 2019  1 10  9 52  7.4000000  0 8                     
D3704   1100956.296    18435409.910           0.000      1100956.226    25963812.295           0.000 
D3903   1142181.951    19125729.899           0.000      1142181.559    26936045.525           0.000 
