     3.02           OBSERVATION DATA    M: Mixed            RINEX VERSION / TYPE
BUPT PLAN 6.0                           20210329 120000 UTC PGM / RUN BY / DATE 
                                                            MARKER NAME         
                                                            MARKER NUMBER       
                                                            MARKER TYPE         
                                                            OBSERVER / AGENCY   
                                                            REC # / TYPE / VERS 
                                                            ANT # / TYPE        
  4076128.1056   519876.3642  4878092.5196                  APPROX POSITION XYZ 
        0.0000        0.0000        0.0000                  ANTENNA: DELTA H/E/N 
D    6 C5D L5D D5D C7D L7D D7D                              SYS / # / OBS TYPES  
    30.000                                                  INTERVAL            
  2019     1    10     9    51   54.0000000     GPS         TIME OF FIRST OBS   
  2019     1    10     9    54   44.0000000     GPS         TIME OF LAST OBS   
                                                            END OF HEADER       
> 2019  1 10  9 51 54.0000000  0 8                     
D3704   1133898.475    18987021.578       51738.159     1133898.101    26740691.898       72868.254
D3903   1238357.412    20736172.580      106618.399     1238356.712    29204135.375      150155.426
D4003    893826.796    14967044.622       90939.312      893827.028    21079095.592      128076.543
D4103    798381.376    13368828.760       36338.649      798382.091    18828214.133       51179.709
D5627    861318.036    14422682.335       71467.256      861317.710    20312434.230      100652.987
D5727    505354.758     8462111.586       22238.621      505354.005    11917759.458       31317.155
D5826   1213699.932    20323298.417      105727.760     1213699.923    28622660.261      148905.105
D5926   1068266.118    17888022.559       79460.599     1068266.020    25192889.860      111910.391
> 2019  1 10  9 51 54.2000000  0 8                     
D3704   1133280.764    18976673.947       51408.876     1133279.865    26726118.247       72402.775
D3903   1237083.477    20714848.900      106524.300     1237082.542    29174104.289      150026.099
D4003    892740.809    14948856.759       90786.581      892739.990    21053480.283      127861.915
D4103    797947.462    13361561.030       36196.566      797947.779    18817978.191       50975.991
D5627    860463.535    14408388.884       71194.812      860464.012    20292303.633      100267.972
D5727    505088.717     8457663.862       21807.962      505089.558    11911496.027       30713.808
D5826   1212437.944    20302152.865      105579.992     1212437.194    28592879.240      148696.506
D5926   1067316.949    17872130.439       79339.069     1067316.923    25170507.782      111738.065
> 2019  1 10  9 51 54.4000000  0 8                     
D3704   1132666.191    18966392.171       51376.192     1132666.092    26711637.692       72357.119
D3903   1235811.788    20693544.040      106370.225     1235810.491    29144099.070      149807.827
D4003    891655.898    14930699.443       90819.337      891656.599    21027907.900      127906.309
D4103    797515.630    13354321.717       35948.784      797515.169    18807782.993       50630.087
D5627    859613.655    14394149.921       71115.612      859613.717    20272250.038      100155.784
D5727    504828.073     8453302.270       21634.648      504828.496    11905353.266       30469.124
D5826   1211176.279    20281036.867      105551.988     1211175.980    28563139.938      148654.903
D5926   1066369.156    17856262.625       79234.576     1066369.835    25148160.168      111591.195
> 2019  1 10  9 51 54.6000000  0 8                     
D3704   1132053.301    18956116.933       51181.197     1132052.709    26697166.268       72080.206
D3903   1234540.982    20672269.995      106421.847     1234540.453    29114137.504      149882.808
D4003    890570.973    14912535.575       90620.570      890571.550    21002326.638      127627.801
D4103    797085.479    13347131.960       35793.547      797085.814    18797656.976       50409.984
D5627    858764.821    14379926.799       71026.659      858763.897    20252218.882      100033.539
D5727    504569.882     8448975.340       21208.925      504569.983    11899259.441       29871.576
D5826   1209915.733    20259926.469      105536.861     1209915.860    28533408.958      148635.864
D5926   1065423.187    17840415.710       79005.030     1065422.781    25125841.930      111267.337
> 2019  1 10  9 51 54.8000000  0 8                     
D3704   1131441.099    18945880.694       51114.676     1131441.133    26682750.227       71989.208
D3903   1233269.494    20650985.625      106338.572     1233268.975    29084160.943      149762.742
D4003    889488.931    14894411.461       90617.602      889489.610    20976801.078      127620.717
D4103    796658.113    13339973.251       35613.645      796658.435    18787574.979       50157.705
D5627    857915.802    14365721.467       70935.073      857916.206    20232212.174       99901.442
D5727    504316.706     8444733.555       20994.592      504316.608    11893285.126       29565.348
D5826   1208655.055    20238819.097      105467.637     1208654.902    28503681.785      148535.823
D5926   1064479.245    17824614.704       79142.962     1064479.214    25103588.462      111457.044
> 2019  1 10  9 51 55.0000000  0 8                     
D3704   1130830.614    18935657.758       50945.207     1130830.346    26668352.385       71748.099
D3903   1231998.886    20629717.911      106368.659     1231998.999    29054208.394      149805.766
D4003    888406.691    14876287.941       90478.374      888406.316    20951276.935      127428.634
D4103    796233.045    13332850.522       35362.697      796233.518    18777543.438       49802.770
D5627    857069.176    14351534.452       70703.192      857069.246    20212231.885       99575.278
D5727    504065.914     8440534.637       20659.291      504065.529    11887372.056       29097.560
D5826   1207395.377    20217725.569      105453.714     1207395.505    28473974.621      148519.685
D5926   1063534.019    17808786.112       78899.088     1063534.438    25081297.053      111123.401
> 2019  1 10  9 51 55.2000000  0 8                     
D3704   1130222.685    18925468.717       50885.708     1130221.972    26654002.765       71666.598
D3903   1230729.323    20608444.179      106305.400     1230728.270    29024247.241      149715.720
D4003    887326.346    14858192.266       90423.954      887326.192    20925791.208      127349.179
D4103    795811.195    13325777.982       35301.685      795810.830    18767582.884       49717.301
D5627    856223.928    14337393.814       70590.798      856224.431    20192316.830       99418.681
D5727    503819.125     8436402.779       20284.105      503818.980    11881552.544       28567.274
D5826   1206135.497    20196634.826      105418.254     1206135.600    28444270.684      148463.890
D5926   1062591.521    17793006.294       78805.093     1062591.323    25059072.373      110988.717
> 2019  1 10  9 51 55.4000000  0 8                     
D3704   1129614.317    18915291.575       50696.602     1129614.494    26639669.446       71399.804
D3903   1229459.250    20587183.099      106395.452     1229458.933    28994304.097      149843.439
D4003    886246.677    14840107.475       90464.120      886246.314    20900321.372      127405.998
D4103    795389.134    13318717.646       35022.119      795388.669    18757639.424       49324.822
D5627    855381.680    14323275.654       70552.568      855381.064    20172433.094       99362.045
D5727    503577.242     8432345.958       20077.243      503577.403    11875839.089       28278.236
D5826   1204876.932    20175551.175      105407.678     1204876.615    28414577.906      148455.372
D5926   1061650.228    17777245.275       78801.760     1061649.736    25036874.630      110979.209
> 2019  1 10  9 51 55.6000000  0 8                     
D3704   1129008.688    18905152.255       50604.517     1129009.075    26625389.485       71267.107
D3903   1228188.404    20565904.009      106204.898     1228187.925    28964335.409      149577.645
D4003    885165.314    14822014.651       90260.333      885165.602    20874840.173      127119.422
D4103    794970.760    13311713.222       34894.487      794970.889    18747774.459       49144.816
D5627    854538.723    14309165.141       70376.586      854539.140    20152560.685       99118.018
D5727    503337.396     8428330.509       19682.484      503336.532    11870183.442       27719.265
D5826   1203618.168    20154469.640      105375.166     1203617.428    28384886.831      148404.108
D5926   1060709.087    17761484.923       78648.062     1060709.143    25014678.788      110765.926
> 2019  1 10  9 51 55.8000000  0 8                     
D3704   1128404.701    18895031.352       50498.039     1128404.240    26611136.063       71122.094
D3903   1226919.611    20544663.029      106318.863     1226919.690    28934419.880      149737.880
D4003    884087.794    14803962.585       90210.384      884087.584    20849416.288      127050.734
D4103    794553.587    13304734.324       34683.980      794553.779    18737945.496       48845.955
D5627    853697.491    14295089.824       70300.730      853698.007    20132737.081       99010.115
D5727    503102.077     8424394.012       19409.451      503101.675    11864639.589       27333.296
D5826   1202359.251    20133394.607      105343.310     1202358.759    28355206.010      148362.186
D5926   1059770.298    17745755.311       78665.418     1059769.693    24992525.603      110790.010
> 2019  1 10  9 51 56.0000000  0 8                     
D3704   1127801.259    18884931.744       50332.842     1127801.567    26596911.644       70888.346
D3903   1225649.937    20523399.257      106225.483     1225649.316    28904472.304      149602.594
D4003    883010.067    14785920.508       90159.314      883010.325    20824006.141      126976.921
D4103    794140.036    13297797.528       34570.564      794139.413    18728176.305       48690.365
D5627    852858.095    14281029.678       70116.551      852858.158    20112935.058       98749.205
D5727    502870.567     8420512.122       19114.825      502869.763    11859172.930       26922.460
D5826   1201100.971    20112325.945      105346.929     1201100.916    28325533.572      148370.281
D5926   1058830.572    17730022.227       78424.350     1058830.806    24970367.601      110451.238
> 2019  1 10  9 51 56.2000000  0 8                     
D3704   1127200.178    18874865.175       50280.015     1127200.222    26582733.975       70809.570
D3903   1224381.537    20502154.160      106234.159     1224380.799    28874551.785      149615.483
D4003    881932.649    14767888.645       90066.926      881933.216    20798610.757      126845.540
D4103    793727.042    13290883.415       34319.239      793727.161    18718438.232       48332.106
D5627    852020.401    14267006.367       70071.509      852020.638    20093185.217       98684.302
D5727    502641.834     8416689.157       18802.065      502641.694    11853788.438       26480.091
D5826   1199843.014    20091256.559      105300.243     1199842.743    28295859.516      148298.366
D5926   1057893.654    17714337.357       78372.340     1057893.891    24948277.353      110375.161
> 2019  1 10  9 51 56.4000000  0 8                     
D3704   1126599.652    18864809.172       50069.316     1126600.476    26568572.061       70518.528
D3903   1223112.429    20480907.328      106214.681     1223112.054    28844628.688      149591.964
D4003    880857.674    14749875.260       89977.843      880857.091    20773241.649      126725.618
D4103    793317.054    13284019.568       34103.925      793317.205    18708771.811       48032.237
D5627    851183.740    14252992.066       69875.635      851183.777    20073448.357       98412.313
D5727    502416.890     8412928.744       18451.971      502417.443    11848492.420       25986.265
D5826   1198585.535    20070196.510      105220.759     1198584.908    28266199.843      148187.700
D5926   1056957.995    17698662.889       78388.195     1056957.534    24926202.321      110400.135
> 2019  1 10  9 51 56.6000000  0 8                     
D3704   1126001.457    18854795.309       50033.399     1126001.260    26554468.356       70463.138
D3903   1221843.452    20459664.392      106145.662     1221843.726    28814710.296      149487.447
D4003    879782.810    14731879.691       89929.471      879782.490    20747896.526      126650.691
D4103    792909.910    13277198.783       33952.644      792909.212    18699165.363       47816.464
D5627    850348.693    14239016.939       69716.248      850349.239    20053765.894       98185.469
D5727    502196.844     8409238.350       18175.558      502197.090    11843295.167       25599.145
D5826   1197328.669    20049152.359      105286.518     1197328.153    28236562.303      148287.219
D5926   1056021.237    17682985.250       78200.613     1056021.279    24904122.294      110133.636
> 2019  1 10  9 51 56.8000000  0 8                     
D3704   1125404.066    18844788.629       49845.474     1125403.853    26540375.728       70203.699
D3903   1220576.211    20438435.259      106146.708     1220575.698    28784812.806      149495.067
D4003    878709.083    14713893.797       89855.308      878708.694    20722566.388      126548.360
D4103    792504.398    13270408.254       33711.015      792504.046    18689602.071       47477.423
D5627    849517.047    14225073.689       69717.596      849516.102    20034128.801       98188.710
D5727    501980.084     8405603.238       17925.320      501979.680    11838175.338       25243.965
D5826   1196070.876    20028095.055      105156.634     1196070.290    28206904.859      148096.117
D5926   1055087.656    17667345.128       78132.902     1055087.391    24882095.567      110041.925
> 2019  1 10  9 51 57.0000000  0 8                     
D3704   1124808.615    18834819.534       49712.803     1124808.709    26526334.988       70014.919
D3903   1219307.809    20417205.918      106088.245     1219308.087    28754913.793      149411.959
D4003    877635.283    14695922.736       89776.688      877635.008    20697256.716      126441.029
D4103    792101.406    13263666.051       33589.877      792101.609    18680106.586       47308.132
D5627    848683.779    14211130.170       69455.549      848683.764    20014491.059       97817.878
D5727    501765.096     8402018.174       17581.573      501765.100    11833126.545       24760.914
D5826   1194814.746    20007063.728      105247.907     1194814.811    28177285.636      148227.522
D5926   1054154.407    17651718.547       78102.250     1054154.017    24860087.182      109995.092
> 2019  1 10  9 51 57.2000000  0 8                     
D3704   1124215.119    18824876.974       49610.133     1124214.990    26512332.005       69868.920
D3903   1218041.280    20395988.269      106109.345     1218041.402    28725031.401      149442.327
D4003    876563.758    14677967.398       89701.754      876563.020    20671968.510      126330.856
D4103    791700.406    13256948.075       33412.695      791700.538    18670644.960       47056.761
D5627    847854.432    14197239.060       69392.175      847854.324    19994927.483       97729.299
D5727    501555.873     8398501.860       17210.165      501556.110    11828174.362       24238.784
D5826   1193557.937    19986014.147      105098.159     1193557.252    28147640.131      148016.072
D5926   1053221.436    17636098.097       77925.828     1053220.730    24838088.163      109748.090
> 2019  1 10  9 51 57.4000000  0 8                     
D3704   1123622.630    18814954.947       49508.480     1123622.062    26498358.221       69725.760
D3903   1216773.118    20374766.400      106114.927     1216773.674    28695142.936      149447.778
D4003    875492.006    14660027.047       89596.148      875491.608    20646702.338      126184.874
D4103    791301.469    13250265.537       33232.190      791301.293    18661233.608       46801.854
D5627    847025.584    14183360.625       69324.723      847025.056    19975381.623       97634.057
D5727    501349.802     8395059.827       16921.157      501349.977    11823326.605       23831.367
D5826   1192302.434    19964994.515      105162.340     1192302.056    28118036.917      148107.675
D5926   1052290.481    17620512.932       77871.493     1052290.444    24816138.545      109672.278
> 2019  1 10  9 51 57.6000000  0 8                     
D3704   1123030.827    18805053.251       49377.228     1123031.391    26484413.069       69540.693
D3903   1215506.144    20353543.414      106022.056     1215505.638    28665253.380      149317.429
D4003    874421.347    14642107.817       89532.389      874421.609    20621465.364      126095.521
D4103    790904.726    13243619.099       33029.149      790904.475    18651873.237       46517.272
D5627    846197.293    14169495.680       69126.061      846197.560    19955854.812       97354.320
D5727    501148.201     8391675.595       16659.939      501147.519    11818560.332       23463.465
D5826   1191046.204    19943962.047      105073.753     1191046.277    28088415.382      147983.259
D5926   1051360.223    17604938.633       77746.380     1051360.870    24794204.090      109496.653
> 2019  1 10  9 51 57.8000000  0 8                     
D3704   1122441.877    18795177.806       49265.235     1122440.632    26470504.930       69381.919
D3903   1214239.490    20332339.003      106015.936     1214240.440    28635389.894      149309.332
D4003    873352.581    14624201.340       89490.818      873352.345    20596246.260      126035.950
D4103    790509.750    13237013.269       32867.000      790509.959    18642569.782       46289.800
D5627    845371.660    14155670.468       69006.567      845372.166    19936383.948       97188.457
D5727    500949.075     8388343.607       16314.123      500948.724    11813867.639       22977.409
D5826   1189792.001    19922947.296      105083.086     1189790.853    28058818.730      147994.144
D5926   1050431.763    17589389.357       77653.611     1050432.036    24772304.759      109364.791
> 2019  1 10  9 51 58.0000000  0 8                     
D3704   1121853.231    18785324.759       49149.240     1121852.928    26456628.546       69219.445
D3903   1212973.953    20311135.816      106003.477     1212973.415    28605528.028      149291.620
D4003    872283.755    14606303.176       89349.895      872283.056    20571039.070      125839.600
D4103    790117.750    13230439.869       32662.822      790117.042    18633311.822       46000.905
D5627    844547.971    14141869.155       68933.136      844547.796    19916946.256       97083.334
D5727    500753.969     8385080.783       16008.143      500754.012    11809272.157       22545.728
D5826   1188536.056    19901930.679      105036.024     1188535.922    28029219.901      147927.820
D5926   1049504.672    17573858.635       77601.122     1049503.770    24750431.801      109290.719
> 2019  1 10  9 51 58.2000000  0 8                     
D3704   1121265.782    18775494.911       48936.869     1121265.807    26442784.657       68922.563
D3903   1211707.898    20289935.121      105943.766     1211706.923    28575669.704      149208.052
D4003    871216.396    14588433.197       89320.062      871216.363    20545871.150      125793.922
D4103    789726.967    13223907.304       32504.169      789727.602    18624111.641       45778.403
D5627    843724.623    14128082.527       68760.906      843724.129    19897529.589       96839.757
D5727    500563.142     8381879.154       15720.203      500562.768    11804763.011       22138.754
D5826   1187281.824    19880923.474      105001.545     1187282.021    27999634.337      147880.663
D5926   1048577.804    17558338.410       77533.599     1048577.519    24728573.657      109193.880
> 2019  1 10  9 51 58.4000000  0 8                     
D3704   1120681.530    18765707.537       48854.477     1120681.167    26429000.145       68806.399
D3903   1210442.361    20268746.367      105989.486     1210442.273    28545828.094      149272.521
D4003    870149.374    14570569.185       89245.312      870149.654    20520712.365      125688.717
D4103    789339.000    13217406.470       32305.219      789338.626    18614955.961       45498.241
D5627    842903.125    14114330.346       68671.232      842902.938    19878161.638       96715.769
D5727    500375.518     8378735.114       15377.497      500375.245    11800335.260       21657.896
D5826   1186027.985    19859923.165      105026.016     1186027.788    27970058.205      147915.582
D5926   1047650.844    17542831.691       77356.822     1047651.121    24706734.881      108945.584
> 2019  1 10  9 51 58.6000000  0 8                     
D3704   1120097.705    18755936.641       48751.151     1120097.973    26415238.865       68656.873
D3903   1209176.557    20247548.470      105917.243     1209176.019    28515973.589      149171.183
D4003    869082.986    14552720.122       89140.427      869083.324    20495574.622      125543.987
D4103    788952.956    13210945.427       32077.797      788952.958    18605856.313       45176.821
D5627    842082.991    14100596.100       68497.460      842082.583    19858818.484       96468.402
D5727    500191.270     8375659.614       15052.030      500191.689    11796003.681       21195.957
D5826   1184773.246    19838917.962      104920.975     1184773.165    27940475.088      147769.867
D5926   1046727.242    17527360.326       77313.487     1046726.984    24684945.765      108887.058
> 2019  1 10  9 51 58.8000000  0 8                     
D3704   1119516.137    18746186.411       48703.654     1119515.468    26401507.490       68595.062
D3903   1207911.206    20226365.022      105872.841     1207910.997    28486139.353      149106.164
D4003    868018.826    14534892.037       89033.879      868019.023    20470465.824      125390.062
D4103    788570.131    13204529.867       31891.032      788569.866    18596820.948       44915.090
D5627    841265.002    14086896.608       68397.670      841264.649    19839524.804       96329.107
D5727    500011.752     8372649.208       14774.291      500011.729    11791764.490       20809.721
D5826   1183520.358    19817933.767      104934.596     1183519.391    27910921.115      147784.104
D5926   1045804.535    17511897.629       77235.225     1045804.120    24663168.353      108775.711
> 2019  1 10  9 51 59.0000000  0 8                     
D3704   1118933.585    18736445.680       48446.034     1118933.801    26387788.478       68226.266
D3903   1206645.771    20205190.453      105853.754     1206646.379    28456318.120      149081.196
D4003    866955.014    14517085.261       88976.539      866955.398    20445387.812      125313.693
D4103    788188.713    13198151.661       31805.510      788188.803    18587837.930       44791.686
D5627    840447.864    14073217.074       68199.385      840447.965    19820258.982       96050.493
D5727    499835.416     8369694.350       14397.168      499835.386    11787602.546       20276.029
D5826   1182266.864    19796946.848      104924.927     1182267.203    27881364.294      147774.650
D5926   1044881.813    17496450.584       77073.341     1044881.241    24641413.211      108547.482
> 2019  1 10  9 51 59.2000000  0 8                     
D3704   1118355.575    18726756.474       48364.713     1118354.756    26374143.225       68118.149
D3903   1205382.190    20184019.703      105862.027     1205382.125    28426501.881      149093.845
D4003    865893.143    14499289.953       88893.494      865892.430    20420325.074      125194.942
D4103    787809.130    13191790.559       31515.511      787809.783    18578879.593       44385.868
D5627    839633.362    14059577.197       68196.768      839632.890    19801048.884       96046.603
D5727    499663.630     8366814.916       14218.349      499663.191    11783547.340       20024.711
D5826   1181013.560    19775961.862      104862.084     1181013.516    27851809.364      147686.349
D5926   1043961.671    17481035.916       77078.402     1043960.896    24619703.714      108555.898
> 2019  1 10  9 51 59.4000000  0 8                     
D3704   1117777.540    18717083.531       48199.899     1117777.284    26360519.595       67883.219
D3903   1204117.785    20162847.297      105874.351     1204117.685    28396683.111      149108.432
D4003    864831.037    14481511.254       88824.434      864830.577    20395286.085      125096.556
D4103    787432.628    13185487.456       31395.769      787432.864    18570002.420       44219.308
D5627    838818.767    14045937.843       68009.683      838818.575    19781839.563       95780.060
D5727    499493.191     8363971.246       13765.310      499493.457    11779542.398       19385.662
D5826   1179760.735    19754989.445      104833.174     1179760.996    27822272.094      147640.000
D5926   1043040.061    17465620.235       76866.142     1043040.317    24597992.535      108256.760
> 2019  1 10  9 51 59.6000000  0 8                     
D3704   1117201.779    18707443.551       48180.765     1117201.619    26346942.951       67855.488
D3903   1202853.172    20141672.427      105742.151     1202852.916    28366861.425      148922.094
D4003    863770.053    14463746.368       88753.153      863769.903    20370266.774      124996.538
D4103    787057.220    13179208.303       31125.089      787057.475    18561158.558       43834.558
D5627    838006.352    14032335.907       67862.563      838006.110    19762683.551       95578.447
D5727    499329.659     8361218.184       13509.537      499329.246    11775665.265       19027.271
D5826   1178508.728    19734022.810      104838.759     1178508.871    27792744.094      147653.506
D5926   1042122.156    17450247.007       76859.543     1042122.263    24576341.183      108244.653
> 2019  1 10  9 51 59.8000000  0 8                     
D3704   1116626.493    18697807.398       47953.878     1116626.472    26333371.853       67539.634
D3903   1201590.639    20120523.997      105774.222     1201590.416    28337077.006      148971.596
D4003    862709.937    14445995.737       88716.775      862710.456    20345267.466      124946.680
D4103    786685.828    13172983.285       30965.459      786685.747    18552391.647       43610.264
D5627    837195.655    14018763.394       67721.954      837195.300    19743567.862       95375.005
D5727    499168.042     8358516.277       13180.082      499168.187    11771859.811       18562.061
D5826   1177256.814    19713055.059      104724.222     1177256.875    27763213.393      147488.358
D5926   1041204.852    17434875.098       76764.879     1041204.438    24554692.252      108110.200
> 2019  1 10  9 52  0.0000000  0 8                     
D3704   1116053.820    18688216.623       47870.109     1116053.444    26319863.927       67416.569
D3903   1200327.534    20099369.152      105721.607     1200327.232    28307282.687      148893.296
D4003    861650.054    14428252.382       88504.443      861650.209    20320278.130      124645.709
D4103    786315.811    13166790.193       30811.942      786315.856    18543669.594       43394.252
D5627    836387.260    14005219.004       67671.698      836386.989    19724492.861       95306.539
D5727    499010.724     8355880.260       12894.318      499010.165    11768147.399       18158.896
D5826   1176005.614    19692110.214      104781.215     1176005.972    27733715.721      147569.183
D5926   1040287.529    17419522.122       76627.947     1040287.327    24533070.212      107921.734
> 2019  1 10  9 52  0.2000000  0 8                     
D3704   1115481.851    18678642.601       47706.031     1115481.935    26306380.613       67186.802
D3903   1199064.075    20078224.831      105728.402     1199064.179    28277504.028      148902.586
D4003    860593.363    14410551.494       88549.956      860592.786    20295348.989      124711.951
D4103    785948.402    13160627.805       30638.307      785948.101    18534990.743       43149.118
D5627    835578.856    13991684.664       67486.589      835578.934    19705431.553       95046.535
D5727    498856.125     8353301.397       12524.078      498856.220    11764515.620       17638.857
D5826   1174754.742    19671153.971      104739.402     1174753.969    27704201.885      147512.289
D5926   1039372.545    17404196.533       76570.262     1039372.249    24511485.866      107840.974
> 2019  1 10  9 52  0.4000000  0 8                     
D3704   1114912.099    18669101.395       47613.219     1114911.897    26292943.252       67054.955
D3903   1197801.500    20057079.151      105690.967     1197800.952    28247723.511      148851.917
D4003    859535.964    14392841.502       88366.716      859535.364    20270406.599      124450.000
D4103    785582.398    13154500.143       30408.233      785582.305    18526360.920       42826.980
D5627    834773.136    13978187.346       67351.598      834772.352    19686422.246       94853.676
D5727    498706.904     8350796.581       12287.257      498706.705    11760987.848       17304.922
D5826   1173503.572    19650206.091      104707.111     1173503.676    27674699.427      147465.319
D5926   1038457.455    17388882.481       76456.077     1038457.788    24489917.671      107679.789
> 2019  1 10  9 52  0.6000000  0 8                     
D3704   1114343.327    18659578.751       47523.493     1114342.900    26279532.261       66931.033
D3903   1196539.219    20035940.957      105695.223     1196538.890    28217953.127      148859.428
D4003    858479.965    14375168.159       88347.202      858479.497    20245516.599      124426.704
D4103    785219.346    13148418.497       30187.590      785218.504    18517795.524       42515.199
D5627    833968.118    13964717.027       67149.717      833968.595    19667451.511       94571.869
D5727    498559.866     8348339.130       11950.665      498559.606    11757526.864       16831.300
D5826   1172252.568    19629264.669      104658.484     1172253.177    27645206.363      147397.226
D5926   1037544.259    17373591.265       76347.907     1037544.697    24468381.713      107521.356
> 2019  1 10  9 52  0.8000000  0 8                     
D3704   1113776.270    18650074.052       47329.211     1113776.110    26266146.055       66658.866
D3903   1195276.553    20014801.913      105671.577     1195276.658    28188181.242      148824.299
D4003    857425.764    14357498.719       88267.617      857425.278    20220631.258      124312.348
D4103    784858.705    13142380.979       30077.412      784859.132    18509292.484       42360.231
D5627    833166.005    13951287.083       67147.415      833166.115    19648537.137       94570.361
D5727    498417.303     8345948.997       11636.994      498417.583    11754160.604       16388.419
D5826   1171002.748    19608332.972      104662.249     1171002.262    27615726.918      147403.798
D5926   1036632.561    17358321.684       76282.793     1036632.686    24446877.442      107437.516
> 2019  1 10  9 52  1.0000000  0 8                     
D3704   1113210.303    18640608.210       47177.712     1113210.135    26252814.281       66442.444
D3903   1194014.607    19993667.597      105574.842     1194014.606    28158416.382      148688.007
D4003    856370.409    14339845.195       88152.928      856370.433    20195768.788      124152.914
D4103    784498.785    13136365.496       29848.807      784498.645    18500820.438       42037.621
D5627    832363.387    13937857.600       66948.166      832363.743    19629623.065       94287.775
D5727    498278.228     8343621.598       11303.683      498278.393    11750882.920       15920.011
D5826   1169752.948    19587400.522      104623.273     1169752.392    27586246.158      147347.186
D5926   1035721.698    17343065.125       76195.841     1035721.700    24425389.939      107311.400
> 2019  1 10  9 52  1.2000000  0 8                     
D3704   1112646.905    18631172.667       47118.606     1112647.021    26239525.792       66360.379
D3903   1192753.288    19972552.629      105603.600     1192753.116    28128678.781      148728.600
D4003    855317.906    14322214.610       88088.060      855317.996    20170938.205      124059.600
D4103    784142.740    13130395.735       29681.213      784143.028    18492412.914       41801.913
D5627    831564.520    13924467.967       66812.346      831564.534    19610765.510       94095.274
D5727    498143.795     8341360.861       10951.490      498143.936    11747698.918       15424.071
D5826   1168502.901    19566475.867      104499.234     1168503.320    27556776.721      147176.953
D5926   1034810.882    17327825.957       76041.070     1034811.229    24403927.659      107093.676
> 2019  1 10  9 52  1.4000000  0 8                     
D3704   1112084.413    18621748.946       47023.516     1112084.219    26226253.717       66228.053
D3903   1191492.119    19951431.909      105592.759     1191492.239    28098933.061      148714.274
D4003    854265.619    14304596.998       88085.945      854265.829    20146126.285      124060.635
D4103    783788.501    13124459.492       29469.494      783787.961    18484052.531       41506.865
D5627    830766.399    13911105.498       66777.303      830766.385    19591946.455       94047.883
D5727    498013.177     8339170.563       10711.012      498013.139    11744614.104       15086.043
D5826   1167255.456    19545576.020      104597.465     1167254.490    27527341.331      147310.418
D5926   1033903.656    17312617.743       75985.725     1033902.640    24382508.924      107014.811
> 2019  1 10  9 52  1.6000000  0 8                     
D3704   1111522.543    18612344.243       46812.203     1111522.333    26213008.106       65926.172
D3903   1190231.219    19930313.357      105509.598     1190230.968    28069190.206      148595.878
D4003    853213.609    14286979.809       87844.419      853212.944    20121314.158      123713.344
D4103    783435.658    13118565.593       29261.941      783435.721    18475751.158       41207.571
D5627    829969.042    13897750.037       66526.580      829968.586    19573136.878       93695.149
D5727    497884.410     8337028.361       10357.451      497884.883    11741596.895       14586.350
D5826   1166005.640    19524656.528      104466.074     1166005.456    27497879.247      147127.912
D5926   1032995.370    17297420.598       75899.656     1032995.781    24361105.962      106894.723
> 2019  1 10  9 52  1.8000000  0 8                     
D3704   1110962.666    18602981.802       46757.295     1110963.431    26199822.872       65853.376
D3903   1188970.944    19909211.437      105488.907     1188971.222    28039471.030      148568.534
D4003    852164.811    14269410.925       87845.634      852163.797    20096571.489      123720.791
D4103    783086.356    13112713.205       29128.016      783086.615    18467509.644       41023.834
D5627    829173.786    13884444.721       66388.743      829174.232    19554397.848       93498.256
D5727    497761.264     8334956.871        9999.608      497760.887    11738679.625       14083.250
D5826   1164757.568    19503763.313      104521.904     1164757.708    27468453.665      147202.444
D5926   1032089.252    17282240.667       75786.645     1032089.041    24339727.017      106737.141
> 2019  1 10  9 52  2.0000000  0 8                     
D3704   1110405.024    18593630.343       46536.670     1110405.205    26186652.197       65539.848
D3903   1187711.098    19888113.656      105476.454     1187711.044    28009757.323      148547.216
D4003    851114.840    14251841.798       87737.414      851115.528    20071827.331      123565.106
D4103    782738.694    13106887.602       28879.587      782738.555    18459304.877       40673.770
D5627    828381.032    13871166.972       66363.739      828381.555    19535698.197       93464.956
D5727    497641.708     8332956.949        9740.313      497641.426    11735862.975       13718.031
D5826   1163509.729    19482858.932      104449.869     1163509.303    27439013.176      147103.961
D5926   1031184.005    17267083.338       75660.829     1031184.219    24318379.589      106554.250
> 2019  1 10  9 52  2.2000000  0 8                     
D3704   1109848.778    18584323.009       46376.976     1109848.778    26173544.227       65311.981
D3903   1186451.147    19867018.365      105474.893     1186450.667    27980047.880      148548.756
D4003    850067.616    14234294.315       87702.344      850067.144    20047114.310      123517.622
D4103    782393.672    13101111.685       28659.242      782393.769    18451170.123       40362.137
D5627    827588.800    13857894.225       66121.864      827588.870    19517005.206       93121.274
D5727    497525.852     8331008.887        9413.136      497525.662    11733119.369       13258.406
D5826   1162261.548    19461968.958      104397.076     1162261.436    27409592.384      147029.480
D5926   1030280.221    17251951.172       75554.502     1030279.780    24297068.739      106409.792
> 2019  1 10  9 52  2.4000000  0 8                     
D3704   1109295.481    18575047.614       46363.880     1109295.174    26160481.831       65299.088
D3903   1185191.594    19845923.387      105457.263     1185191.329    27950338.129      148519.995
D4003    849019.937    14216753.847       87580.557      849019.403    20022410.786      123343.292
D4103    782051.143    13095379.836       28560.431      782052.054    18443097.696       40223.242
D5627    826799.011    13844669.852       66004.924      826799.201    19498380.951       92959.846
D5727    497412.733     8329126.259        9026.052      497412.238    11730467.688       12710.918
D5826   1161015.484    19441089.543      104422.246     1161014.991    27380186.488      147062.679
D5926   1029378.110    17236840.272       75560.081     1029377.613    24275786.780      106416.332
> 2019  1 10  9 52  2.6000000  0 8                     
D3704   1108741.992    18565774.838       46188.769     1108740.899    26147422.013       65052.392
D3903   1183931.931    19824831.934      105411.484     1183931.737    27920634.130      148459.867
D4003    847973.506    14199237.735       87485.772      847973.471    19997742.127      123214.577
D4103    781710.342    13089667.750       28331.730      781710.452    18435053.048       39900.433
D5627    826010.840    13831468.867       65958.953      826010.715    19479788.982       92893.868
D5727    497304.673     8327321.049        8818.781      497304.855    11727925.504       12419.992
D5826   1159767.646    19420205.094      104330.271     1159767.715    27350773.952      146938.915
D5926   1028475.497    17221728.256       75316.943     1028475.296    24254503.514      106075.207
> 2019  1 10  9 52  2.8000000  0 8                     
D3704   1108189.993    18556537.084       46074.005     1108189.122    26134411.535       64891.646
D3903   1182672.709    19803749.637      105349.629     1182672.636    27890942.157      148372.607
D4003    846929.003    14181740.581       87455.869      846928.951    19973099.212      123169.605
D4103    781372.380    13084001.404       28194.368      781372.225    18427072.961       39709.517
D5627    825222.751    13818277.076       65705.867      825222.542    19461210.208       92538.238
D5727    497199.440     8325557.293        8464.288      497199.482    11725441.506       11919.836
D5826   1158522.400    19399339.040      104390.043     1158521.046    27321386.169      147019.712
D5926   1027575.921    17206664.867       75325.407     1027575.583    24233288.473      106084.181
> 2019  1 10  9 52  3.0000000  0 8                     
D3704   1107639.151    18547322.283       45985.104     1107639.242    26121433.206       64759.631
D3903   1181414.444    19782679.711      105309.076     1181414.308    27861267.635      148312.419
D4003    845884.215    14164249.407       87306.204      845884.688    19948465.291      122958.884
D4103    781035.697    13078362.530       27903.385      781035.467    18419131.057       39299.299
D5627    824437.861    13805135.903       65670.156      824438.676    19442702.561       92488.710
D5727    497098.270     8323864.435        8101.528      497098.916    11723057.538       11411.155
D5826   1157275.102    19378461.031      104317.042     1157274.671    27291982.226      146914.458
D5926   1026675.981    17191599.786       75158.066     1026675.756    24212071.636      105848.472
> 2019  1 10  9 52  3.2000000  0 8                     
D3704   1107089.792    18538125.262       45712.628     1107090.172    26108481.280       64383.138
D3903   1180156.806    19761617.896      105400.811     1180156.486    27831605.151      148443.261
D4003    844841.263    14146788.166       87234.588      844841.471    19923873.514      122859.181
D4103    780701.997    13072781.853       27743.601      780702.264    18411271.198       39071.699
D5627    823653.483    13792001.872       65463.678      823653.443    19424204.819       92197.921
D5727    497001.786     8322244.130        7815.801      497000.755    11720775.308       11006.796
D5826   1156029.051    19357597.623      104279.522     1156028.721    27262599.335      146866.924
D5926   1025778.873    17176568.173       75105.491     1025778.129    24190901.942      105778.337
> 2019  1 10  9 52  3.4000000  0 8                     
D3704   1106544.788    18528982.737       45708.795     1106544.463    26095604.652       64376.509
D3903   1178897.633    19740537.734      105217.260     1178897.310    27801916.499      148184.132
D4003    843799.258    14129341.249       87146.342      843799.134    19899301.678      122733.767
D4103    780370.669    13067233.133       27596.926      780370.518    18403456.858       38865.468
D5627    822871.663    13778909.136       65368.857      822871.902    19405765.234       92062.648
D5727    496908.717     8320680.969        7512.338      496908.217    11718573.948       10580.239
D5826   1154783.322    19336741.718      104218.782     1154783.259    27233225.950      146776.734
D5926   1024881.599    17161547.075       75015.288     1024881.382    24169746.275      105650.626
> 2019  1 10  9 52  3.6000000  0 8                     
D3704   1105998.409    18519840.978       45576.547     1105997.946    26082729.350       64186.022
D3903   1177641.100    19719494.282      105327.667     1177640.420    27772279.673      148340.077
D4003    842757.963    14111911.980       87052.099      842758.980    19874754.925      122602.039
D4103    780041.041    13061713.748       27361.734      780041.130    18395683.764       38534.693
D5627    822090.914    13765835.365       65174.766      822091.419    19387352.705       91789.223
D5727    496818.493     8319178.502        7187.720      496818.110    11716457.901       10122.517
D5826   1153538.776    19315897.962      104197.133     1153538.265    27203870.603      146746.269
D5926   1023985.337    17146544.017       74884.162     1023985.127    24148616.149      105463.805
> 2019  1 10  9 52  3.8000000  0 8                     
D3704   1105453.991    18510725.668       45410.432     1105453.543    26069892.146       63951.658
D3903   1176383.011    19698428.749      105285.022     1176382.991    27742611.657      148279.266
D4003    841719.324    14094501.560       87027.380      841718.802    19850234.517      122563.974
D4103    779714.496    13056241.401       27168.838      779714.001    18387976.826       38268.670
D5627    821312.600    13752800.412       65129.891      821312.982    19368994.860       91727.011
D5727    496732.686     8317740.958        6918.087      496732.987    11714433.397        9746.102
D5826   1152293.843    19295058.535      104187.392     1152294.214    27174521.350      146734.667
D5926   1023090.999    17131567.185       74847.598     1023090.359    24127523.388      105412.381
> 2019  1 10  9 52  4.0000000  0 8                     
D3704   1104911.527    18501643.582       45281.564     1104911.633    26057101.814       63773.077
D3903   1175125.174    19677371.744      105188.812     1175125.730    27712955.804      148143.773
D4003    840679.921    14077096.084       86880.058      840679.050    19825721.722      122361.650
D4103    779389.488    13050807.633       26979.955      779389.732    18380323.092       37993.190
D5627    820534.906    13739774.433       64993.655      820534.529    19350649.458       91533.553
D5727    496650.386     8316357.340        6479.928      496650.337    11712484.177        9123.432
D5826   1151049.345    19274221.057      104183.154     1151049.553    27145174.416      146726.063
D5926   1022197.616    17116597.665       74668.237     1022196.564    24106440.912      105160.299
> 2019  1 10  9 52  4.2000000  0 8                     
D3704   1104370.900    18492587.269       45115.300     1104370.530    26044347.199       63541.600
D3903   1173869.839    19656333.982      105168.498     1173869.203    27683327.050      148118.312
D4003    839641.124    14059720.073       86841.900      839641.748    19801249.392      122302.731
D4103    779067.384    13045411.642       26767.138      779067.113    18372724.454       37699.012
D5627    819758.257    13726775.702       64746.895      819757.999    19332342.747       91187.102
D5727    496572.691     8315061.355        6244.823      496572.944    11710659.490        8795.348
D5826   1149805.493    19253384.426      104119.780     1149805.379    27115829.203      146642.842
D5926   1021305.013    17101664.018       74590.408     1021305.520    24085408.852      105051.697
> 2019  1 10  9 52  4.4000000  0 8                     
D3704   1103832.527    18483564.209       45022.592     1103832.230    26031638.879       63408.520
D3903   1172612.938    19635300.282      105172.193     1172612.777    27653703.387      148118.316
D4003    838604.953    14042351.693       86687.063      838604.736    19776788.846      122087.549
D4103    778748.245    13040058.215       26634.146      778748.236    18365184.652       37510.353
D5627    818985.372    13713826.323       64684.745      818985.149    19314105.327       91101.911
D5727    496498.644     8313812.390        5886.130      496498.665    11708900.421        8289.832
D5826   1148562.296    19232560.470      104069.883     1148561.459    27086500.635      146566.447
D5926   1020414.469    17086745.936       74427.542     1020414.033    24064398.513      104821.028
> 2019  1 10  9 52  4.6000000  0 8                     
D3704   1103294.410    18474559.691       44864.662     1103293.885    26018957.175       63186.415
D3903   1171356.858    19614265.844      105130.095     1171356.261    27624079.724      148063.678
D4003    837569.339    14025014.280       86651.279      837568.662    19752371.336      122038.171
D4103    778429.712    13034731.386       26435.897      778429.164    18357682.581       37232.892
D5627    818212.697    13700889.375       64522.518      818212.532    19295884.945       90871.171
D5727    496428.005     8312635.164        5597.007      496427.707    11707242.454        7881.966
D5826   1147319.327    19211746.493      104028.609     1147318.446    27057187.346      146509.304
D5926   1019524.937    17071860.427       74454.843     1019524.256    24043434.307      104858.975
> 2019  1 10  9 52  4.8000000  0 8                     
D3704   1102758.554    18465586.758       44771.215     1102758.374    26006319.892       63054.135
D3903   1170101.334    19593239.824      105112.360     1170101.162    27594466.989      148034.768
D4003    836534.367    14007684.025       86545.339      836534.471    19727963.702      121887.899
D4103    778114.060    13029444.206       26161.652      778114.075    18350236.003       36844.943
D5627    817441.807    13687984.871       64402.527      817441.823    19277710.711       90702.271
D5727    496360.698     8311515.763        5284.914      496360.994    11705666.061        7444.287
D5826   1146076.675    19190940.772      104029.268     1146076.527    27027885.485      146511.976
D5926   1018636.479    17056969.459       74307.526     1018635.522    24022462.512      104650.974
> 2019  1 10  9 52  5.0000000  0 8                     
D3704   1102223.392    18456632.515       44683.793     1102222.722    25993709.065       62930.895
D3903   1168846.382    19572217.353      105061.315     1168845.687    27564860.035      147966.034
D4003    835500.692    13990374.957       86406.529      835500.388    19703586.122      121691.909
D4103    777801.032    13024211.876       26022.728      777801.677    18342867.014       36649.317
D5627    816672.546    13675104.366       64266.806      816672.360    19259570.256       90511.354
D5727    496298.497     8310458.780        4901.571      496297.904    11704177.204        6903.356
D5826   1144833.902    19170134.918      103992.198     1144833.936    26998583.090      146457.802
D5926   1017748.051    17042107.954       74181.343     1017748.077    24001532.318      104475.190
> 2019  1 10  9 52  5.2000000  0 8                     
D3704   1101690.223    18447695.757       44436.457     1101689.984    25981122.886       62581.311
D3903   1167591.272    19551205.090      105052.468     1167590.745    27535266.828      147954.054
D4003    834468.536    13973093.651       86353.156      834468.151    19679247.740      121614.363
D4103    777490.884    13019007.330       25869.614      777490.088    18335537.151       36431.790
D5627    815905.151    13662251.004       64107.529      815904.987    19241467.986       90288.340
D5727    496239.303     8309478.466        4677.515      496239.049    11702796.532        6587.721
D5826   1143591.661    19149336.479      103921.386     1143591.356    26969291.529      146361.054
D5926   1016862.814    17027271.685       74077.924     1016862.624    23980637.280      104328.718
> 2019  1 10  9 52  5.4000000  0 8                     
D3704   1101158.949    18438808.465       44398.170     1101158.962    25968606.624       62529.931
D3903   1166335.523    19530194.596      104994.684     1166335.773    27505676.017      147868.968
D4003    833437.058    13955823.020       86343.485      833437.377    19654924.868      121605.821
D4103    777182.442    13013833.408       25587.959      777181.582    18328250.793       36039.319
D5627    815139.373    13649429.499       63952.723      815138.725    19223410.318       90068.022
D5727    496183.504     8308542.963        4243.509      496183.361    11701478.988        5975.665
D5826   1142350.798    19128552.201      104008.182     1142350.187    26940019.318      146480.045
D5926   1015977.722    17012456.100       74007.437     1015977.623    23959771.536      104233.383
> 2019  1 10  9 52  5.6000000  0 8                     
D3704   1100628.830    18429928.831       44261.515     1100628.638    25956100.637       62334.622
D3903   1165082.255    19509195.659      104959.575     1165081.934    27476102.224      147821.335
D4003    832406.344    13938554.323       86151.432      832406.425    19630603.703      121331.333
D4103    776875.837    13008715.816       25426.922      776876.039    18321042.929       35811.161
D5627    814375.387    13636638.954       63835.268      814375.551    19205396.713       89902.859
D5727    496132.496     8307694.261        4001.333      496132.526    11700283.855        5636.244
D5826   1141108.616    19107750.565      103860.612     1141108.040    26910723.309      146276.695
D5926   1015094.113    16997654.613       73858.746     1015094.273    23938924.860      104016.658
> 2019  1 10  9 52  5.8000000  0 8                     
D3704   1100100.463    18421076.528       44055.272     1100099.770    25943633.713       62047.686
D3903   1163828.522    19488203.744      105029.669     1163828.867    27446537.957      147921.532
D4003    831376.919    13921324.037       86093.318      831376.812    19606337.437      121251.165
D4103    776571.946    13003630.431       25216.009      776572.521    18313880.697       35515.266
D5627    813613.416    13623871.900       63647.860      813613.137    19187416.142       89641.302
D5727    496084.829     8306893.994        3633.679      496085.257    11699156.607        5117.982
D5826   1139867.401    19086978.443      103895.735     1139867.454    26881467.970      146319.101
D5926   1014211.066    16982882.864       73831.306     1014211.613    23918121.528      103980.978
> 2019  1 10  9 52  6.0000000  0 8                     
D3704   1099574.058    18412265.474       43937.267     1099573.751    25931224.176       61878.942
D3903   1162574.270    19467197.810      104909.791     1162573.919    27416953.650      147749.866
D4003    830349.032    13904105.373       85993.006      830348.478    19582087.204      121108.613
D4103    776270.522    12998587.229       25072.098      776271.108    18306777.643       35309.081
D5627    812852.500    13611142.328       63564.459      812853.098    19169487.881       89520.015
D5727    496041.337     8306167.259        3399.219      496041.821    11698133.010        4786.916
D5826   1138627.231    19066199.296      103815.524     1138626.500    26852204.150      146212.072
D5926   1013329.431    16968116.603       73616.790     1013329.689    23897325.332      103678.518
> 2019  1 10  9 52  6.2000000  0 8                     
D3704   1099048.814    18403478.020       43822.896     1099049.098    25918848.387       61719.067
D3903   1161321.059    19446215.852      104888.632     1161321.047    27387403.677      147720.488
D4003    829321.289    13886906.772       85899.688      829321.597    19557865.481      120977.906
D4103    775971.318    12993572.810       24831.153      775971.467    18299715.827       34971.167
D5627    812093.713    13598429.437       63405.917      812093.877    19151583.878       89298.124
D5727    496000.923     8305487.415        3011.096      496001.257    11697175.627        4241.099
D5826   1137387.142    19045436.191      103763.934     1137386.522    26822961.736      146138.244
D5926   1012450.408    16953393.245       73602.251     1012451.071    23876589.629      103661.691
> 2019  1 10  9 52  6.4000000  0 8                     
D3704   1098525.401    18394713.441       43678.739     1098525.939    25906504.574       61516.366
D3903   1160067.772    19425238.126      104875.353     1160067.445    27357859.580      147703.082
D4003    828295.330    13869726.834       85797.048      828295.126    19533669.900      120834.813
D4103    775675.431    12988606.579       24635.492      775675.018    18292721.594       34694.128
D5627    811336.102    13585748.253       63293.271      811336.332    19133724.253       89143.554
D5727    495964.849     8304885.196        2689.719      495965.369    11696327.407        3787.187
D5826   1136147.158    19024683.404      103758.283     1136146.901    26793734.087      146131.975
D5926   1011571.795    16938672.794       73506.811     1011570.924    23855857.291      103523.165
> 2019  1 10  9 52  6.6000000  0 8                     
D3704   1098004.324    18385977.694       43613.447     1098003.931    25894201.301       61424.446
D3903   1158815.429    19404263.055      104860.936     1158815.510    27328318.963      147683.489
D4003    827270.726    13852567.425       85744.547      827270.882    19509502.937      120760.332
D4103    775380.782    12983679.480       24530.478      775380.309    18285782.768       34547.752
D5627    810580.794    13573089.599       63122.777      810580.836    19115895.543       88897.186
D5727    495933.166     8304347.252        2409.689      495932.838    11695569.970        3392.802
D5826   1134908.332    19003931.748      103747.616     1134908.120    26764507.692      146113.985
D5926   1010693.083    16923971.432       73339.857     1010693.369    23835152.658      103290.307
> 2019  1 10  9 52  6.8000000  0 8                     
D3704   1097483.356    18377255.004       43411.595     1097483.017    25881916.411       61138.533
D3903   1157562.819    19383290.868      104839.652     1157563.059    27298782.265      147653.751
D4003    826246.733    13835418.515       85676.800      826246.424    19485350.871      120665.186
D4103    775088.197    12978773.385       24238.693      775088.411    18278873.218       34140.107
D5627    809826.075    13560465.044       62943.874      809826.537    19098116.105       88648.844
D5727    495904.509     8303865.314        2086.931      495903.861    11694891.409        2938.527
D5826   1133669.194    18983182.224      103666.828     1133669.086    26735284.895      145998.546
D5926   1009818.025    16909303.461       73269.117     1009816.889    23814494.596      103189.848
> 2019  1 10  9 52  7.0000000  0 8                     
D3704   1096964.929    18368572.685       43323.586     1096964.563    25869688.705       61016.181
D3903   1156310.309    19362322.938      104801.187     1156310.730    27269251.515      147597.951
D4003    825223.710    13818283.155       85547.622      825222.864    19461217.834      120481.853
D4103    774798.624    12973925.646       24040.450      774797.892    18272045.196       33854.387
D5627    809074.495    13547876.269       62812.728      809074.477    19080386.337       88463.250
D5727    495879.074     8303447.928        1740.992      495879.414    11694303.704        2452.692
D5826   1132430.913    18962448.859      103705.036     1132430.636    26706085.186      146057.452
D5926   1008942.581    16894649.637       73139.069     1008941.904    23793856.627      103007.026
> 2019  1 10  9 52  7.2000000  0 8                     
D3704   1096447.206    18359907.968       43116.059     1096447.166    25857485.469       60723.591
D3903   1155059.253    19341362.700      104757.663     1155059.132    27239731.925      147538.689
D4003    824201.119    13801173.631       85501.343      824201.559    19437121.463      120416.735
D4103    774511.267    12969117.556       23856.243      774511.351    18265274.319       33598.856
D5627    808324.865    13535313.723       62730.356      808324.934    19062693.687       88347.048
D5727    495858.025     8303099.729        1385.088      495857.978    11693813.165        1952.744
D5826   1131192.104    18941707.852      103636.625     1131191.934    26676873.696      145958.639
D5926   1008068.472    16880021.824       73075.602     1008068.350    23773255.221      102915.001
> 2019  1 10  9 52  7.4000000  0 8                     
D3704   1095931.383    18351284.756       43032.417     1095932.159    25845340.750       60605.833
D3903   1153808.162    19320411.168      104710.758     1153807.487    27210224.187      147470.390
D4003    823180.229    13784073.362       85303.446      823180.335    19413038.116      120138.753
D4103    774226.944    12964346.308       23670.954      774226.596    18258554.548       33337.318
D5627    807575.526    13522767.652       62532.675      807575.777    19045024.277       88068.958
D5727    495841.828     8302822.712        1166.513      495842.033    11693422.617        1641.298
D5826   1129954.670    18920980.527      103612.618     1129954.388    26647681.968      145922.422
D5926   1007195.551    16865406.703       72932.273     1007195.501    23752672.221      102717.066
> 2019  1 10  9 52  7.6000000  0 8                     
D3704   1095418.360    18342678.273       42901.044     1095418.527    25833219.584       60420.347
D3903   1152556.915    19299469.016      104733.910     1152556.862    27180730.109      147504.222
D4003    822161.278    13767012.673       85281.510      822161.114    19389010.365      120108.059
D4103    773943.536    12959612.117       23501.417      773943.427    18251887.084       33100.624
D5627    806828.161    13510261.117       62446.451      806828.341    19027410.485       87948.479
