     3.02           OBSERVATION DATA    M: Mixed            RINEX VERSION / TYPE
BUPT PLAN 6.0                           20210329 120000 UTC PGM / RUN BY / DATE 
                                                            MARKER NAME         
                                                            MARKER NUMBER       
                                                            MARKER TYPE         
                                                            OBSERVER / AGENCY   
                                                            REC # / TYPE / VERS 
                                                            ANT # / TYPE        
 -2173821.7072  4381469.4593  4093741.0168                  APPROX POSITION XYZ 
        0.0000        0.0000        0.0000                  ANTENNA: DELTA H/E/N 
D    6 C5D L5D D5D C7D L7D D7D                              SYS / # / OBS TYPES  
    30.000                                                  INTERVAL            
  2019     1    10     9    51   54.0000000     GPS         TIME OF FIRST OBS   
  2019     1    10     9    54   44.0000000     GPS         TIME OF LAST OBS   
                                                            END OF HEADER       
> 2019  1 10  9 51 54.0000000  0 8                     
D3704   1137285.006    19043734.055       46203.197     1137284.921    26820563.482       65070.512
D3903   1226364.053    20535356.726       99387.665     1226363.904    28921306.295      139975.296
D4003    878873.134    14716645.265       85174.306      878872.965    20726440.046      119958.431
D4103    782524.973    13103307.803       33212.925      782524.862    18454268.175       46775.969
D5627    861075.658    14418634.006       69504.468      861075.602    20306718.779       97886.992
D5727    505667.988     8467364.288       25814.097      505667.908    11925155.470       36355.269
D5826   1230609.541    20606449.920      107974.860     1230609.423    29021436.681      152066.213
D5926   1087887.952    18216585.557       85886.977     1087887.852    25655637.360      120959.323
> 2019  1 10  9 51 54.2000000  0 8                     
D3704   1136733.172    19034493.416       46180.751     1136733.022    26807549.379       65038.181
D3903   1225176.921    20515479.193       99398.231     1225176.826    28893311.236      139988.141
D4003    877855.739    14699610.403       85185.065      877855.630    20702448.360      119972.623
D4103    782128.235    13096665.218       33027.877      782128.138    18444912.981       46516.516
D5627    860245.568    14404733.113       69409.157      860245.463    20287141.380       97753.724
D5727    505359.719     8462201.468       25400.579      505359.607    11917884.417       35773.636
D5826   1229319.996    20584854.948      107967.869     1229319.824    28991023.439      152057.915
D5926   1086862.169    18199408.161       85834.937     1086861.989    25631445.495      120887.971
> 2019  1 10  9 51 54.4000000  0 8                     
D3704   1136181.661    19025257.266       46053.240     1136181.455    26794541.743       64861.343
D3903   1223989.762    20495599.547       99314.167     1223989.615    28865313.608      139870.942
D4003    876838.265    14682573.390       85140.339      876838.159    20678453.836      119908.807
D4103    781733.737    13090059.642       32809.072      781733.613    18435609.678       46206.927
D5627    859416.557    14390851.281       69283.980      859416.423    20267590.635       97578.012
D5727    505056.289     8457121.353       25232.685      505056.245    11910729.689       35537.362
D5826   1228030.467    20563261.375      107932.556     1228030.330    28960611.856      152011.958
D5926   1085836.916    18182241.174       85746.276     1085836.744    25607267.901      120763.125
> 2019  1 10  9 51 54.6000000  0 8                     
D3704   1135631.600    19016046.618       45908.161     1135631.428    26781569.475       64655.756
D3903   1222803.569    20475736.713       99310.967     1222803.421    28837339.419      139866.907
D4003    875821.343    14665545.323       85045.299      875821.263    20654472.074      119774.583
D4103    781341.848    13083497.828       32709.959      781341.739    18426368.292       46068.432
D5627    858589.011    14376994.485       69110.142      858588.912    20248075.033       97332.352
D5727    504754.903     8452074.816       24892.748      504754.780    11903622.217       35057.587
D5826   1226741.227    20541674.863      107943.361     1226741.067    28930209.464      152021.140
D5926   1084812.683    18165091.918       85691.663     1084812.565    25583115.276      120683.074
> 2019  1 10  9 51 54.8000000  0 8                     
D3704   1135083.224    19006864.986       45808.956     1135083.050    26768638.323       64514.557
D3903   1221617.390    20455874.520       99321.661     1221617.239    28809366.038      139881.970
D4003    874805.656    14648536.263       84954.748      874805.527    20630517.157      119647.232
D4103    780951.146    13076955.836       32566.685      780951.052    18417154.606       45866.108
D5627    857763.501    14363172.457       69082.116      857763.509    20228608.562       97292.033
D5727    504457.598     8447096.266       24586.662      504457.521    11896610.699       34627.648
D5826   1225451.997    20520086.191      107871.107     1225451.861    28899805.236      151922.709
D5926   1083789.340    18147953.586       85575.273     1083789.173    25558978.662      120520.934
> 2019  1 10  9 51 55.0000000  0 8                     
D3704   1134536.165    18997703.194       45708.268     1134535.981    26755735.412       64374.551
D3903   1220431.041    20436010.188       99266.210     1220430.908    28781389.644      139802.380
D4003    873790.979    14631545.313       84981.407      873790.777    20606587.711      119685.232
D4103    780562.155    13070442.499       32426.413      780562.114    18407981.384       45666.414
D5627    856938.440    14349356.034       68889.472      856938.350    20209150.156       97022.175
D5727    504163.943     8442178.934       24223.618      504163.785    11889685.170       34114.509
D5826   1224163.657    20498511.970      107880.325     1224163.400    28869420.694      151935.021
D5926   1082767.241    18130838.531       85542.453     1082767.058    25534874.475      120476.791
> 2019  1 10  9 51 55.2000000  0 8                     
D3704   1133990.168    18988561.541       45597.748     1133990.013    26742860.502       64217.910
D3903   1219245.482    20416156.946       99297.036     1219245.337    28753429.168      139845.524
D4003    872775.972    14614549.032       84810.581      872775.816    20582650.665      119443.259
D4103    780174.977    13063957.216       32154.354      780174.825    18398848.102       45285.308
D5627    856115.692    14335578.139       68782.425      856115.549    20189745.721       96871.337
D5727    503874.619     8437334.210       23968.843      503874.555    11882862.268       33757.917
D5826   1222875.112    20476935.905      107875.155     1222874.928    28839033.690      151929.946
D5926   1081745.452    18113730.041       85449.871     1081745.361    25510779.117      120346.298
> 2019  1 10  9 51 55.4000000  0 8                     
D3704   1133445.549    18979441.991       45537.946     1133445.417    26730016.920       64133.873
D3903   1218059.516    20396297.539       99255.204     1218059.363    28725460.063      139787.673
D4003    871762.954    14597586.916       84713.187      871762.815    20558762.013      119308.346
D4103    779790.907    13057526.346       32070.228      779790.813    18389791.040       45166.951
D5627    855294.114    14321821.654       68699.377      855294.018    20170371.453       96753.471
D5727    503588.329     8432540.441       23672.874      503588.276    11876110.685       33340.009
D5826   1221586.587    20455360.874      107855.322     1221586.442    28808647.701      151897.167
D5926   1080724.789    18096640.067       85330.739     1080724.637    25486709.857      120176.039
> 2019  1 10  9 51 55.6000000  0 8                     
D3704   1132901.692    18970334.402       45302.455     1132901.490    26717190.145       63804.247
D3903   1216874.017    20376446.498       99215.792     1216873.839    28697502.528      139733.861
D4003    870751.148    14580644.278       84818.555      870751.012    20534900.344      119455.369
D4103    779407.801    13051112.300       31885.322      779407.671    18380757.650       44906.523
D5627    854473.615    14308081.779       68577.522      854473.427    20151020.759       96581.955
D5727    503305.533     8427805.867       23336.475      503305.479    11869442.683       32866.529
D5826   1220298.491    20433789.809      107828.671     1220298.238    28778268.267      151863.602
D5926   1079705.628    18079573.919       85311.604     1079705.536    25462674.649      120149.993
> 2019  1 10  9 51 55.8000000  0 8                     
D3704   1132360.524    18961273.911       45337.749     1132360.346    26704429.296       63851.840
D3903   1215688.969    20356603.339       99227.897     1215688.765    28669555.756      139747.084
D4003    869738.112    14563680.567       84616.680      869737.959    20511009.270      119170.875
D4103    779026.968    13044735.236       31723.221      779026.891    18371776.345       44676.985
D5627    853654.492    14294366.275       68330.737      853654.400    20131704.368       96234.565
D5727    503026.827     8423138.572       23060.101      503026.765    11862869.377       32476.364
D5826   1219010.490    20412224.075      107752.093     1219010.325    28747895.547      151754.569
D5926   1078686.687    18062511.598       85253.142     1078686.535    25438644.650      120066.819
> 2019  1 10  9 51 56.0000000  0 8                     
D3704   1131818.990    18952206.361       45177.507     1131818.908    26691658.928       63624.607
D3903   1214503.840    20336757.760       99189.004     1214503.646    28641606.340      139694.729
D4003    868727.446    14546757.231       84595.631      868727.318    20487175.095      119141.789
D4103    778648.107    13038390.591       31635.141      778648.042    18362840.948       44553.926
D5627    852838.362    14280700.127       68406.762      852838.248    20112457.455       96341.695
D5727    502751.407     8418526.551       22806.867      502751.321    11856374.104       32120.532
D5826   1217723.518    20390673.656      107769.438     1217723.304    28717544.633      151777.367
D5926   1077668.467    18045460.970       85059.715     1077668.260    25414631.287      119797.372
> 2019  1 10  9 51 56.2000000  0 8                     
D3704   1131279.509    18943170.860       45123.430     1131279.342    26678934.007       63549.100
D3903   1213319.108    20316919.959       99213.675     1213318.900    28613667.394      139731.288
D4003    867717.038    14529838.105       84626.645      867716.933    20463346.737      119186.102
D4103    778270.250    13032063.563       31400.728      778270.134    18353930.163       44224.865
D5627    852021.273    14267018.775       68099.358      852021.162    20093189.116       95909.122
D5727    502479.016     8413965.178       22405.770      502478.943    11849949.998       31555.692
D5826   1216436.362    20369119.769      107780.422     1216436.214    28687189.160      151796.949
D5926   1076652.481    18028449.027       85083.342     1076652.307    25390671.812      119826.465
> 2019  1 10  9 51 56.4000000  0 8                     
D3704   1130740.587    18934146.174       44943.382     1130740.393    26666224.186       63299.475
D3903   1212134.050    20297077.224       99111.294     1212133.840    28585721.136      139583.834
D4003    866706.266    14512912.776       84388.894      866706.121    20439509.517      118850.382
D4103    777895.275    13025783.418       31227.475      777895.117    18345085.190       43979.423
D5627    851207.929    14253398.903       68087.797      851207.895    20074007.292       95893.456
D5727    502211.366     8409484.024       22185.039      502211.382    11843638.859       31244.444
D5826   1215148.933    20347563.684      107705.165     1215148.814    28656829.770      151688.229
D5926   1075636.258    18011432.358       84964.870     1075636.113    25366706.519      119661.832
> 2019  1 10  9 51 56.6000000  0 8                     
D3704   1130203.709    18925157.497       44840.038     1130203.587    26653564.292       63150.292
D3903   1210950.308    20277254.965       99135.092     1210950.161    28557804.370      139617.673
D4003    865698.311    14496034.997       84485.618      865698.165    20415739.440      118987.317
D4103    777522.237    13019537.923       31093.317      777522.073    18336289.306       43790.381
D5627    850394.739    14239781.344       67893.699      850394.589    20054828.600       95619.883
D5727    501946.416     8405047.016       21860.377      501946.353    11837389.971       30787.585
D5826   1213862.507    20326022.651      107685.508     1213862.392    28626492.124      151659.776
D5926   1074621.446    17994439.384       84911.649     1074621.330    25342774.153      119587.707
> 2019  1 10  9 51 56.8000000  0 8                     
D3704   1129668.182    18916189.490       44779.595     1129668.098    26640934.233       63065.640
D3903   1209766.284    20257427.947       99094.921     1209766.124    28529880.835      139561.947
D4003    864689.161    14479137.874       84313.033      864689.099    20391941.977      118741.705
D4103    777150.823    13013319.259       30940.902      777150.753    18327531.229       43576.716
D5627    849583.795    14226202.604       67839.457      849583.673    20035704.624       95541.479
D5727    501685.381     8400674.941       21503.770      501685.235    11831232.454       30286.085
D5826   1212576.374    20304485.550      107730.613     1212576.269    28596160.169      151725.802
D5926   1073607.275    17977457.055       84781.144     1073607.114    25318856.612      119400.803
> 2019  1 10  9 51 57.0000000  0 8                     
D3704   1129133.343    18907233.571       44617.321     1129133.148    26628321.105       62837.951
D3903   1208582.778    20237608.963       99132.528     1208582.568    28501968.446      139616.696
D4003    863682.279    14462275.267       84273.667      863682.061    20368193.636      118690.245
D4103    776781.282    13007131.079       30802.877      776781.157    18318815.886       43380.240
D5627    848773.522    14212634.713       67712.966      848773.436    20016596.328       95363.659
D5727    501428.453     8396374.187       21238.083      501428.410    11825175.237       29910.101
D5826   1211289.587    20282939.427      107631.894     1211289.465    28565815.008      151583.115
D5926   1072594.668    17960500.826       84785.849     1072594.545    25294976.451      119410.765
> 2019  1 10  9 51 57.2000000  0 8                     
D3704   1128600.343    18898310.107       44533.954     1128600.287    26615753.515       62720.534
D3903   1207398.594    20217782.457       99078.062     1207398.408    28474045.106      139535.951
D4003    862675.673    14445420.534       84223.302      862675.489    20344455.587      118616.974
D4103    776413.424    13000970.503       30505.421      776413.281    18310139.838       42964.258
D5627    847964.811    14199092.119       67520.996      847964.674    19997523.596       95094.589
D5727    501174.782     8392126.570       20930.590      501174.752    11819193.216       29478.683
D5826   1210004.167    20261413.048      107623.709     1210003.966    28535498.385      151573.311
D5926   1071581.971    17943543.656       84611.404     1071581.812    25271094.298      119164.713
> 2019  1 10  9 51 57.4000000  0 8                     
D3704   1128068.467    18889403.316       44418.959     1128068.296    26603209.408       62557.140
D3903   1206215.315    20197966.845       99016.084     1206215.113    28446137.916      139453.032
D4003    861669.713    14428575.873       84133.524      861669.564    20320732.192      118489.065
D4103    776049.022    12994869.419       30521.049      776048.929    18301546.987       42984.360
D5627    847158.335    14185587.920       67413.050      847158.136    19978504.678       94943.574
D5727    500924.816     8387940.452       20596.252      500924.745    11813297.480       29005.625
D5826   1208718.705    20239888.306      107659.038     1208718.551    28505183.723      151623.207
D5926   1070571.398    17926621.375       84575.792     1070571.210    25247261.355      119111.534
> 2019  1 10  9 51 57.6000000  0 8                     
D3704   1127538.002    18880519.524       44325.301     1127537.834    26590697.980       62426.616
D3903   1205032.629    20178163.628       99068.134     1205032.461    28418247.310      139521.947
D4003    860664.818    14411749.169       84122.389      860664.684    20297034.379      118475.824
D4103    775684.521    12988765.209       30254.265      775684.369    18292950.115       42611.074
D5627    846353.090    14172105.310       67319.069      846352.994    19959515.964       94809.477
D5727    500678.849     8383821.202       20304.058      500678.794    11807496.355       28596.491
D5826   1207432.825    20218356.499      107553.820     1207432.682    28474859.082      151476.102
D5926   1069561.257    17909706.217       84571.529     1069561.120    25223439.048      119108.297
> 2019  1 10  9 51 57.8000000  0 8                     
D3704   1127008.527    18871654.464       44165.458     1127008.365    26578212.657       62202.540
D3903   1203849.439    20158350.001       98952.112     1203849.239    28390342.920      139363.186
D4003    859660.058    14394924.691       83963.574      859659.980    20273339.214      118251.644
D4103    775323.086    12982714.356       30132.883      775323.004    18284427.900       42437.134
D5627    845549.037    14158641.497       67133.591      845548.974    19940554.068       94549.511
D5727    500436.316     8379760.390       20022.043      500436.262    11801777.057       28198.513
D5826   1206148.203    20196845.735      107562.341     1206148.022    28444563.862      151487.318
D5926   1068551.165    17892791.911       84345.028     1068550.975    25199617.389      118788.570
> 2019  1 10  9 51 58.0000000  0 8                     
D3704   1126480.991    18862821.372       44143.582     1126480.903    26565772.149       62169.791
D3903   1202667.429    20138559.579       99042.887     1202667.293    28362470.283      139489.891
D4003    858657.247    14378131.976       83945.796      858657.063    20249688.886      118225.317
D4103    774963.184    12976687.780       29932.478      774963.051    18275940.473       42154.167
D5627    844747.190    14145214.778       67006.052      844747.066    19921644.166       94367.016
D5727    500197.223     8375755.982       19676.974      500197.093    11796137.354       27712.562
D5826   1204863.482    20175333.267      107591.847     1204863.270    28414266.398      151529.672
D5926   1067543.752    17875922.905       84300.538     1067543.586    25175859.675      118726.571
> 2019  1 10  9 51 58.2000000  0 8                     
D3704   1125953.722    18853992.656       43964.148     1125953.584    26553338.191       61918.531
D3903   1201484.453    20118751.001       98990.601     1201484.316    28334572.305      139411.752
D4003    857654.586    14361342.817       83927.655      857654.419    20226043.822      118203.423
D4103    774605.726    12970701.284       29762.633      774605.630    18267509.640       41917.966
D5627    843946.976    14131813.568       66977.184      843946.826    19902770.763       94329.829
D5727    499962.209     8371820.587       19419.696      499962.044    11790594.842       27349.783
D5826   1203578.423    20153814.897      107541.579     1203578.218    28383960.463      151456.906
D5926   1066536.827    17859062.798       84334.198     1066536.684    25152114.361      118773.172
> 2019  1 10  9 51 58.4000000  0 8                     
D3704   1125428.625    18845199.826       43975.203     1125428.503    26540954.484       61931.701
D3903   1200302.243    20098952.881       98961.377     1200302.030    28306689.955      139376.107
D4003    856652.093    14344557.286       83846.243      856651.965    20202403.138      118086.262
D4103    774250.183    12964748.758       29652.185      774250.129    18259126.046       41760.780
D5627    843146.932    14118418.131       66827.551      843146.835    19883904.797       94118.446
D5727    499730.150     8367936.647       19061.423      499730.158    11785124.885       26845.587
D5826   1202293.956    20132306.581      107451.653     1202293.746    28353669.082      151331.140
D5926   1065529.550    17842195.958       84124.392     1065529.421    25128359.726      118478.594
> 2019  1 10  9 51 58.6000000  0 8                     
D3704   1124903.431    18836404.786       43757.584     1124903.274    26528568.144       61627.303
D3903   1199120.147    20079160.605       98883.909     1199119.978    28278814.733      139265.025
D4003    855650.704    14327788.037       83715.136      855650.530    20178785.885      117900.618
D4103    773896.067    12958818.321       29458.792      773895.933    18250773.891       41489.198
D5627    842348.688    14105052.621       66623.792      842348.617    19865081.108       93829.084
D5727    499502.591     8364124.363       18742.044      499502.423    11779755.767       26395.433
D5826   1201010.546    20110816.251      107452.504     1201010.409    28323402.854      151332.242
D5926   1064524.811    17825371.080       84147.840     1064524.596    25104664.008      118509.377
> 2019  1 10  9 51 58.8000000  0 8                     
D3704   1124380.799    18827653.269       43642.316     1124380.620    26516242.684       61464.496
D3903   1197939.074    20059383.824       98936.385     1197938.993    28250961.728      139337.086
D4003    854650.730    14311045.010       83735.735      854650.726    20155205.762      117930.938
D4103    773544.207    12952926.562       29267.305      773544.097    18242476.051       41219.027
D5627    841553.034    14091727.862       66532.964      841552.914    19846315.291       93702.162
D5727    499278.710     8360375.954       18501.017      499278.609    11774476.681       26056.666
D5826   1199727.166    20089325.750      107496.371     1199726.967    28293136.406      151393.250
D5926   1063519.790    17808541.512       84017.107     1063519.610    25080962.132      118328.260
> 2019  1 10  9 51 59.0000000  0 8                     
D3704   1123859.560    18818924.806       43564.062     1123859.312    26503949.785       61354.013
D3903   1196757.486    20039596.547       98917.654     1196757.313    28223094.311      139312.535
D4003    853650.626    14294297.863       83592.244      853650.522    20131619.574      117729.032
D4103    773194.632    12947073.101       29204.675      773194.484    18234232.246       41131.309
D5627    840758.372    14078421.269       66439.888      840758.234    19827574.859       93572.643
D5727    499057.726     8356675.751       18075.544      499057.616    11769265.348       25457.130
D5826   1198443.218    20067826.476      107407.612     1198443.116    28262857.756      151271.529
D5926   1062516.185    17791738.090       83883.814     1062516.131    25057296.480      118139.123
> 2019  1 10  9 51 59.2000000  0 8                     
D3704   1123339.152    18810211.993       43418.593     1123339.115    26491678.982       61148.634
D3903   1195575.945    20019813.016       98892.880     1195575.891    28195231.804      139277.659
D4003    852652.209    14277579.414       83555.953      852652.082    20108073.768      117677.416
D4103    772845.790    12941232.166       28901.268      772845.613    18226005.984       40702.395
D5627    839964.808    14065133.292       66234.925      839964.714    19808860.330       93283.315
D5727    498841.796     8353060.642       17870.380      498841.724    11764173.922       25167.445
D5826   1197160.293    20046344.954      107411.540     1197160.127    28232603.450      151274.027
D5926   1061514.293    17774961.327       83895.085     1061514.156    25033668.656      118155.077
> 2019  1 10  9 51 59.4000000  0 8                     
D3704   1122820.612    18801528.275       43325.729     1122820.476    26479449.255       61019.872
D3903   1194394.792    20000034.440       98807.341     1194394.638    28167376.272      139156.463
D4003    851654.252    14260868.223       83535.395      851654.125    20084538.284      117647.445
D4103    772500.679    12935451.913       28832.324      772500.520    18217865.505       40606.663
D5627    839173.662    14051886.307       66184.869      839173.543    19790203.667       93213.250
D5727    498628.421     8349486.566       17543.717      498628.293    11759140.433       24708.257
D5826   1195877.414    20024862.646      107394.435     1195877.304    28202348.645      151249.811
D5926   1060512.296    17758182.310       83750.656     1060512.127    25010037.640      117951.041
> 2019  1 10  9 51 59.6000000  0 8                     
D3704   1122303.108    18792863.129       43227.328     1122302.950    26467245.281       60877.987
D3903   1193214.654    19980272.972       98881.673     1193214.511    28139544.980      139262.019
D4003    850656.512    14244161.144       83384.590      850656.413    20061008.795      117436.467
D4103    772156.232    12929685.448       28638.192      772156.114    18209744.172       40333.120
D5627    838383.127    14038649.333       66010.745      838383.064    19771561.017       92966.600
D5727    498418.835     8345977.823       17219.513      498418.738    11754198.781       24250.907
D5826   1194594.713    20003383.759      107377.089     1194594.593    28172098.683      151227.048
D5926   1059512.040    17741432.179       83708.016     1059511.788    24986447.432      117891.714
> 2019  1 10  9 51 59.8000000  0 8                     
D3704   1121786.905    18784217.663       43142.243     1121786.744    26455069.683       60760.800
D3903   1192033.672    19960496.637       98786.844     1192033.430    28111692.576      139129.060
D4003    849660.602    14227484.226       83330.879      849660.450    20037521.502      117359.808
D4103    771814.238    12923957.809       28474.157      771814.092    18201677.548       40102.321
D5627    837594.746    14025447.184       65850.207      837594.564    19752967.697       92741.605
D5727    498213.276     8342533.920       16909.507      498213.077    11749348.600       23814.798
D5826   1193312.207    19981908.341      107282.933     1193312.100    28141853.273      151092.036
D5926   1058512.205    17724690.576       83567.980     1058512.029    24962869.089      117696.330
> 2019  1 10  9 52  0.0000000  0 8                     
D3704   1121271.607    18775589.215       43014.251     1121271.403    26442917.523       60578.886
D3903   1190853.707    19940739.268       98799.211     1190853.571    28083866.764      139143.793
D4003    848665.281    14210818.051       83270.742      848665.167    20014049.540      117276.136
D4103    771474.109    12918262.978       28319.818      771473.967    18193657.084       39884.830
D5627    836808.236    14012277.143       65770.046      836808.149    19734419.376       92628.822
D5727    498011.241     8339152.019       16557.558      498011.145    11744585.640       23319.920
D5826   1192030.914    19960451.754      107365.930     1192030.710    28111634.866      151213.153
D5926   1057513.983    17707976.980       83536.121     1057513.829    24939329.824      117648.488
> 2019  1 10  9 52  0.2000000  0 8                     
D3704   1120757.814    18766986.364       42883.453     1120757.672    26430801.746       60395.691
D3903   1189673.732    19920979.426       98772.932     1189673.528    28056038.005      139110.829
D4003    847670.738    14194163.902       83222.989      847670.547    19990594.313      117207.909
D4103    771135.827    12912599.014       28064.205      771135.774    18185680.118       39525.504
D5627    836022.652    13999123.133       65645.969      836022.529    19715893.612       92453.227
D5727    497813.435     8335840.507       16329.705      497813.352    11739921.656       22997.958
D5826   1190748.456    19938978.568      107303.523     1190748.283    28081392.235      151122.064
D5926   1056516.235    17691269.756       83472.343     1056516.122    24915800.126      117557.517
> 2019  1 10  9 52  0.4000000  0 8                     
D3704   1120245.608    18758409.674       42776.448     1120245.455    26418722.608       60245.567
D3903   1188493.903    19901224.840       98786.150     1188493.769    28028215.839      139126.984
D4003    846676.699    14177519.304       83150.818      846676.622    19967152.731      117107.772
D4103    770800.600    12906986.173       28052.809      770800.553    18177775.017       39507.968
D5627    835238.594    13985993.940       65487.188      835238.476    19697402.966       92229.324
D5727    497618.410     8332574.566       15959.410      497618.305    11735322.065       22477.509
D5826   1189466.891    19917517.864      107274.700     1189466.666    28051167.823      151081.497
D5926   1055519.384    17674575.287       83362.330     1055519.144    24892288.622      117406.701
> 2019  1 10  9 52  0.6000000  0 8                     
D3704   1119734.702    18749854.384       42632.541     1119734.531    26406673.495       60042.178
D3903   1187313.957    19881467.610       98691.556     1187313.909    28000390.443      138993.342
D4003    845683.511    14160889.141       83084.288      845683.405    19943731.177      117014.245
D4103    770465.590    12901375.612       27733.386      770465.501    18169873.424       39059.352
D5627    834456.413    13972896.502       65350.277      834456.319    19678957.101       92038.579
D5727    497427.730     8329382.684       15633.372      497427.675    11730826.563       22016.073
D5826   1188185.561    19896062.924      107175.107     1188185.401    28020951.523      150942.506
D5926   1054523.612    17657902.821       83307.249     1054523.457    24868807.282      117325.424
> 2019  1 10  9 52  0.8000000  0 8                     
D3704   1119225.469    18741327.876       42587.880     1119225.346    26394665.059       59980.294
D3903   1186135.253    19861729.298       98740.319     1186135.131    27972591.774      139063.050
D4003    844691.102    14144272.283       82992.273      844690.991    19920328.328      116881.516
D4103    770134.278    12895828.934       27700.927      770134.267    18162061.553       39010.975
D5627    833675.858    13959826.446       65286.415      833675.773    19660549.386       91946.376
D5727    497241.022     8326256.010       15322.184      497240.964    11726423.348       21579.754
D5826   1186905.449    19874627.902      107256.342     1186905.326    27990763.022      151055.454
D5926   1053528.633    17641241.372       83148.122     1053528.473    24845342.197      117105.005
> 2019  1 10  9 52  1.0000000  0 8                     
D3704   1118716.789    18732810.300       42470.510     1118716.659    26382669.000       59815.633
D3903   1184955.963    19841981.235       98668.741     1184955.744    27944779.164      138960.598
D4003    843699.956    14127673.828       82956.614      843699.865    19896952.025      116833.307
D4103    769803.542    12890288.749       27473.808      769803.418    18154259.358       38693.766
D5627    832896.180    13946769.163       65045.944      832896.004    19642160.110       91608.362
D5727    497057.996     8323191.573       15072.474      497057.987    11722107.397       21227.369
D5826   1185624.395    19853176.634      107250.256     1185624.276    27960551.931      151049.237
D5926   1052535.476    17624611.747       83118.227     1052535.348    24821921.197      117059.861
> 2019  1 10  9 52  1.2000000  0 8                     
D3704   1118209.434    18724316.198       42372.931     1118209.352    26370705.874       59674.137
D3903   1183777.458    19822247.486       98724.916     1183777.285    27916987.045      139041.147
D4003    842709.089    14111082.506       82896.224      842708.997    19873585.363      116749.220
D4103    769475.372    12884793.987       27310.661      769475.254    18146520.605       38463.603
D5627    832119.233    13933759.975       64960.739      832119.049    19623838.438       91488.647
D5727    496878.017     8320177.078       14696.834      496877.932    11717861.923       20698.701
D5826   1184343.355    19831726.582      107111.572     1184343.243    27930342.084      150850.623
D5926   1051542.789    17607988.102       83022.221     1051542.580    24798509.224      116927.148
> 2019  1 10  9 52  1.4000000  0 8                     
D3704   1117703.461    18715841.612       42161.582     1117703.297    26358771.046       59379.467
D3903   1182598.276    19802502.503       98620.476     1182598.109    27889178.815      138893.980
D4003    841718.980    14094503.261       82760.801      841718.868    19850235.519      116557.717
D4103    769149.238    12879331.855       27108.467      769149.026    18138827.885       38178.515
D5627    831343.383    13920767.827       64812.131      831343.162    19605540.709       91279.397
D5727    496702.449     8317237.711       14355.375      496702.453    11713722.183       20217.455
D5826   1183064.132    19810304.268      107157.541     1183063.902    27900171.959      150918.296
D5926   1050551.068    17591383.658       82959.226     1050550.920    24775123.795      116836.273
> 2019  1 10  9 52  1.6000000  0 8                     
D3704   1117199.873    18707409.296       42163.811     1117199.768    26346895.153       59381.848
D3903   1181420.327    19782778.408       98618.429     1181420.184    27861400.019      138888.848
D4003    840730.459    14077951.101       82700.288      840730.367    19826923.976      116472.280
D4103    768825.396    12873910.162       27026.594      768825.238    18131192.182       38063.879
D5627    830569.215    13907805.401       64724.028      830569.075    19587284.829       91154.405
D5727    496531.002     8314366.636       14072.579      496530.943    11709678.692       19820.009
D5826   1181784.210    19788872.760      107183.781     1181784.006    27869988.300      150952.676
D5926   1049560.275    17574791.812       82847.138     1049560.089    24751756.540      116679.735
> 2019  1 10  9 52  1.8000000  0 8                     
D3704   1116696.289    18698976.533       42128.661     1116696.163    26335018.783       59333.708
D3903   1180242.526    19763054.722       98759.486     1180242.391    27833622.250      139091.474
D4003    839742.684    14061411.043       82754.549      839742.627    19803629.520      116547.463
D4103    768502.613    12868504.843       26847.157      768502.418    18123579.406       37810.443
D5627    829796.236    13894860.595       64654.920      829796.046    19569053.948       91058.849
D5727    496362.915     8311552.120       13834.202      496362.851    11705714.691       19482.575
D5826   1180504.021    19767436.004      107198.617     1180503.842    27839797.765      150977.623
D5926   1048570.764    17558222.385       82898.599     1048570.588    24728420.593      116750.501
> 2019  1 10  9 52  2.0000000  0 8                     
D3704   1116193.017    18690550.801       41874.957     1116192.837    26323152.041       58974.628
D3903   1179062.900    19743302.825       98603.236     1179062.713    27805803.955      138869.105
D4003    838754.381    14044860.133       82605.571      838754.220    19780320.028      116339.800
D4103    768181.929    12863135.412       26603.862      768181.879    18116017.317       37467.798
D5627    829023.955    13881929.611       64434.617      829023.801    19550842.178       90747.039
D5727    496197.730     8308785.280       13440.437      496197.631    11701818.176       18929.782
D5826   1179223.584    19745996.280      107051.805     1179223.415    27809602.240      150766.558
D5926   1047580.589    17541642.665       82688.578     1047580.424    24705070.493      116455.010
> 2019  1 10  9 52  2.2000000  0 8                     
D3704   1115692.974    18682175.810       41800.186     1115692.802    26311357.116       58869.171
D3903   1177885.150    19723582.178       98571.840     1177885.017    27778030.134      138825.657
D4003    837767.664    14028339.019       82469.328      837767.536    19757052.067      116147.296
D4103    767864.182    12857814.639       26481.519      767864.071    18108523.758       37295.448
D5627    828254.321    13869042.687       64338.448      828254.188    19532692.770       90611.062
D5727    496037.183     8306097.192       13118.780      496037.110    11698032.219       18475.344
D5826   1177945.016    19724585.919      107097.961     1177944.912    27779448.929      150832.641
D5926   1046593.046    17525104.949       82594.605     1046592.903    24681779.491      116324.954
> 2019  1 10  9 52  2.4000000  0 8                     
D3704   1115193.719    18673815.773       41692.632     1115193.521    26299583.282       58719.855
D3903   1176707.843    19703867.810       98533.622     1176707.693    27750265.002      138772.086
D4003    836782.691    14011845.154       82501.669      836782.519    19733822.608      116192.296
D4103    767547.915    12852518.335       26318.112      767547.751    18101064.668       37066.961
D5627    827485.918    13856174.998       64142.346      827485.751    19514570.558       90336.212
D5727    495880.457     8303473.436       12824.877      495880.382    11694337.150       18062.979
D5826   1176665.954    19703166.327      106968.761     1176665.701    27749282.400      150653.109
D5926   1045606.450    17508586.028       82511.311     1045606.306    24658514.500      116205.459
> 2019  1 10  9 52  2.6000000  0 8                     
D3704   1114695.706    18665477.246       41517.312     1114695.537    26287839.311       58470.163
D3903   1175530.899    19684161.085       98519.538     1175530.726    27722510.585      138751.036
D4003    835797.280    13995344.820       82329.082      835797.180    19710584.149      115949.207
D4103    767233.493    12847254.713       26185.801      767233.415    18093651.276       36878.692
D5627    826719.837    13843346.529       63955.697      826719.694    19496503.316       90074.663
D5727    495727.315     8300908.461       12529.539      495727.221    11690724.555       17645.017
D5826   1175388.227    19681772.575      107078.857     1175388.000    27719151.779      150804.564
D5926   1044621.023    17492083.766       82462.107     1044620.860    24635273.409      116137.565
> 2019  1 10  9 52  2.8000000  0 8                     
D3704   1114199.799    18657173.784       41493.438     1114199.700    26276145.278       58439.604
D3903   1174354.258    19664457.178       98511.655     1174354.146    27694760.378      138741.240
D4003    834814.002    13978879.004       82341.197      834813.846    19687394.308      115966.868
D4103    766920.853    12842017.553       25909.508      766920.632    18086275.537       36489.825
D5627    825955.861    13830555.389       63930.743      825955.760    19478488.383       90036.291
D5727    495577.682     8298402.553       12202.220      495577.596    11687195.551       17185.452
D5826   1174109.286    19660356.803      106918.401     1174109.139    27688990.866      150580.430
D5926   1043636.037    17475591.345       82313.186     1043635.904    24612045.896      115926.505
> 2019  1 10  9 52  3.0000000  0 8                     
D3704   1113704.176    18648875.096       41301.263     1113704.049    26264457.357       58166.374
D3903   1173177.610    19644754.847       98474.913     1173177.472    27667012.130      138687.119
D4003    833830.503    13962410.764       82245.765      833830.351    19664200.934      115831.568
D4103    766611.321    12836835.651       25843.163      766611.177    18078977.572       36396.428
D5627    825192.297    13817769.241       63760.330      825192.218    19460481.125       89798.179
D5727    495431.948     8295962.109       11874.313      495431.864    11683758.461       16723.768
D5826   1172832.279    19638973.123      106965.668     1172832.082    27658874.780      150647.958
D5926   1042652.900    17459128.708       82310.650     1042652.779    24588860.595      115923.367
> 2019  1 10  9 52  3.2000000  0 8                     
D3704   1113210.899    18640614.844       41188.454     1113210.810    26252824.082       58009.890
D3903   1172001.430    19625059.864       98442.319     1172001.308    27639274.706      138643.569
D4003    832848.191    13945961.611       82094.854      832847.977    19641034.620      115619.884
D4103    766302.692    12831667.019       25626.710      766302.565    18071698.287       36091.809
D5627    824430.766    13805017.175       63619.527      824430.645    19442521.489       89600.817
D5727    495290.068     8293587.247       11533.127      495290.046    11680413.707       16243.358
D5826   1171554.599    19617579.989      106927.606     1171554.439    27628745.188      150593.920
D5926   1041669.813    17442666.578       82100.614     1041669.643    24565675.921      115628.633
> 2019  1 10  9 52  3.4000000  0 8                     
D3704   1112718.930    18632377.153       41151.222     1112718.856    26241222.104       57955.260
D3903   1170825.614    19605371.401       98467.054     1170825.544    27611545.992      138677.224
D4003    831867.657    13929542.640       82079.208      831867.488    19617910.644      115598.286
D4103    765996.480    12826541.677       25409.753      765996.394    18064479.925       35785.751
D5627    823670.911    13792293.269       63436.093      823670.758    19424601.326       89340.633
D5727    495152.325     8291280.621       11256.161      495152.231    11677165.036       15852.513
D5826   1170277.477    19596194.468      106896.234     1170277.310    27598626.404      150547.669
D5926   1040689.218    17426246.455       82096.220     1040689.061    24542550.195      115620.403
> 2019  1 10  9 52  3.6000000  0 8                     
D3704   1112227.422    18624146.908       41004.883     1112227.376    26229631.052       57750.297
D3903   1169649.644    19585677.990       98366.818     1169649.412    27583810.548      138537.534
D4003    830887.272    13913126.798       82050.036      830887.132    19594790.986      115556.361
D4103    765693.059    12821459.726       25265.958      765692.959    18057322.775       35583.498
D5627    822913.213    13779606.051       63377.190      822913.122    19406733.199       89258.873
D5727    495017.844     8289029.389       10855.398      495017.829    11673994.533       15289.131
D5826   1169000.756    19574815.221      106866.499     1169000.606    27568516.870      150504.727
D5926   1039708.700    17409827.211       82009.402     1039708.535    24519426.114      115499.557
> 2019  1 10  9 52  3.8000000  0 8                     
D3704   1111737.622    18615945.932       40825.968     1111737.562    26218080.993       57496.929
D3903   1168474.683    19566004.626       98450.468     1168474.528    27556103.041      138653.926
D4003    829907.294    13896716.791       81903.602      829907.133    19571679.714      115351.108
D4103    765391.285    12816406.534       25140.606      765391.226    18050206.075       35409.503
D5627    822156.212    13766930.613       63195.746      822156.081    19388881.425       89002.398
D5727    494888.175     8286858.309       10643.461      494888.206    11670936.707       14987.815
D5826   1167724.420    19553441.921      106877.493     1167724.229    27538415.925      150522.923
D5926   1038729.186    17393425.330       81892.929     1038729.010    24496326.203      115335.716
> 2019  1 10  9 52  4.0000000  0 8                     
D3704   1111250.137    18607780.738       40821.397     1111249.932    26206581.607       57491.500
D3903   1167298.820    19546314.533       98308.650     1167298.663    27528372.256      138455.238
D4003    828928.929    13880336.071       81915.541      828928.883    19548609.493      115366.787
D4103    765090.922    12811378.413       24977.536      765090.894    18043124.174       35175.025
D5627    821401.410    13754291.463       63028.720      821401.324    19371080.945       88767.338
D5727    494761.137     8284729.617       10229.446      494761.068    11667939.144       14408.099
D5826   1166447.924    19532066.423      106817.567     1166447.747    27508311.340      150440.225
D5926   1037751.017    17377046.745       81850.268     1037750.847    24473259.059      115274.732
> 2019  1 10  9 52  4.2000000  0 8                     
D3704   1110762.508    18599616.459       40644.782     1110762.393    26195083.307       57243.516
D3903   1166124.619    19526652.803       98364.803     1166124.429    27500681.208      138533.328
D4003    827950.671    13863952.963       81779.668      827950.480    19525536.135      115175.370
D4103    764792.720    12806382.906       24756.069      764792.578    18036089.169       34867.734
D5627    820648.576    13741685.719       62940.662      820648.487    19353327.477       88643.493
D5727    494638.971     8282683.728        9987.989      494638.853    11665057.524       14067.307
D5826   1165172.027    19510702.909      106760.733     1165171.871    27478223.295      150359.132
D5926   1036773.394    17360676.691       81683.377     1036773.257    24450204.113      115040.687
> 2019  1 10  9 52  4.4000000  0 8                     
D3704   1110277.010    18591487.502       40532.580     1110276.878    26183634.604       57082.992
D3903   1164949.766    19506979.842       98354.997     1164949.622    27472974.542      138519.204
D4003    826973.869    13847597.029       81683.205      826973.806    19502501.061      115040.065
D4103    764496.941    12801431.692       24566.876      764496.874    18029115.623       34597.528
D5627    819896.880    13729097.587       62818.373      819896.765    19335598.779       88471.392
D5727    494519.667     8280686.130        9621.324      494519.502    11662244.063       13548.994
D5826   1163896.840    19489350.763      106810.033     1163896.714    27448151.469      150426.255
D5926   1035797.803    17344340.016       81708.475     1035797.564    24427195.976      115074.854
> 2019  1 10  9 52  4.6000000  0 8                     
D3704   1109792.976    18583380.986       40436.609     1109792.821    26172218.006       56949.956
D3903   1163775.087    19487308.842       98327.145     1163774.881    27445270.702      138482.952
D4003    825998.229    13831260.388       81663.992      825998.119    19479493.048      115014.253
D4103    764203.599    12796518.317       24496.748      764203.484    18022196.117       34501.699
D5627    819146.614    13716533.912       62629.715      819146.482    19317904.500       88206.061
D5727    494404.802     8278761.866        9337.194      494404.654    11659534.264       13150.546
D5826   1162621.135    19467988.756      106732.416     1162621.009    27418066.218      150320.239
D5926   1034821.867    17327998.321       81567.900     1034821.709    24404181.005      114880.110
> 2019  1 10  9 52  4.8000000  0 8                     
D3704   1109310.023    18575293.664       40332.116     1109309.787    26160828.015       56801.419
D3903   1162600.518    19467643.413       98235.420     1162600.352    27417574.111      138349.730
D4003    825022.806    13814927.590       81587.897      825022.684    19456490.198      114904.110
D4103    763910.966    12791618.967       24246.172      763910.846    18015295.777       34145.876
D5627    818398.463    13704007.970       62513.814      818398.381    19300263.288       88042.621
D5727    494293.215     8276894.427        9007.335      494293.163    11656904.155       12686.512
D5826   1161346.267    19446642.273      106771.493     1161346.153    27388002.170      150370.982
D5926   1033847.521    17311684.741       81406.918     1033847.443    24381204.983      114650.164
> 2019  1 10  9 52  5.0000000  0 8                     
D3704   1108828.334    18567227.241       40163.840     1108828.143    26149467.731       56566.545
D3903   1161427.266    19447996.329       98296.253     1161427.177    27389904.165      138437.805
D4003    824048.387    13798610.010       81502.091      824048.227    19433509.376      114784.374
D4103    763621.433    12786769.733       24109.133      763621.311    18008466.602       33956.074
D5627    817651.820    13691505.207       62408.881      817651.722    19282654.764       87893.675
D5727    494185.637     8275092.960        8740.989      494185.538    11654366.852       12310.111
D5826   1160071.101    19425287.974      106633.377     1160070.977    27357927.974      150178.860
D5926   1032875.244    17295403.357       81371.285     1032875.103    24358274.950      114599.515
> 2019  1 10  9 52  5.2000000  0 8                     
D3704   1108348.529    18559194.473       40141.848     1108348.391    26138154.422       56535.186
D3903   1160253.249    19428337.079       98237.410     1160253.009    27362216.604      138354.398
D4003    823074.925    13782309.592       81389.878      823074.775    19410552.501      114627.916
D4103    763333.410    12781947.906       23899.198      763333.288    18001675.387       33657.843
D5627    816906.451    13679023.431       62145.909      816906.288    19265076.029       87523.461
D5727    494081.215     8273344.762        8321.363      494081.142    11651904.830       11719.563
D5826   1158797.537    19403961.299      106691.372     1158797.313    27327892.202      150262.483
D5926   1031903.343    17279129.100       81302.896     1031903.236    24335355.047      114504.689
> 2019  1 10  9 52  5.4000000  0 8                     
D3704   1107869.072    18551166.104       39912.462     1107868.929    26126847.385       56210.692
D3903   1159079.798    19408689.597       98221.230     1159079.714    27334545.724      138331.919
D4003    822102.802    13766031.616       81356.448      822102.636    19387626.918      114579.647
D4103    763047.996    12777168.067       23791.177      763047.883    17994943.818       33507.584
D5627    816164.209    13666594.249       62099.499      816164.142    19247571.337       87459.578
D5727    493981.781     8271680.489        8030.823      493981.810    11649560.917       11310.027
D5826   1157523.112    19382623.025      106678.452     1157522.946    27297839.705      150241.525
D5926   1030932.286    17262868.521       81206.695     1030932.137    24312454.109      114368.224
> 2019  1 10  9 52  5.6000000  0 8                     
D3704   1107392.351    18543183.611       39891.584     1107392.284    26115605.246       56181.777
D3903   1157906.719    19389045.351       98193.256     1157906.591    27306879.341      138291.646
D4003    821131.073    13749760.327       81311.804      821130.891    19364710.988      114515.733
D4103    762763.818    12772409.831       23540.726      762763.687    17988242.301       33154.306
D5627    815422.485    13654174.349       61998.728      815422.332    19230079.421       87316.754
D5727    493885.903     8270074.325        7738.416      493885.806    11647298.912       10899.028
D5826   1156248.960    19361287.334      106586.836     1156248.792    27267791.400      150112.328
D5926   1029962.354    17246627.182       81163.269     1029962.252    24289580.464      114307.482
> 2019  1 10  9 52  5.8000000  0 8                     
D3704   1106915.927    18535205.295       39705.015     1106915.784    26104368.891       55919.722
D3903   1156733.938    19369406.700       98162.710     1156733.772    27279221.011      138248.822
D4003    820159.850    13733497.966       81147.717      820159.773    19341807.842      114285.589
D4103    762482.590    12767701.686       23476.553      762482.543    17981611.440       33061.865
D5627    814681.982    13641774.603       61770.000      814681.811    19212616.070       86994.141
D5727    493793.494     8268526.641        7394.947      493793.370    11645119.106       10415.324
D5826   1154975.972    19339969.967      106635.785     1154975.793    27237768.935      150182.970
D5926   1028992.992    17230394.528       80974.238     1028992.823    24266718.968      114041.513
> 2019  1 10  9 52  6.0000000  0 8                     
D3704   1106441.701    18527264.291       39644.279     1106441.579    26093184.946       55835.019
D3903   1155561.491    19349774.158       98115.120     1155561.308    27251571.247      138181.478
D4003    819190.707    13717268.423       81093.689      819190.585    19318950.724      114210.768
D4103    762202.273    12763006.376       23192.380      762202.157    17974999.067       32664.674
D5627    813944.274    13629420.603       61655.989      813944.114    19195217.242       86836.230
D5727    493705.126     8267047.652        7116.142      493705.047    11643036.042       10021.670
D5826   1153702.288    19318642.810      106530.056     1153702.110    27207732.341      150032.025
D5926   1028025.836    17214199.680       80944.860     1028025.674    24243910.665      113999.899
> 2019  1 10  9 52  6.2000000  0 8                     
D3704   1105968.172    18519335.436       39501.751     1105968.012    26082017.943       55631.017
D3903   1154389.652    19330151.134       98203.575     1154389.464    27223934.951      138306.235
D4003    818222.064    13701049.685       81068.931      818221.949    19296108.570      114173.703
D4103    761925.183    12758367.900       23076.402      761925.117    17968466.132       32499.842
D5627    813207.740    13617089.406       61483.505      813207.597    19177849.996       86591.042
D5727    493620.152     8265624.424        6739.595      493620.037    11641031.707        9491.269
D5826   1152429.968    19297336.799      106542.578     1152429.770    27177725.936      150053.560
D5926   1027059.040    17198010.708       80826.142     1027058.921    24221110.685      113833.614
> 2019  1 10  9 52  6.4000000  0 8                     
D3704   1105496.340    18511435.086       39353.275     1105496.266    26070891.739       55426.408
D3903   1153216.730    19310510.419       98064.471     1153216.542    27196273.704      138111.384
D4003    817253.897    13684835.898       80967.967      817253.660    19273273.830      114033.098
D4103    761649.595    12753752.619       22898.145      761649.524    17961966.164       32249.623
D5627    812473.365    13604792.705       61447.650      812473.279    19160531.788       86539.420
D5727    493539.690     8264276.505        6436.777      493539.573    11639133.454        9065.399
D5826   1151157.197    19276028.283      106504.847     1151157.173    27147715.224      149997.498
D5926   1026093.640    17181845.480       80812.538     1026093.529    24198343.963      113812.647
> 2019  1 10  9 52  6.6000000  0 8                     
D3704   1105026.246    18503564.431       39339.262     1105026.192    26059806.458       55401.268
D3903   1152045.470    19290897.525       98120.017     1152045.232    27168651.428      138187.385
D4003    816286.732    13668642.305       80879.327      816286.650    19250467.210      113907.430
D4103    761376.126    12749172.990       22737.273      761375.970    17955516.239       32022.504
D5627    811739.519    13592503.175       61234.623      811739.356    19143223.904       86242.266
D5727    493462.777     8262989.149        6164.095      493462.682    11637320.374        8681.999
D5826   1149885.237    19254727.314      106494.708     1149885.078    27117715.724      149982.720
D5926   1025128.438    17165682.972       80624.801     1025128.246    24175581.433      113550.986
> 2019  1 10  9 52  6.8000000  0 8                     
D3704   1104556.479    18495696.578       39117.111     1104556.329    26048726.204       55093.313
D3903   1150873.503    19271273.521       98003.515     1150873.375    27141013.951      138025.141
D4003    815320.718    13652466.440       80823.041      815320.543    19227685.724      113828.410
D4103    761104.531    12744625.536       22513.877      761104.417    17949111.738       31708.343
D5627    811008.123    13580256.250       61033.708      811007.954    19125975.450       85957.832
D5727    493389.124     8261756.330        5781.087      493389.081    11635583.974        8141.044
D5826   1148613.256    19233428.372      106463.136     1148613.116    27087719.180      149937.120
D5926   1024165.398    17149558.012       80547.174     1024165.225    24152871.236      113437.353
> 2019  1 10  9 52  7.0000000  0 8                     
D3704   1104089.175    18487873.156       39095.729     1104089.116    26037707.541       55059.360
D3903   1149702.926    19251672.818       98042.392     1149702.802    27113408.922      138081.569
D4003    814355.381    13636301.831       80702.456      814355.215    19204920.042      113659.699
D4103    760835.645    12740122.760       22387.244      760835.506    17942770.070       31528.573
D5627    810279.116    13568049.508       60990.594      810278.975    19108783.884       85895.764
D5727    493320.123     8260600.113        5539.306      493320.051    11633955.765        7801.358
D5826   1147341.843    19212135.745      106418.983     1147341.627    27057731.756      149879.825
D5926   1023203.441    17133448.578       80532.926     1023203.288    24130183.765      113421.137
> 2019  1 10  9 52  7.2000000  0 8                     
D3704   1103622.315    18480054.010       38906.663     1103622.153    26026695.669       54795.177
D3903   1148531.919    19232064.340       98033.197     1148531.764    27085792.609      138064.896
D4003    813391.498    13620161.340       80635.527      813391.322    19182188.102      113564.708
D4103    760568.254    12735645.311       22232.937      760568.164    17936464.355       31312.518
D5627    809550.694    13555851.390       60752.773      809550.570    19091604.731       85562.320
D5727    493253.939     8259492.252        5169.777      493253.842    11632395.494        7281.858
D5826   1146070.639    19190851.948      106431.103     1146070.444    27027755.791      149894.511
D5926   1022241.537    17117341.992       80326.056     1022241.416    24107499.538      113127.591
> 2019  1 10  9 52  7.4000000  0 8                     
D3704   1103157.658    18472272.678       38825.812     1103157.455    26015736.634       54681.375
D3903   1147361.054    19212457.700       97993.844     1147360.871    27058179.629      138013.456
D4003    812428.344    13604034.235       80557.701      812428.184    19159475.161      113455.123
D4103    760302.673    12731198.724       22053.493      760302.600    17930201.852       31058.977
D5627    808825.127    13543700.835       60728.819      808824.887    19074492.267       85530.014
D5727    493192.209     8258458.296        4783.859      493192.043    11630939.122        6737.558
D5826   1144799.363    19169565.728      106353.036     1144799.209    26997776.889      149783.237
D5926   1021282.194    17101276.781       80334.483     1021282.058    24084874.020      113140.619
> 2019  1 10  9 52  7.6000000  0 8                     
D3704   1102693.877    18464507.515       38722.789     1102693.746    26004800.359       54535.172
D3903   1146190.513    19192858.932       97938.424     1146190.449    27030576.938      137933.412
D4003    811466.197    13587922.695       80557.058      811466.053    19136784.136      113452.497
D4103    760039.286    12726788.025       21787.567      760039.125    17923990.056       30685.921
D5627    808099.679    13531555.071       60493.490      808099.550    19057386.264       85196.381
