     3.02           OBSERVATION DATA    M: Mixed            RINEX VERSION / TYPE
BUPT PLAN 6.0                           20210329 120000 UTC PGM / RUN BY / DATE 
                                                            MARKER NAME         
                                                            MARKER NUMBER       
                                                            MARKER TYPE         
                                                            OBSERVER / AGENCY   
                                                            REC # / TYPE / VERS 
                                                            ANT # / TYPE        
  4076128.1056   519876.3642  4878092.5196                  APPROX POSITION XYZ 
        0.0000        0.0000        0.0000                  ANTENNA: DELTA H/E/N 
D    6 C5D L5D D5D C7D L7D D7D                              SYS / # / OBS TYPES  
    30.000                                                  INTERVAL            
  2019     1    10     9    51   54.0000000     GPS         TIME OF FIRST OBS   
  2019     1    10     9    54   44.0000000     GPS         TIME OF LAST OBS   
                                                            END OF HEADER       
> 2019  1 10  9 51 54.0000000  0 8                     
D3704   1133898.199    18987021.580       50977.445     1133898.029    26740696.725       71794.526
D3903   1238356.075    20736160.390      105218.302     1238355.897    29204115.925      148189.530
D4003    893827.547    14967059.150       89916.808      893827.422    21079109.236      126632.773
D4103    798382.095    13368833.845       36026.018      798381.917    18828214.536       50734.197
D5627    861317.612    14422683.900       70703.414      861317.491    20312431.379       99576.155
D5727    505354.071     8462112.877       22282.594      505353.945    11917752.458       31381.480
D5826   1213700.202    20323303.194      106250.991     1213700.037    28622659.353      149643.417
D5926   1068266.617    17888022.964       80761.384     1068266.480    25192904.380      113742.286
> 2019  1 10  9 51 54.2000000  0 8                     
D3704   1133289.339    18976826.091       50791.679     1133289.192    26726337.820       71534.254
D3903   1237099.281    20715116.730      105178.856     1237099.145    29174478.019      148124.692
D4003    892753.554    14949075.789       89736.057      892753.461    21053782.681      126382.138
D4103    797951.835    13361628.642       35647.081      797951.776    18818067.697       50205.244
D5627    860473.103    14408543.217       70446.099      860472.989    20292516.148       99215.533
D5727    505087.939     8457656.358       21822.228      505087.765    11911476.162       30733.989
D5826   1212431.101    20302052.996      105981.451     1212431.032    28592730.670      149260.011
D5926   1067302.091    17871870.687       80500.150     1067301.878    25170155.922      113373.247
> 2019  1 10  9 51 54.4000000  0 8                     
D3704   1132682.723    18966667.755       50653.557     1132682.495    26712030.969       71338.347
D3903   1235843.120    20694080.959      105101.018     1235843.028    29144853.081      148024.094
D4003    891681.811    14931128.577       89707.444      891681.681    21028506.254      126341.101
D4103    797526.030    13354499.226       35630.844      797525.980    18808026.648       50182.123
D5627    859631.691    14394453.997       70449.793      859631.551    20272673.041       99219.912
D5727    504827.295     8453291.912       21577.841      504827.245    11905329.364       30388.825
D5826   1211165.233    20280856.705      106021.473     1211165.122    28562878.667      149315.621
D5926   1066340.639    17855770.657       80391.768     1066340.416    25147481.273      113220.195
> 2019  1 10  9 51 54.6000000  0 8                     
D3704   1132077.690    18956537.044       50514.053     1132077.473    26697763.299       71141.766
D3903   1234587.784    20673060.755      105051.862     1234587.590    29115248.262      147953.066
D4003    890610.347    14913187.088       89632.338      890610.262    21003238.033      126235.678
D4103    797100.452    13347373.057       35366.782      797100.358    18797990.223       49809.760
D5627    858790.189    14380364.039       70180.763      858790.112    20252829.059       98837.661
D5727    504569.627     8448976.344       21299.954      504569.543    11899251.599       29998.996
D5826   1209899.019    20259652.411      105969.683     1209898.859    28533015.543      149244.675
D5926   1065380.341    17839692.303       80412.170     1065380.260    25124837.234      113250.458
> 2019  1 10  9 51 54.8000000  0 8                     
D3704   1131474.302    18946434.233       50447.636     1131474.256    26683534.946       71050.044
D3903   1233332.997    20652050.383      105053.371     1233332.826    29085657.649      147954.600
D4003    889539.825    14895260.621       89482.688      889539.625    20977990.898      126024.159
D4103    796677.976    13340299.700       35169.694      796677.805    18788028.271       49529.841
D5627    857952.023    14366327.886       70094.677      857951.857    20233061.527       98720.628
D5727    504315.188     8444716.353       20959.509      504315.004    11893251.800       29518.630
D5826   1208633.303    20238458.474      105906.289     1208633.094    28503166.608      149155.546
D5926   1064419.908    17823609.869       80217.391     1064419.768    25102187.142      112977.472
> 2019  1 10  9 51 55.0000000  0 8                     
D3704   1130871.679    18936344.706       50322.436     1130871.659    26669324.937       70870.582
D3903   1232078.241    20631039.709      105033.567     1232078.108    29056066.729      147922.636
D4003    888470.961    14877364.083       89549.372      888470.869    20952786.066      126119.362
D4103    796257.917    13333265.762       35106.291      796257.924    18778122.303       49444.725
D5627    857114.767    14352308.951       69997.944      857114.637    20213317.401       98581.446
D5727    504064.699     8440524.451       20707.937      504064.759    11887348.074       29165.039
D5826   1207368.327    20217277.216      105955.750     1207368.216    28473335.499      149223.476
D5926   1063461.752    17807566.391       80207.028     1063461.569    25079591.648      112960.907
> 2019  1 10  9 51 55.2000000  0 8                     
D3704   1130270.718    18926280.219       50190.564     1130270.526    26655150.821       70685.476
D3903   1230823.778    20610032.995      105042.457     1230823.596    29026482.202      147938.792
D4003    887401.451    14859454.209       89357.877      887401.263    20927562.194      125846.759
D4103    795838.630    13326244.503       34775.844      795838.476    18768233.358       48977.342
D5627    856278.717    14338309.362       69838.567      856278.639    20193601.112       98359.432
D5727    503817.515     8436382.864       20268.977      503817.475    11881515.066       28547.209
D5826   1206102.847    20196086.066      105910.336     1206102.738    28443490.804      149160.007
D5926   1062503.853    17791524.985       80050.634     1062503.616    25056999.466      112740.275
> 2019  1 10  9 51 55.4000000  0 8                     
D3704   1129671.325    18916242.106       50012.987     1129671.095    26641013.726       70437.838
D3903   1229569.139    20589024.504      104971.366     1229569.038    28996894.443      147838.971
D4003    886334.197    14841582.634       89360.642      886334.071    20902392.842      125853.514
D4103    795423.321    13319289.335       34666.828      795423.067    18758437.889       48823.504
D5627    855444.558    14324341.648       69761.776      855444.498    20173929.226       98249.486
D5727    503575.414     8432329.069       20060.815      503575.237    11875805.625       28250.478
D5826   1204837.845    20174903.999      105785.956     1204837.805    28413658.802      148986.903
D5926   1061547.595    17775514.859       80010.035     1061547.539    25034451.412      112682.289
> 2019  1 10  9 51 55.6000000  0 8                     
D3704   1129073.998    18906239.509       49997.848     1129073.752    26626926.158       70418.046
D3903   1228315.336    20568030.231      104937.171     1228315.196    28967326.649      147790.972
D4003    885266.759    14823710.505       89199.391      885266.720    20877222.139      125623.953
D4103    795009.251    13312355.969       34536.541      795009.050    18748673.189       48638.939
D5627    854611.399    14310389.293       69608.231      854611.252    20154279.328       98034.926
D5727    503335.807     8428316.906       19768.778      503335.686    11870155.529       27841.907
D5826   1203574.249    20153746.808      105872.605     1203574.165    28383861.422      149105.728
D5926   1060592.061    17759512.852       79920.673     1060591.871    25011914.954      112557.863
> 2019  1 10  9 51 55.8000000  0 8                     
D3704   1128476.747    18896239.939       49802.461     1128476.563    26612842.549       70137.126
D3903   1227061.978    20547042.796      104919.161     1227061.883    28937768.454      147762.085
D4003    884201.485    14805870.627       89209.998      884201.399    20852097.348      125642.043
D4103    794596.732    13305448.661       34281.722      794596.692    18738945.401       48281.197
D5627    853779.923    14296467.647       69540.263      853779.787    20134672.343       97936.471
D5727    503099.679     8424363.150       19456.841      503099.476    11864587.148       27403.136
D5826   1202309.855    20132572.287      105836.696     1202309.682    28354040.276      149059.281
D5926   1059637.462    17743528.717       79835.473     1059637.338    24989403.381      112437.980
> 2019  1 10  9 51 56.0000000  0 8                     
D3704   1127881.966    18886279.447       49685.259     1127881.758    26598815.123       69974.455
D3903   1225808.933    20526058.964      104991.587     1225808.715    28908216.038      147867.927
D4003    883135.925    14788028.627       89126.210      883135.749    20826968.940      125520.498
D4103    794187.284    13298592.317       34199.689      794187.109    18729289.161       48167.518
D5627    852949.474    14282559.595       69288.650      852949.320    20115085.049       97584.070
D5727    502867.245     8420471.782       19113.599      502867.231    11859106.521       26918.759
D5826   1201045.673    20111404.948      105776.111     1201045.496    28324228.420      148970.909
D5926   1058683.970    17727561.622       79710.029     1058683.722    24966915.785      112261.283
> 2019  1 10  9 51 56.2000000  0 8                     
D3704   1127288.518    18876342.395       49663.562     1127288.374    26584820.232       69946.780
D3903   1224554.910    20505060.647      104903.700     1224554.594    28878642.452      147741.803
D4003    882071.348    14770203.385       88963.215      882071.240    20801864.840      125292.243
D4103    793778.815    13291752.379       33938.145      793778.727    18719655.658       47797.198
D5627    852121.821    14268701.864       69258.525      852121.653    20095568.235       97542.335
D5727    502639.035     8416649.062       18807.536      502638.982    11853722.769       26487.300
D5826   1199782.340    20090249.726      105738.762     1199782.154    28294434.238      148917.823
D5926   1057731.878    17711619.617       79626.363     1057731.776    24944463.528      112141.969
> 2019  1 10  9 51 56.4000000  0 8                     
D3704   1126695.324    18866409.683       49420.420     1126695.122    26570830.876       69601.520
D3903   1223301.933    20484079.907      104838.741     1223301.854    28849094.092      147652.738
D4003    881008.921    14752410.742       89055.718      881008.715    20776806.392      125424.330
D4103    793373.360    13284964.750       33833.994      793373.337    18710096.218       47649.553
D5627    851294.673    14254850.159       69159.161      851294.464    20076059.768       97400.991
D5727    502414.393     8412887.555       18471.634      502414.305    11848425.309       26014.046
D5826   1198519.427    20069101.973      105703.915     1198519.277    28264650.674      148871.792
D5926   1056780.922    17695694.344       79538.019     1056780.748    24922035.135      112020.354
> 2019  1 10  9 51 56.6000000  0 8                     
D3704   1126104.976    18856525.599       49337.427     1126104.961    26556910.572       69482.773
D3903   1222049.703    20463112.159      104865.295     1222049.444    28819563.544      147690.524
D4003    879945.176    14734599.599       88861.427      879945.034    20751721.525      125150.614
D4103    792969.302    13278197.951       33550.567      792969.247    18700566.307       47250.840
D5627    850468.494    14241018.327       69021.646      850468.471    20056579.570       97208.917
D5727    502193.739     8409193.228       18243.419      502193.690    11843222.500       25694.893
D5826   1197256.878    20047961.190      105722.900     1197256.739    28234876.315      148895.721
D5926   1055830.777    17679786.740       79499.330     1055830.663    24899631.064      111965.903
> 2019  1 10  9 51 56.8000000  0 8                     
D3704   1125515.813    18846658.113       49234.024     1125515.712    26543014.018       69340.720
D3903   1220797.183    20442139.100      104847.361     1220797.003    28790025.439      147661.606
D4003    878883.799    14716827.313       88849.990      878883.654    20726691.403      125132.133
D4103    792568.596    13271487.838       33434.597      792568.484    18691116.139       47088.750
D5627    849644.217    14227213.998       68878.606      849643.993    20037137.786       97005.093
D5727    501975.831     8405544.544       17882.624      501975.798    11838083.521       25184.681
D5826   1195994.108    20026816.610      105739.097     1195993.851    28205097.171      148920.604
D5926   1054881.224    17663886.875       79366.906     1054881.113    24877237.883      111775.915
> 2019  1 10  9 51 57.0000000  0 8                     
D3704   1124927.693    18836811.309       49093.523     1124927.576    26529145.874       69140.718
D3903   1219544.953    20421169.627      104784.058     1219544.768    28760493.118      147574.866
D4003    877822.579    14699057.315       88689.814      877822.536    20701664.976      124908.202
D4103    792169.271    13264800.918       33257.198      792169.216    18681698.389       46837.805
D5627    848821.521    14213438.277       68748.224      848821.413    20017736.768       96823.991
D5727    501762.350     8401968.019       17608.074      501762.167    11833046.585       24798.825
D5826   1194731.131    20005668.791      105609.964     1194731.056    28175313.050      148736.091
D5926   1053933.369    17648013.493       79321.502     1053933.166    24854882.700      111713.959
> 2019  1 10  9 51 57.2000000  0 8                     
D3704   1124341.343    18826992.604       49018.526     1124341.152    26515317.730       69037.450
D3903   1218293.394    20400212.816      104788.598     1218293.250    28730978.145      147580.983
D4003    876763.303    14681319.352       88690.552      876763.165    20676683.336      124907.283
D4103    791772.055    13258149.479       33070.798      791771.959    18672330.828       46577.512
D5627    848000.246    14199688.632       68629.911      848000.304    19998371.970       96654.493
D5727    501551.954     8398446.404       17284.876      501551.907    11828086.820       24344.316
D5826   1193469.832    19984546.798      105650.155     1193469.583    28145565.832      148795.794
D5926   1052985.965    17632149.193       79181.628     1052985.687    24832539.909      111515.417
> 2019  1 10  9 51 57.4000000  0 8                     
D3704   1123755.886    18817188.899       48830.050     1123755.769    26501510.240       68771.523
D3903   1217041.811    20379255.096      104755.658     1217041.640    28701461.948      147532.179
D4003    875704.074    14663581.242       88606.622      875703.967    20651701.879      124792.314
D4103    791377.050    13251535.319       32914.148      791376.916    18663015.326       46355.281
D5627    847180.652    14185962.650       68487.533      847180.502    19979041.071       96458.045
D5727    501345.520     8394989.429       17005.732      501345.383    11823217.957       23948.780
D5826   1192207.806    19963416.767      105550.852     1192207.720    28115806.673      148654.276
D5926   1052040.255    17616312.867       79148.312     1052040.102    24810236.825      111468.927
> 2019  1 10  9 51 57.6000000  0 8                     
D3704   1123172.669    18807422.889       48778.747     1123172.483    26487755.936       68698.587
D3903   1215790.689    20358303.964      104716.470     1215790.531    28671955.512      147481.908
D4003    874645.757    14645859.917       88501.507      874645.483    20626743.416      124643.512
D4103    790983.844    13244952.489       32759.070      790983.809    18653744.270       46135.370
D5627    846362.644    14172265.143       68342.335      846362.564    19959749.462       96250.291
D5727    501142.393     8391588.283       16609.531      501142.307    11818428.201       23392.882
D5826   1190947.241    19942306.597      105619.876     1190946.945    28086075.818      148749.271
D5926   1051094.884    17600483.205       79020.258     1051094.783    24787943.040      111290.936
> 2019  1 10  9 51 57.8000000  0 8                     
D3704   1122589.922    18797667.139       48598.379     1122589.861    26474016.218       68443.408
D3903   1214539.903    20337360.670      104774.491     1214539.680    28642459.131      147558.680
D4003    873588.610    14628159.616       88412.492      873588.432    20601814.714      124518.223
D4103    790592.680    13238400.675       32464.710      790592.469    18644517.196       45720.266
D5627    845546.338    14158596.677       68274.892      845546.257    19940499.404       96155.299
D5727    500944.049     8388266.377       16342.802      500943.866    11813749.624       23016.070
D5826   1189685.737    19921182.622      105533.441     1189685.557    28056325.964      148631.145
D5926   1050151.001    17584679.153       78925.634     1050150.966    24765684.852      111154.776
> 2019  1 10  9 51 58.0000000  0 8                     
D3704   1122009.583    18787947.464       48500.600     1122009.471    26460327.537       68305.768
D3903   1213288.565    20316405.772      104623.078     1213288.307    28612947.395      147346.457
D4003    872532.679    14610477.118       88414.644      872532.355    20576911.069      124518.422
D4103    790204.887    13231907.733       32391.955      790204.841    18635373.143       45621.456
D5627    844730.903    14144941.698       68148.248      844730.835    19921268.344       95978.523
D5727    500748.768     8384997.816       16045.108      500748.703    11809146.410       22597.133
D5826   1188425.153    19900075.933      105516.159     1188425.022    28026599.735      148605.488
D5926   1049208.406    17568894.026       78827.222     1049208.283    24743453.897      111019.567
> 2019  1 10  9 51 58.2000000  0 8                     
D3704   1121430.293    18778247.344       48357.420     1121430.107    26446666.383       68105.341
D3903   1212038.949    20295481.157      104668.089     1212038.739    28583478.103      147412.047
D4003    871476.587    14592794.189       88240.269      871476.491    20552007.385      124276.973
D4103    789818.080    13225429.342       32195.312      789817.971    18626248.851       45344.518
D5627    843916.919    14131312.049       67955.694      843916.759    19902072.639       95705.614
D5727    500557.148     8381788.795       15737.023      500557.092    11804626.983       22164.386
D5826   1187164.899    19878972.701      105483.726     1187164.771    27996878.637      148560.263
D5926   1048266.820    17553128.582       78753.132     1048266.720    24721249.984      110912.771
> 2019  1 10  9 51 58.4000000  0 8                     
D3704   1120852.696    18768575.860       48298.598     1120852.586    26433045.315       68023.064
D3903   1210788.633    20274547.539      104680.897     1210788.634    28553995.694      147430.743
D4003    870422.544    14575146.135       88284.554      870422.550    20527151.990      124334.258
D4103    789433.447    13218990.280       31987.866      789433.341    18617179.948       45049.086
D5627    843105.313    14117720.910       67920.183      843105.118    19882931.517       95656.512
D5727    500369.158     8378641.390       15406.426      500369.149    11800194.106       21699.089
D5826   1185904.972    19857875.956      105452.387     1185904.834    27967166.585      148514.676
D5926   1047326.252    17537377.956       78703.564     1047326.126    24699067.430      110842.786
> 2019  1 10  9 51 58.6000000  0 8                     
D3704   1120275.803    18758916.140       48107.401     1120275.696    26419440.702       67751.573
D3903   1209538.424    20253611.359      104530.982     1209538.274    28524509.545      147218.009
D4003    869368.184    14557489.224       88083.771      869368.086    20502285.139      124053.806
D4103    789051.415    13212592.707       31865.053      789051.315    18608170.131       44876.002
D5627    842294.023    14104136.873       67719.262      842293.900    19863800.214       95372.892
D5727    500185.164     8375560.105       15079.620      500185.172    11795854.289       21235.474
D5826   1184645.516    19836785.479      105498.866     1184645.432    27937463.649      148580.526
D5926   1046386.283    17521637.243       78603.811     1046386.058    24676898.873      110704.028
> 2019  1 10  9 51 58.8000000  0 8                     
D3704   1119701.218    18749294.660       48019.214     1119701.070    26405890.387       67629.341
D3903   1208289.891    20232705.163      104626.683     1208289.751    28495065.944      147351.776
D4003    868316.180    14539872.470       88075.527      868316.002    20477474.377      124043.343
D4103    788670.876    13206219.696       31550.560      788670.728    18599194.930       44436.935
D5627    841485.223    14090593.021       67631.794      841485.002    19844725.636       95251.720
D5727    500005.036     8372544.181       14767.372      500005.009    11791607.194       20799.083
D5826   1183385.480    19815685.706      105371.358     1183385.254    27907747.544      148404.167
D5926   1045447.353    17505916.481       78443.179     1045447.256    24654758.067      110476.735
> 2019  1 10  9 51 59.0000000  0 8                     
D3704   1119127.680    18739690.817       47951.514     1119127.540    26392364.519       67535.228
D3903   1207040.227    20211779.826      104597.100     1207040.073    28465595.588      147311.678
D4003    867264.086    14522257.365       87985.574      867264.078    20452665.709      123916.568
D4103    788293.915    13199909.584       31501.014      788293.794    18590307.543       44365.294
D5627    840677.391    14077066.662       67470.518      840677.294    19825675.292       95023.446
D5727    499828.739     8369590.707       14522.416      499828.589    11787447.377       20451.479
D5826   1182126.926    19794611.434      105399.600     1182126.717    27878066.711      148438.060
D5926   1044510.403    17490227.845       78404.229     1044510.248    24632662.720      110419.734
> 2019  1 10  9 51 59.2000000  0 8                     
D3704   1118555.028    18730100.514       47720.117     1118554.777    26378857.474       67204.673
D3903   1205791.015    20190860.406      104554.317     1205790.822    28436133.253      147252.576
D4003    866213.251    14504660.250       87904.230      866213.132    20427882.395      123801.955
D4103    787917.686    13193609.381       31232.742      787917.642    18581434.484       43988.270
D5627    839871.472    14063572.558       67304.064      839871.492    19806670.603       94786.882
D5727    499655.230     8366686.223       14136.199      499655.131    11783357.081       19910.582
D5826   1180867.977    19773531.514      105346.058     1180867.864    27848379.099      148365.984
D5926   1043574.106    17474546.999       78227.388     1043573.872    24610578.773      110173.624
> 2019  1 10  9 51 59.4000000  0 8                     
D3704   1117984.988    18720556.490       47647.538     1117984.941    26365416.539       67107.215
D3903   1204542.055    20169949.543      104509.353     1204541.935    28406682.738      147186.544
D4003    865163.386    14487079.404       87876.801      865163.195    20403122.004      123762.351
D4103    787544.667    13187362.833       31091.309      787544.555    18572636.831       43788.015
D5627    839067.771    14050111.746       67280.714      839067.599    19787713.226       94757.240
D5727    499486.359     8363858.984       13830.706      499486.260    11779374.965       19477.981
D5826   1179609.805    19752462.303      105330.102     1179609.564    27818705.902      148342.959
D5926   1042639.695    17458901.522       78210.805     1042639.485    24588544.048      110150.581
> 2019  1 10  9 51 59.6000000  0 8                     
D3704   1117415.854    18711026.983       47546.031     1117415.848    26351995.096       66963.049
D3903   1203293.829    20149047.672      104430.459     1203293.783    28377245.429      147074.932
D4003    864113.743    14469504.044       87772.292      864113.687    20378369.534      123615.448
D4103    787173.248    13181144.571       30912.468      787173.122    18563879.228       43534.148
D5627    838264.133    14036655.603       67059.400      838264.001    19768761.778       94443.853
D5727    499321.297     8361092.842       13570.534      499321.141    11775479.369       19113.203
D5826   1178351.717    19731396.282      105200.083     1178351.636    27789037.310      148163.792
D5926   1041705.561    17443259.361       78174.274     1041705.367    24566513.932      110096.967
> 2019  1 10  9 51 59.8000000  0 8                     
D3704   1116847.943    18701517.777       47415.739     1116847.868    26338602.486       66777.061
D3903   1202046.645    20128161.581      104541.713     1202046.458    28347830.443      147232.897
D4003    863065.381    14451949.585       87666.250      863065.308    20353646.444      123466.167
D4103    786804.162    13174962.078       30729.116      786803.993    18555172.398       43278.177
D5627    837463.227    14023243.723       66973.282      837463.047    19749873.008       94324.820
D5727    499159.067     8358378.736       13247.254      499159.069    11771656.728       18655.390
D5826   1177095.144    19710356.266      105380.939     1177094.970    27759404.552      148412.287
D5926   1040771.786    17427624.506       78008.746     1040771.619    24544494.539      109866.159
> 2019  1 10  9 52  0.0000000  0 8                     
D3704   1116281.721    18692034.629       47338.149     1116281.598    26325247.074       66669.654
D3903   1200797.969    20107253.238      104461.230     1200797.809    28318383.863      147119.169
D4003    862018.285    14434416.335       87581.006      862018.137    20328953.211      123345.826
D4103    786437.160    13168816.255       30548.253      786436.969    18546516.763       43022.809
D5627    836663.275    14009849.066       66824.237      836663.078    19731008.044       94111.237
D5727    499000.905     8355729.285       12880.419      499000.807    11767925.650       18140.917
D5826   1175836.562    19689280.078      105157.682     1175836.478    27729722.094      148102.656
D5926   1039840.111    17412022.756       77912.608     1039839.931    24522521.307      109729.435
> 2019  1 10  9 52  0.2000000  0 8                     
D3704   1115716.245    18682566.999       47072.723     1115716.123    26311913.143       66296.002
D3903   1199550.308    20086360.992      104394.947     1199550.222    28288960.030      147029.766
D4003    860972.314    14416900.134       87534.517      860972.033    20304284.046      123280.342
D4103    786072.199    13162706.604       30286.379      786072.144    18537912.201       42655.695
D5627    835865.140    13996484.219       66707.508      835864.929    19712185.796       93950.359
D5727    498847.062     8353153.201       12585.433      498846.965    11764297.466       17725.739
D5826   1174580.587    19668248.542      105264.300     1174580.343    27700101.563      148247.712
D5926   1038909.410    17396440.235       77793.497     1038909.282    24500575.420      109561.617
> 2019  1 10  9 52  0.4000000  0 8                     
D3704   1115153.899    18673152.455       47058.892     1115153.886    26298653.943       66276.221
D3903   1198303.391    20065482.002      104449.036     1198303.222    28259554.076      147101.242
D4003    859926.806    14399393.230       87437.001      859926.582    20279627.977      123143.541
D4103    785710.487    13156649.328       30227.692      785710.346    18529381.062       42571.288
D5627    835068.297    13983142.717       66602.208      835068.151    19693395.725       93799.265
D5727    498696.738     8350636.114       12282.811      498696.692    11760752.319       17297.624
D5826   1173323.277    19647195.682      105198.674     1173323.129    27670452.021      148160.282
D5926   1037980.255    17380881.536       77797.494     1037980.125    24478663.097      109568.091
> 2019  1 10  9 52  0.6000000  0 8                     
D3704   1114591.928    18663740.676       46915.626     1114591.868    26285398.699       66072.729
D3903   1197055.899    20044592.195      104328.107     1197055.694    28230133.828      146930.439
D4003    858882.384    14381905.830       87375.718      858882.302    20254999.269      123058.312
D4103    785349.403    13150603.790       29983.505      785349.350    18520866.804       42228.601
D5627    834272.844    13969822.276       66430.596      834272.755    19674635.872       93558.483
D5727    498549.968     8348179.552       11989.249      498549.969    11757292.794       16885.395
D5826   1172066.780    19626155.947      105187.368     1172066.724    27640819.964      148140.675
D5926   1037051.130    17365322.037       77642.176     1037050.960    24456749.479      109346.644
> 2019  1 10  9 52  0.8000000  0 8                     
D3704   1114031.729    18654357.551       46768.221     1114031.476    26272184.153       65868.605
D3903   1195809.864    20023726.574      104386.594     1195809.710    28200747.740      147014.528
D4003    857838.792    14364430.686       87267.043      857838.683    20230387.607      122901.338
D4103    784991.238    13144607.089       29838.229      784991.098    18512421.084       42019.643
D5627    833479.451    13956536.157       66328.149      833479.275    19655924.175       93413.605
D5727    498406.854     8345781.702       11660.545      498406.765    11753915.715       16421.208
D5826   1170810.483    19605118.473      105097.049     1170810.297    27611191.829      148014.006
D5926   1036123.780    17349793.601       77511.087     1036123.666    24434880.150      109165.939
> 2019  1 10  9 52  1.0000000  0 8                     
D3704   1113473.049    18645003.907       46622.421     1113472.897    26259010.432       65661.071
D3903   1194562.987    20002849.255      104277.489     1194562.917    28171344.835      146861.597
D4003    856796.503    14346977.278       87186.567      856796.354    20205807.339      122793.171
D4103    784635.017    13138639.443       29617.350      784634.807    18504017.155       41714.596
D5627    832687.134    13943270.527       66176.004      832687.017    19637241.454       93201.930
D5727    498267.607     8343449.594       11264.327      498267.495    11750631.473       15864.509
D5826   1169555.231    19584099.063      105101.283     1169555.042    27581589.028      148023.785
D5926   1035197.850    17334291.384       77425.795     1035197.775    24413046.962      109043.763
> 2019  1 10  9 52  1.2000000  0 8                     
D3704   1112916.141    18635679.423       46558.856     1112915.997    26245878.218       65571.309
D3903   1193317.563    19981993.757      104360.235     1193317.473    28141972.515      146976.496
D4003    855755.164    14329539.964       87139.073      855755.163    20181248.705      122723.126
D4103    784281.198    13132715.973       29422.397      784281.089    18495674.236       41436.955
D5627    831896.656    13930035.326       66013.417      831896.652    19618601.068       92970.185
D5727    498132.950     8341196.728       11080.849      498132.972    11747458.571       15607.869
D5826   1168299.945    19563078.807      105040.130     1168299.710    27551984.271      147935.879
D5926   1034273.146    17318806.225       77427.931     1034273.036    24391238.209      109045.742
> 2019  1 10  9 52  1.4000000  0 8                     
D3704   1112360.094    18626367.652       46435.858     1112359.932    26232763.956       65399.228
D3903   1192071.037    19961121.710      104275.495     1192070.917    28112577.216      146859.452
D4003    854714.403    14312112.150       87088.296      854714.177    20156704.080      122651.923
D4103    783929.770    13126831.493       29273.740      783929.670    18487386.845       41227.469
D5627    831108.285    13916832.643       65913.214      831108.233    19600007.031       92829.634
D5727    498000.613     8338980.558       10669.002      498000.474    11744336.997       15025.049
D5826   1167045.219    19542070.781      105057.129     1167045.081    27522397.095      147958.317
D5926   1033348.462    17303320.639       77270.010     1033348.277    24369429.061      108825.612
> 2019  1 10  9 52  1.6000000  0 8                     
D3704   1111805.493    18617080.480       46301.200     1111805.322    26219684.110       65208.641
D3903   1190825.581    19940266.611      104220.295     1190825.373    28083205.325      146778.523
D4003    853674.141    14294694.491       86980.038      853674.076    20132173.695      122498.599
D4103    783580.257    13120976.745       29093.716      783580.016    18479141.352       40976.035
D5627    830321.003    13903650.000       65741.299      830320.898    19581441.104       92588.223
D5727    497873.262     8336846.758       10480.651      497873.146    11741331.988       14760.664
D5826   1165790.510    19521059.355      105000.659     1165790.350    27492805.432      147880.810
D5926   1032425.516    17287866.637       77157.618     1032425.407    24347663.939      108666.654
> 2019  1 10  9 52  1.8000000  0 8                     
D3704   1111252.466    18607820.240       46122.582     1111252.269    26206642.382       64956.911
D3903   1189580.809    19919422.552      104211.989     1189580.612    28053849.621      146770.131
D4003    852635.281    14277298.483       86863.552      852635.179    20107673.976      122338.080
D4103    783232.624    13115158.002       28865.933      783232.483    18470946.144       40651.702
D5627    829535.808    13890501.740       65672.728      829535.689    19562923.460       92492.140
D5727    497748.041     8334750.628       10049.510      497747.952    11738379.855       14153.213
D5826   1164536.259    19500059.223      105030.648     1164536.080    27463229.270      147918.869
D5926   1031503.861    17272435.113       77119.488     1031503.753    24325930.608      108612.171
> 2019  1 10  9 52  2.0000000  0 8                     
D3704   1110701.639    18598595.724       46090.024     1110701.478    26193651.000       64909.781
D3903   1188336.005    19898580.154      104202.154     1188335.951    28024495.595      146755.335
D4003    851597.761    14259925.773       86780.611      851597.586    20083206.359      122217.179
D4103    782887.887    13109384.816       28735.602      782887.738    18462815.804       40471.570
D5627    828751.416    13877367.194       65496.656      828751.348    19544425.032       92242.318
D5727    497627.945     8332740.726        9734.112      497627.929    11735549.212       13708.938
D5826   1163281.908    19479053.093      104924.816     1163281.729    27433645.496      147771.814
D5926   1030582.761    17257011.216       76970.149     1030582.643    24304208.174      108400.884
> 2019  1 10  9 52  2.2000000  0 8                     
D3704   1110151.089    18589377.719       45852.429     1110150.944    26180669.044       64580.599
D3903   1187091.447    19877739.724      104235.602     1187091.404    27995144.528      146798.867
D4003    850561.304    14242569.650       86725.454      850561.184    20058762.924      122141.621
D4103    782544.675    13103637.695       28449.307      782544.469    18454721.490       40066.234
D5627    827969.066    13864267.863       65401.494      827968.944    19525976.568       92109.569
D5727    497511.797     8330793.903        9448.909      497511.735    11732807.425       13307.161
D5826   1162028.798    19458068.130      104900.250     1162028.499    27404091.133      147738.909
D5926   1029663.400    17241617.186       76874.902     1029663.372    24282527.997      108269.070
> 2019  1 10  9 52  2.4000000  0 8                     
D3704   1109603.419    18580207.233       45767.065     1109603.162    26167752.924       64455.788
D3903   1185846.594    19856892.603      104109.932     1185846.410    27965784.754      146625.852
D4003    849525.412    14225224.560       86695.384      849525.323    20034334.599      122099.293
D4103    782204.890    13097947.834       28366.818      782204.813    18446708.243       39950.628
D5627    827187.954    13851187.564       65190.532      827187.885    19507554.655       91809.893
D5727    497398.935     8328904.122        9072.629      497398.852    11730145.992       12777.181
D5826   1160775.750    19437088.080      104939.702     1160775.604    27374543.352      147794.270
D5926   1028745.327    17226242.205       76775.597     1028745.144    24260874.183      108128.415
> 2019  1 10  9 52  2.6000000  0 8                     
D3704   1109056.780    18571053.820       45700.422     1109056.549    26154861.766       64363.838
D3903   1184603.136    19836070.617      104133.488     1184602.983    27936459.584      146660.706
D4003    848489.973    14207885.483       86534.324      848489.815    20009914.741      121874.783
D4103    781866.032    13092274.470       28143.218      781865.929    18438718.118       39635.762
D5627    826409.420    13838149.458       65179.078      826409.250    19489192.676       91798.346
D5727    497290.549     8327089.596        8832.786      497290.537    11727590.556       12442.280
D5826   1159522.390    19416100.140      104858.366     1159522.201    27344984.498      147679.236
D5926   1027828.268    17210887.086       76697.549     1027828.211    24239248.500      108018.115
> 2019  1 10  9 52  2.8000000  0 8                     
D3704   1108510.862    18561913.735       45550.472     1108510.731    26141988.999       64151.011
D3903   1183359.225    19815243.919      104120.294     1183359.128    27907127.443      146640.187
D4003    847456.440    14190578.618       86491.031      847456.278    19985539.784      121807.391
D4103    781529.863    13086645.827       27975.513      781529.840    18430790.965       39399.792
D5627    825630.891    13825113.642       64871.348      825630.761    19470833.007       91363.012
D5727    497185.045     8325323.039        8520.206      497184.908    11725102.100       11997.455
D5826   1158269.895    19395128.467      104864.887     1158269.774    27315448.650      147689.230
D5926   1026912.294    17195547.576       76646.216     1026912.173    24217644.877      107944.219
> 2019  1 10  9 52  3.0000000  0 8                     
D3704   1107966.792    18552803.641       45393.640     1107966.744    26129158.796       63930.448
D3903   1182115.676    19794419.861      104100.009     1182115.478    27877799.405      146607.948
D4003    846423.487    14173280.412       86312.567      846423.367    19961178.306      121560.024
D4103    781195.784    13081050.724       27811.640      781195.766    18422911.007       39169.278
D5627    824855.999    13812139.373       64866.528      824855.893    19452560.404       91354.210
D5727    497083.291     8323618.998        8151.262      497083.180    11722702.609       11481.115
D5826   1157017.396    19374155.489      104787.901     1157017.329    27285910.804      147580.982
D5926   1025996.887    17180218.333       76437.231     1025996.729    24196056.033      107653.407
> 2019  1 10  9 52  3.2000000  0 8                     
D3704   1107424.693    18543724.913       45297.993     1107424.596    26116372.707       63796.268
D3903   1180872.450    19773599.859      104061.179     1180872.276    27848477.816      146557.733
D4003    845392.507    14156017.898       86410.680      845392.391    19936866.301      121697.746
D4103    780863.615    13075488.396       27571.515      780863.502    18415077.151       38831.618
D5627    824081.420    13799166.067       64693.528      824081.161    19434289.562       91114.185
D5727    496985.935     8321988.745        7833.640      496985.829    11720406.386       11033.137
D5826   1155765.832    19353197.909      104736.278     1155765.728    27256394.608      147503.372
D5926   1025083.784    17164930.887       76462.241     1025083.651    24174525.352      107686.300
> 2019  1 10  9 52  3.4000000  0 8                     
D3704   1106883.647    18534665.314       45146.856     1106883.413    26103613.453       63584.200
D3903   1179629.405    19752787.623      103988.749     1179629.216    27819166.269      146454.951
D4003    844360.378    14138735.762       86220.148      844360.217    19912526.752      121432.938
D4103    780534.285    13069974.093       27357.154      780534.106    18407310.828       38528.603
D5627    823308.545    13786227.362       64574.719      823308.433    19416066.725       90944.185
D5727    496892.457     8320422.017        7519.904      496892.293    11718199.759       10589.821
D5826   1154514.965    19332250.653      104797.307     1154514.727    27226893.934      147595.146
D5926   1024170.545    17149638.439       76269.894     1024170.483    24152988.092      107415.686
> 2019  1 10  9 52  3.6000000  0 8                     
D3704   1106344.475    18525635.943       45035.040     1106344.324    26090896.613       63423.762
D3903   1178387.318    19731989.873      103999.459     1178387.203    27789875.279      146470.196
D4003    843330.534    14121491.733       86096.547      843330.468    19888240.164      121253.722
D4103    780207.519    13064502.662       27255.081      780207.394    18399605.107       38385.884
D5627    822537.306    13773312.418       64380.356      822537.162    19397877.888       90671.883
D5727    496802.537     8318918.037        7242.333      496802.543    11716081.795       10199.644
D5826   1153263.151    19311291.192      104720.107     1153263.041    27197374.904      147482.577
D5926   1023259.584    17134384.460       76238.269     1023259.494    24131504.955      107371.194
> 2019  1 10  9 52  3.8000000  0 8                     
D3704   1105806.549    18516628.935       44861.991     1105806.467    26078211.861       63182.229
D3903   1177145.102    19711189.981      103985.238     1177145.054    27760581.240      146449.258
D4003    842302.247    14104272.423       86053.313      842302.113    19863989.420      121194.042
D4103    779881.976    13059051.646       26972.344      779881.810    18391927.930       37986.886
D5627    821768.381    13760436.347       64345.248      821768.156    19379743.512       90619.527
D5727    496716.080     8317469.570        6861.177      496715.955    11714041.866        9664.438
D5826   1152012.489    19290347.171      104683.476     1152012.336    27167878.389      147433.919
D5926   1022349.002    17119136.806       76118.372     1022348.894    24110030.716      107205.422
> 2019  1 10  9 52  4.0000000  0 8                     
D3704   1105270.725    18507656.537       44840.938     1105270.591    26065575.415       63153.606
D3903   1175903.184    19690392.934      103917.214     1175903.052    27731291.388      146352.027
D4003    841274.424    14087061.761       85989.840      841274.331    19839750.612      121106.365
D4103    779559.889    13053657.177       26921.209      779559.709    18384330.553       37915.147
D5627    820999.877    13747567.297       64105.442      820999.809    19361619.606       90285.546
D5727    496634.093     8316097.334        6614.120      496633.956    11712108.978        9313.635
D5826   1150762.079    19269410.475      104628.067     1150761.901    27138391.605      147354.557
D5926   1021439.837    17103913.132       76039.194     1021439.765    24088589.631      107087.564
> 2019  1 10  9 52  4.2000000  0 8                     
D3704   1104735.095    18498688.350       44655.490     1104735.043    26052944.694       62892.752
D3903   1174662.108    19669609.491      103964.276     1174661.912    27702020.983      146420.215
D4003    840247.313    14069863.793       85882.583      840247.229    19815529.339      120951.739
D4103    779238.209    13048272.935       26631.338      779238.119    18376747.524       37506.881
D5627    820234.140    13734746.209       64035.140      820234.085    19343562.497       90182.682
D5727    496555.102     8314774.510        6224.796      496554.943    11710246.251        8767.884
D5826   1149512.367    19248484.862      104664.720     1149512.281    27108920.694      147406.380
D5926   1020531.623    17088705.293       75876.381     1020531.599    24067172.119      106860.823
> 2019  1 10  9 52  4.4000000  0 8                     
D3704   1104201.713    18489757.252       44484.682     1104201.576    26040366.143       62649.691
D3903   1173420.384    19648816.635      103868.019     1173420.188    27672736.940      146285.663
D4003    839221.644    14052687.276       85856.681      839221.452    19791338.991      120918.232
D4103    778920.257    13042946.668       26406.102      778920.074    18369246.147       37190.459
D5627    819469.379    13721939.181       63890.086      819469.278    19325525.961       89981.691
D5727    496480.713     8313529.551        5957.897      496480.633    11708492.674        8390.805
D5826   1148262.358    19227551.918      104562.876     1148262.197    27079439.418      147261.814
D5926   1019625.458    17073530.017       75794.407     1019625.304    24045799.954      106749.146
> 2019  1 10  9 52  4.6000000  0 8                     
D3704   1103670.460    18480860.315       44435.750     1103670.352    26027836.205       62581.254
D3903   1172179.661    19628043.032      103875.936     1172179.534    27643479.807      146292.318
D4003    838196.145    14035515.940       85675.118      838196.056    19767155.344      120662.278
D4103    778604.789    13037665.447       26362.010      778604.746    18361808.056       37127.067
D5627    818706.262    13709161.164       63625.231      818706.118    19307529.622       89610.184
D5727    496409.490     8312337.972        5666.340      496409.466    11706814.513        7979.115
D5826   1147013.458    19206639.343      104600.124     1147013.321    27049987.055      147316.562
D5926   1018720.113    17058371.135       75729.202     1018720.012    24024450.125      106655.099
> 2019  1 10  9 52  4.8000000  0 8                     
D3704   1103139.688    18471973.165       44224.304     1103139.509    26015319.954       62283.574
D3903   1170939.018    19607267.844      103811.079     1170938.851    27614221.344      146205.300
D4003    837172.811    14018380.916       85682.493      837172.729    19743022.889      120672.099
D4103    778290.020    13032393.045       26031.332      778289.802    18354382.642       36660.786
D5627    817946.301    13696436.117       63613.993      817946.205    19289607.586       89589.649
D5727    496341.905     8311204.704        5234.345      496341.868    11705218.690        7373.440
D5826   1145764.115    19185719.318      104515.107     1145763.948    27020523.743      147195.388
D5926   1017815.572    17043225.295       75595.359     1017815.398    24003119.105      106464.576
> 2019  1 10  9 52  5.0000000  0 8                     
D3704   1102611.483    18463128.304       44144.792     1102611.302    26002863.239       62173.441
D3903   1169699.062    19586505.629      103864.001     1169698.929    27584980.284      146278.933
D4003    836149.535    14001244.418       85555.875      836149.381    19718888.469      120495.664
D4103    777978.993    13027186.779       25926.833      777978.959    18347050.485       36513.981
D5627    817186.545    13683713.319       63492.065      817186.395    19271689.656       89420.567
D5727    496279.443     8310157.835        4999.360      496279.180    11703744.002        7041.072
D5826   1144515.774    19164816.297      104512.998     1144515.669    26991084.665      147191.429
D5926   1016912.666    17028106.223       75571.768     1016912.594    23981826.190      106434.122
> 2019  1 10  9 52  5.2000000  0 8                     
D3704   1102084.207    18454299.346       43994.155     1102084.014    25990428.551       61960.834
D3903   1168458.561    19565732.829      103778.221     1168458.317    27555724.497      146158.696
D4003    835127.572    13984133.243       85498.169      835127.425    19694789.336      120411.147
D4103    777669.351    13022001.413       25688.871      777669.287    18339747.689       36177.688
D5627    816428.198    13671014.906       63266.875      816428.020    19253805.542       89102.701
D5727    496219.627     8309157.963        4698.574      496219.631    11702335.788        6617.183
D5826   1143267.467    19143913.697      104509.713     1143267.253    26961646.379      147189.111
D5926   1016010.066    17012991.870       75404.481     1016009.865    23960539.366      106194.669
> 2019  1 10  9 52  5.4000000  0 8                     
D3704   1101558.784    18445500.515       43863.036     1101558.619    25978036.384       61773.312
D3903   1167219.108    19544977.184      103761.163     1167218.918    27526492.758      146132.741
D4003    834106.408    13967033.609       85303.885      834106.309    19670707.107      120138.141
D4103    777362.600    13016863.638       25543.585      777362.487    18332512.151       35976.710
D5627    815672.494    13658361.531       63157.622      815672.462    19235985.002       88950.034
D5727    496163.565     8308218.248        4316.486      496163.476    11701012.351        6077.744
D5826   1142019.264    19123011.755      104432.133     1142019.137    26932208.557      147077.544
D5926   1015109.573    16997910.973       75313.134     1015109.307    23939300.432      106068.056
> 2019  1 10  9 52  5.6000000  0 8                     
D3704   1101034.953    18436727.908       43812.117     1101034.707    25965681.722       61705.384
D3903   1165979.674    19524224.952      103706.154     1165979.543    27497266.210      146055.483
D4003    833087.475    13949972.832       85303.644      833087.419    19646679.479      120140.087
D4103    777057.503    13011754.921       25318.451      777057.381    18325316.809       35657.922
D5627    814918.104    13645730.006       63041.654      814917.976    19218194.995       88784.092
D5727    496111.997     8307354.951        3980.582      496111.932    11699796.803        5605.443
D5826   1140771.923    19102125.328      104384.525     1140771.785    26902793.048      147012.383
D5926   1014209.935    16982848.347       75230.411     1014209.794    23918086.821      105954.548
> 2019  1 10  9 52  5.8000000  0 8                     
D3704   1100511.535    18427965.484       43579.395     1100511.457    25953340.645       61375.110
D3903   1164741.140    19503483.721      103738.514     1164740.985    27468055.113      146101.986
D4003    832068.765    13932912.103       85293.188      832068.531    19622651.462      120124.269
D4103    776754.988    13006691.231       25110.754      776754.872    18318185.225       35364.068
D5627    814165.249    13633121.676       62887.107      814165.073    19200438.177       88569.478
D5727    496064.415     8306558.835        3778.292      496064.403    11698675.714        5322.617
D5826   1139525.161    19081248.423      104404.445     1139524.921    26873390.571      147039.357
D5926   1013311.484    16967802.264       75116.741     1013311.186    23896895.911      105790.185
> 2019  1 10  9 52  6.0000000  0 8                     
D3704   1099991.067    18419249.605       43474.243     1099990.894    25941065.623       61228.392
D3903   1163502.110    19482736.018      103653.961     1163501.909    27438834.716      145983.890
D4003    831049.958    13915853.466       85104.564      831049.815    19598626.608      119858.453
D4103    776455.217    13001669.080       25045.473      776455.042    18311112.411       35274.465
D5627    813414.040    13620544.254       62755.732      813414.002    19182724.281       88382.199
D5727    496019.332     8305803.176        3324.341      496019.238    11697611.191        4682.827
D5826   1138278.087    19060367.534      104305.506     1138278.083    26843982.700      146901.954
D5926   1012414.167    16952778.916       74998.186     1012414.079    23875737.874      105626.344
> 2019  1 10  9 52  6.2000000  0 8                     
D3704   1099471.791    18410554.757       43394.313     1099471.573    25928819.945       61115.058
D3903   1162263.989    19462005.226      103686.453     1162263.773    27409637.938      146027.889
D4003    830033.439    13898832.553       84978.259      830033.326    19574654.917      119679.811
D4103    776155.979    12996659.986       24719.567      776155.862    18304057.518       34813.981
D5627    812664.490    13607993.108       62613.698      812664.267    19165047.841       88183.118
D5727    495979.637     8305138.308        3068.208      495979.474    11696674.625        4320.383
D5826   1137032.395    19039506.433      104336.000     1137032.153    26814602.309      146944.346
D5926   1011518.430    16937779.279       74969.506     1011518.264    23854612.605      105584.450
> 2019  1 10  9 52  6.4000000  0 8                     
D3704   1098953.574    18401875.894       43243.722     1098953.368    25916596.933       60902.633
D3903   1161025.661    19441267.935      103627.025     1161025.459    27380432.360      145943.963
D4003    829018.536    13881836.901       85010.764      829018.321    19550718.955      119726.342
D4103    775860.630    12991716.072       24587.720      775860.518    18297094.722       34628.303
D5627    811916.653    13595470.368       62442.599      811916.581    19147411.218       87942.335
D5727    495942.996     8304524.666        2791.530      495942.885    11695810.548        3930.384
D5826   1135786.104    19018639.233      104301.162     1135785.984    26785213.440      146892.289
D5926   1010622.982    16922785.378       74734.760     1010622.854    23833495.715      105253.743
> 2019  1 10  9 52  6.6000000  0 8                     
D3704   1098437.057    18393227.150       43065.400     1098436.884    25904416.407       60648.347
D3903   1159787.929    19420542.530      103561.905     1159787.721    27351243.567      145853.815
D4003    828003.111    13864834.748       84885.995      828003.003    19526773.687      119550.874
D4103    775567.123    12986798.528       24410.586      775566.893    18290169.062       34378.234
D5627    811170.887    13582981.848       62366.011      811170.779    19129822.751       87834.365
D5727    495909.692     8303966.360        2444.805      495909.554    11695024.472        3442.714
D5826   1134540.357    18997779.000      104298.360     1134540.218    26755834.982      146891.590
D5926   1009730.339    16907838.426       74771.175     1009730.291    23812444.967      105304.248
> 2019  1 10  9 52  6.8000000  0 8                     
D3704   1097922.698    18384614.070       42990.708     1097922.585    25892286.737       60551.128
D3903   1158550.966    19399830.150      103580.398     1158550.736    27322072.804      145879.648
D4003    826989.316    13847857.549       84738.018      826989.190    19502863.512      119340.482
D4103    775275.546    12981916.411       24139.620      775275.485    18283293.415       33998.202
D5627    810425.953    13570508.646       62098.889      810425.805    19112255.878       87457.385
D5727    495880.439     8303477.400        2084.774      495880.378    11694335.929        2936.899
D5826   1133294.574    18976919.328      104213.396     1133294.541    26726456.664      146768.965
D5926   1008837.360    16892884.191       74604.970     1008837.088    23791384.117      105072.226
> 2019  1 10  9 52  7.0000000  0 8                     
D3704   1097409.134    18376015.928       42869.312     1097408.962    25880176.512       60374.609
D3903   1157313.773    19379114.070      103549.072     1157313.610    27292896.875      145835.783
D4003    825977.214    13830909.946       84699.717      825977.069    19478995.415      119288.068
D4103    774987.154    12977088.487       23992.493      774987.037    18276493.775       33790.364
D5627    809684.269    13558088.868       62039.419      809684.141    19094764.401       87375.460
D5727    495855.574     8303060.445        1753.867      495855.434    11693748.549        2471.065
D5826   1132049.964    18956076.649      104178.506     1132049.759    26697102.871      146722.726
D5926   1007946.229    16877963.197       74517.355     1007946.027    23770369.672      104947.262
> 2019  1 10  9 52  7.2000000  0 8                     
D3704   1096897.190    18367442.066       42710.465     1096896.922    25868101.590       60150.688
D3903   1156076.962    19358404.256      103530.198     1156076.852    27263729.718      145806.468
D4003    824965.653    13813970.002       84537.840      824965.317    19455137.802      119063.519
D4103    774700.557    12972289.988       23814.058      774700.503    18269735.702       33536.855
D5627    808943.251    13545680.984       61871.358      808943.195    19077289.309       87136.811
D5727    495834.615     8302709.671        1530.031      495834.532    11693254.336        2156.350
D5826   1130805.670    18935240.948      104146.663     1130805.418    26667758.326      146676.577
D5926   1007056.273    16863059.726       74414.031     1007056.098    23749380.220      104801.291
> 2019  1 10  9 52  7.4000000  0 8                     
D3704   1096386.996    18358899.973       42643.899     1096386.818    25856071.452       60059.693
D3903   1154840.444    19337698.216      103527.527     1154840.223    27234568.425      145807.954
D4003    823955.677    13797062.434       84549.674      823955.587    19431325.098      119076.366
D4103    774416.145    12967527.177       23610.013      774416.071    18263028.331       33254.426
D5627    808204.259    13533306.713       61815.947      808204.267    19059861.947       87059.627
D5727    495816.312     8302403.665        1146.503      495816.231    11692823.066        1612.523
D5826   1129561.601    18914411.615      104110.180     1129561.537    26638423.011      146624.080
D5926   1006167.437    16848176.919       74311.112     1006167.273    23728419.961      104656.872
> 2019  1 10  9 52  7.6000000  0 8                     
D3704   1095877.682    18350371.193       42433.647     1095877.497    25844059.514       59761.102
D3903   1153603.861    19316992.711      103414.642     1153603.715    27205406.834      145642.586
D4003    822945.915    13780152.499       84410.707      822945.894    19407509.825      118881.405
D4103    774134.159    12962805.174       23475.894      774134.059    18256377.446       33061.366
D5627    807465.963    13520943.523       61558.312      807465.886    19042450.021       86696.956
