     3.02           OBSERVATION DATA    M: Mixed            RINEX VERSION / TYPE
BUPT PLAN 6.0                           20210329 120000 UTC PGM / RUN BY / DATE 
                                                            MARKER NAME         
                                                            MARKER NUMBER       
                                                            MARKER TYPE         
                                                            OBSERVER / AGENCY   
                                                            REC # / TYPE / VERS 
                                                            ANT # / TYPE        
  4076128.1056   519876.3642  4878092.5196                  APPROX POSITION XYZ 
        0.0000        0.0000        0.0000                  ANTENNA: DELTA H/E/N 
D    6 C5D L5D D5D C7D L7D D7D                              SYS / # / OBS TYPES  
    30.000                                                  INTERVAL            
  2019     1    10     9    51   54.0000000     GPS         TIME OF FIRST OBS   
  2019     1    10     9    54   44.0000000     GPS         TIME OF LAST OBS   
                                                            END OF HEADER       
> 2019  1 10  9 51 54.0000000  0 8                     
D3704   1133898.608    18987030.860       50723.456     1133898.344    26740696.855       71436.738
D3903   1238356.256    20736158.056      104590.923     1238356.116    29204120.662      147303.295
D4003    893826.969    14967051.414       89356.279      893826.876    21079096.167      125845.604
D4103    798382.069    13368833.468       35760.367      798381.846    18828212.402       50364.964
D5627    861317.139    14422676.392       70265.497      861317.004    20312417.820       98957.265
D5727    505354.141     8462121.817       22268.482      505354.095    11917753.389       31361.906
D5826   1213700.142    20323291.514      106427.455     1213700.038    28622659.009      149889.568
D5926   1068266.583    17888032.394       81357.329     1068266.538    25192901.708      114580.516
> 2019  1 10  9 51 54.2000000  0 8                     
D3704   1133292.831    18976886.168       50370.930     1133292.554    26726409.508       70940.823
D3903   1237107.028    20715239.871      104422.913     1237106.806    29174660.003      147067.989
D4003    892759.883    14949180.158       89148.274      892759.649    21053927.046      125556.231
D4103    797954.892    13361681.394       35507.257      797954.691    18818139.409       50006.018
D5627    860477.930    14408623.293       70124.999      860477.769    20292626.367       98761.245
D5727    505088.306     8457668.120       21906.628      505088.224    11911481.008       30853.788
D5826   1212428.818    20302006.023      106290.657     1212428.850    28592681.095      149696.513
D5926   1067294.976    17871760.928       81098.000     1067294.826    25169985.605      114214.967
> 2019  1 10  9 51 54.4000000  0 8                     
D3704   1132691.137    18966811.982       50347.296     1132690.981    26712221.343       70906.467
D3903   1235859.780    20694355.289      104455.033     1235859.663    29145246.405      147109.820
D4003    891695.053    14931350.503       89179.320      891694.842    21028815.800      125596.358
D4103    797530.903    13354579.943       35401.987      797530.611    18808138.205       49859.449
D5627    859640.491    14394598.293       69961.622      859640.295    20272874.118       98531.482
D5727    504826.642     8453286.795       21569.744      504826.587    11905310.250       30376.604
D5826   1211159.447    20280747.892      106225.854     1211159.270    28562741.793      149604.287
D5926   1066326.358    17855541.328       81034.821     1066326.216    25147142.611      114128.401
> 2019  1 10  9 51 54.6000000  0 8                     
D3704   1132089.824    18956742.523       50160.398     1132089.658    26698040.050       70646.228
D3903   1234612.153    20673464.282      104397.001     1234612.052    29115824.441      147030.313
D4003    890629.751    14913514.639       89125.708      890629.734    21003696.528      125519.991
D4103    797107.836    13347499.545       35151.181      797107.954    18798166.315       49507.240
D5627    858804.811    14380605.969       69816.835      858804.723    20253167.822       98330.635
D5727    504569.017     8448972.846       21281.587      504568.908    11899234.930       29972.310
D5826   1209890.735    20259502.721      106206.525     1209890.519    28532820.935      149578.677
D5926   1065358.475    17839334.364       81019.649     1065358.371    25124316.931      114104.637
> 2019  1 10  9 51 54.8000000  0 8                     
D3704   1131490.599    18946710.444       50091.457     1131490.535    26683910.804       70545.386
D3903   1233365.235    20652584.882      104400.203     1233365.169    29086418.378      147035.028
D4003    889565.283    14895689.498       88992.637      889565.220    20978592.530      125334.324
D4103    796688.006    13340469.309       35011.018      796687.909    18788264.867       49305.811
D5627    857970.895    14366642.602       69777.286      857970.747    20233501.695       98269.671
D5727    504314.757     8444716.528       20972.098      504314.760    11893240.468       29535.168
D5826   1208622.251    20238261.416      106115.483     1208621.946    28502905.200      149449.845
D5926   1064390.771    17823130.434       80914.259     1064390.637    25101496.004      113956.033
> 2019  1 10  9 51 55.0000000  0 8                     
D3704   1130892.369    18936692.152       49964.836     1130892.342    26669801.727       70370.115
D3903   1232118.350    20631704.841      104391.135     1232118.183    29057011.372      147020.037
D4003    888502.421    14877890.970       88981.900      888502.374    20953525.665      125318.894
D4103    796269.956    13333467.106       34823.037      796269.880    18778403.705       49046.233
D5627    857137.434    14352687.144       69597.458      857137.351    20213847.761       98019.607
D5727    504064.378     8440522.109       20680.925      504064.145    11887333.434       29127.110
D5826   1207354.785    20217038.320      106173.185     1207354.542    28473015.231      149528.636
D5926   1063424.435    17806947.582       80760.761     1063424.219    25078704.797      113741.499
> 2019  1 10  9 51 55.2000000  0 8                     
D3704   1130295.529    18926699.185       49885.007     1130295.419    26655727.704       70255.075
D3903   1230871.433    20610826.615      104289.622     1230871.245    29027607.365      146877.015
D4003    887439.521    14860094.590       88833.875      887439.365    20928461.887      125111.458
D4103    795854.004    13326502.498       34696.014      795853.865    18768594.458       48862.543
D5627    856306.243    14338767.653       69486.383      856306.098    20194243.839       97861.173
D5727    503817.179     8436385.924       20334.149      503817.225    11881508.012       28638.113
D5826   1206086.524    20195803.682      106166.090     1206086.420    28443109.504      149521.090
D5926   1062459.701    17790795.430       80674.598     1062459.599    25055956.497      113619.760
> 2019  1 10  9 51 55.4000000  0 8                     
D3704   1129699.803    18916722.184       49690.572     1129699.672    26641676.689       69982.591
D3903   1229625.989    20589968.690      104344.356     1229625.626    28998231.962      146954.627
D4003    886378.596    14842327.815       88763.356      886378.402    20903439.595      125010.830
D4103    795439.688    13319563.296       34478.102      795439.536    18758821.950       48557.877
D5627    855476.154    14324870.376       69342.764      855476.247    20174671.605       97661.701
D5727    503574.482     8432319.094       20100.380      503574.356    11875780.389       28310.102
D5826   1204818.627    20174570.465      106057.651     1204818.364    28413205.286      149369.796
D5926   1061496.154    17774660.511       80649.444     1061496.067    25033232.545      113580.757
> 2019  1 10  9 51 55.6000000  0 8                     
D3704   1129106.210    18906784.069       49641.258     1129106.102    26627680.171       69914.662
D3903   1228379.542    20569099.819      104258.586     1228379.425    28968841.036      146836.009
D4003    885318.299    14824575.144       88747.920      885318.193    20878437.429      124989.640
D4103    795027.748    13312667.675       34274.938      795027.670    18749110.374       48272.196
D5627    854647.918    14311001.823       69224.308      854647.973    20155139.264       97493.328
D5727    503334.342     8428299.018       19746.024      503334.346    11870118.369       27809.420
D5826   1203551.886    20153358.934      106076.155     1203551.680    28383331.327      149392.729
D5926   1060533.060    17758530.622       80467.874     1060532.868    25010516.394      113332.717
> 2019  1 10  9 51 55.8000000  0 8                     
D3704   1128513.298    18896855.818       49493.728     1128513.087    26613697.238       69704.889
D3903   1227134.322    20548248.102      104349.768     1227134.163    28939473.835      146959.839
D4003    884258.488    14806825.560       88665.125      884258.240    20853439.501      124873.661
D4103    794618.517    13305812.688       34176.726      794618.229    18739455.935       48133.648
D5627    853821.201    14297156.962       69134.021      853821.148    20135640.599       97362.020
D5727    503098.530     8424349.813       19415.916      503098.411    11864556.485       27343.098
D5826   1202284.772    20132143.703      106105.939     1202284.712    28353452.781      149436.495
D5926   1059571.652    17742437.047       80503.976     1059571.706    24987849.850      113376.420
> 2019  1 10  9 51 56.0000000  0 8                     
D3704   1127922.189    18886957.072       49368.938     1127922.058    26599756.261       69529.922
D3903   1225887.997    20527378.148      104284.299     1225887.794    28910081.867      146871.374
D4003    883199.468    14789092.535       88592.574      883199.238    20828464.769      124771.169
D4103    794210.150    13298977.342       33931.832      794210.215    18729829.205       47788.607
D5627    852995.495    14283330.158       68972.019      852995.411    20116168.195       97138.773
D5727    502866.678     8420466.630       19169.958      502866.534    11859087.865       26999.970
D5826   1201017.556    20110922.516      105968.001     1201017.391    28323565.482      149242.039
D5926   1058610.301    17726336.252       80374.775     1058610.162    24965174.566      113200.176
> 2019  1 10  9 51 56.2000000  0 8                     
D3704   1127332.538    18877083.285       49283.012     1127332.292    26585850.276       69409.837
D3903   1224642.352    20506521.288      104155.839     1224642.253    28880707.592      146688.314
D4003    882141.184    14771374.020       88470.607      882141.068    20803510.535      124598.009
D4103    793804.908    13292190.976       33794.363      793804.884    18720271.484       47595.185
D5627    852171.809    14269535.754       68833.882      852171.578    20096740.440       96944.949
D5727    502637.550     8416632.638       18833.390      502637.498    11853687.871       26524.010
D5826   1199751.862    20089728.915      106042.614     1199751.738    28293717.074      149346.869
D5926   1057650.335    17710261.297       80268.549     1057650.156    24942534.531      113046.334
> 2019  1 10  9 51 56.4000000  0 8                     
D3704   1126743.789    18867226.682       49075.345     1126743.724    26571968.309       69114.728
D3903   1223398.421    20485690.121      104191.437     1223398.216    28851369.929      146738.114
D4003    881084.571    14753679.899       88470.145      881084.368    20778590.933      124598.807
D4103    793401.291    13285432.104       33594.111      793401.156    18710752.447       47312.573
D5627    851349.452    14255768.977       68732.772      851349.445    20077351.451       96798.892
D5727    502412.549     8412865.960       18496.787      502412.541    11848383.069       26050.296
D5826   1198485.265    20068520.393      105889.323     1198484.973    28263847.700      149129.162
D5926   1056691.611    17694207.587       80165.680     1056691.449    24919925.264      112901.873
> 2019  1 10  9 51 56.6000000  0 8                     
D3704   1126157.732    18857411.613       49074.703     1126157.533    26558145.363       69114.177
D3903   1222154.061    20464851.833      104226.483     1222153.819    28822022.307      146790.128
D4003    880027.886    14735985.870       88394.503      880027.738    20753671.172      124493.076
D4103    793000.016    13278713.281       33535.941      792999.917    18701289.932       47231.151
D5627    850528.693    14242022.423       68638.697      850528.577    20057991.672       96670.954
D5727    502191.810     8409166.603       18213.398      502191.662    11843173.010       25650.848
D5826   1197220.554    20047342.528      105961.383     1197220.427    28234021.868      149234.562
D5926   1055734.036    17678174.451       80150.043     1055733.923    24897344.890      112881.557
> 2019  1 10  9 51 56.8000000  0 8                     
D3704   1125571.596    18847596.673       48876.541     1125571.533    26544322.528       68837.266
D3903   1220909.077    20444006.537      104140.087     1220908.841    28792664.281      146669.364
D4003    878972.011    14718306.969       88257.184      878971.931    20728772.557      124295.614
D4103    792599.506    13272006.093       33185.980      792599.382    18691843.702       46736.893
D5627    849708.910    14228294.684       68459.873      849708.608    20038657.481       96416.221
D5727    501974.216     8405523.923       17900.052      501974.177    11838042.841       25210.678
D5826   1195954.954    20026150.251      105899.421     1195954.769    28204174.955      149146.368
D5926   1054776.745    17662144.442       79963.738     1054776.651    24874768.578      112615.553
> 2019  1 10  9 51 57.0000000  0 8                     
D3704   1124987.847    18837821.365       48769.526     1124987.732    26530555.075       68684.848
D3903   1219665.284    20423178.519      104168.686     1219665.105    28763330.408      146708.308
D4003    877918.049    14700655.532       88227.880      877917.848    20703913.434      124258.674
D4103    792203.102    13265368.897       33092.324      792203.051    18682496.324       46608.768
D5627    848891.220    14214602.709       68354.053      848890.932    20019374.237       96267.050
D5727    501760.478     8401943.913       17605.238      501760.366    11833000.705       24793.297
D5826   1194690.126    20004970.367      105915.924     1194689.912    28174345.682      149166.679
D5926   1053821.837    17646151.695       79959.795     1053821.578    24852245.468      112616.797
> 2019  1 10  9 51 57.2000000  0 8                     
D3704   1124405.323    18828067.459       48664.322     1124405.251    26516818.105       68536.077
D3903   1218421.097    20402344.782      104134.085     1218420.934    28733988.747      146659.767
D4003    876864.178    14683009.956       88126.703      876864.115    20679061.699      124113.615
D4103    791807.845    13258750.432       32885.767      791807.680    18673174.570       46312.906
D5627    848074.707    14200931.898       68248.833      848074.554    20000120.827       96119.856
D5727    501550.085     8398422.865       17325.505      501550.040    11828042.045       24399.848
D5826   1193425.044    19983787.183      105864.096     1193424.959    28144512.346      149097.536
D5926   1052866.615    17630159.736       79821.837     1052866.489    24829722.108      112416.135
> 2019  1 10  9 51 57.4000000  0 8                     
D3704   1123824.087    18818334.595       48572.344     1123823.982    26503110.890       68409.576
D3903   1217177.194    20381517.965      104091.871     1217177.069    28704656.793      146599.586
D4003    875811.604    14665384.616       88097.365      875811.476    20654238.976      124075.339
D4103    791415.142    13252173.279       32800.196      791414.988    18663911.989       46194.172
D5627    847259.591    14187282.132       68149.541      847259.456    19980896.856       95980.081
D5727    501343.178     8394957.764       16977.299      501343.186    11823162.076       23911.709
D5826   1192160.623    19962614.363      105805.631     1192160.465    28114692.839      149014.140
D5926   1051913.355    17614195.368       79726.717     1051913.127    24807238.881      112284.468
> 2019  1 10  9 51 57.6000000  0 8                     
D3704   1123243.820    18808620.126       48449.747     1123243.850    26489428.974       68233.840
D3903   1215933.943    20360699.591      104022.713     1215933.780    28675336.876      146501.156
D4003    874759.308    14647765.143       88018.102      874759.242    20629423.908      123961.782
D4103    791023.389    13245613.240       32507.628      791023.169    18654673.154       45782.114
D5627    846445.569    14173652.223       67989.170      846445.492    19961700.840       95753.499
D5727    501140.388     8391562.304       16643.420      501140.431    11818379.734       23440.990
D5826   1190896.864    19941453.237      105841.627     1190896.731    28084890.011      149061.802
D5926   1050961.048    17598250.025       79707.888     1050960.850    24784781.988      112257.297
> 2019  1 10  9 51 57.8000000  0 8                     
D3704   1122665.243    18798930.177       48254.421     1122665.130    26475782.206       67960.795
D3903   1214691.535    20339895.048      104112.653     1214691.358    28646036.645      146627.760
D4003    873708.109    14630161.522       87882.571      873708.000    20604631.552      123768.830
D4103    790635.199    13239111.714       32334.298      790634.991    18645516.732       45540.865
D5627    845633.581    14160054.390       67839.074      845633.396    19942550.140       95541.668
D5727    500941.614     8388233.620       16393.356      500941.612    11813691.536       23086.813
D5826   1189632.723    19920284.912      105775.061     1189632.513    28055077.651      148968.771
D5926   1050009.097    17582308.447       79521.053     1050008.891    24762330.528      111995.805
> 2019  1 10  9 51 58.0000000  0 8                     
D3704   1122088.965    18789279.292       48223.928     1122088.793    26462190.047       67917.228
D3903   1213448.025    20319072.518      104032.069     1213447.932    28616711.093      146516.602
D4003    872658.319    14612585.008       87952.919      872658.348    20579877.786      123871.312
D4103    790248.890    13232644.855       32242.464      790248.702    18636408.559       45407.016
D5627    844823.277    14146486.575       67740.424      844823.168    19923441.806       95402.102
D5727    500745.777     8384954.949       16058.470      500745.768    11809074.174       22615.928
D5826   1188369.252    19899129.899      105775.841     1188369.203    28025283.897      148973.126
D5926   1049059.205    17566404.237       79502.178     1049059.003    24739931.367      111968.963
> 2019  1 10  9 51 58.2000000  0 8                     
D3704   1121512.891    18779634.507       48019.533     1121512.789    26448606.602       67629.152
D3903   1212205.437    20298266.104      103941.541     1212205.343    28587407.773      146387.837
D4003    871607.946    14594994.424       87700.741      871607.786    20555103.523      123514.204
D4103    789863.825    13226196.362       32028.854      789863.703    18627327.155       45111.283
D5627    844014.194    14132938.490       67578.034      844014.103    19904361.386       95176.608
D5727    500554.172     8381743.255       15699.995      500553.941    11804550.988       22109.483
D5826   1187105.893    19877974.731      105730.637     1187105.694    27995489.271      148907.642
D5926   1048109.673    17550503.801       79343.441     1048109.495    24717537.575      111743.004
> 2019  1 10  9 51 58.4000000  0 8                     
D3704   1120939.478    18770030.600       48009.413     1120939.218    26435080.772       67613.944
D3903   1210963.990    20277477.796      104029.870     1210963.839    28558130.205      146511.612
D4003    870560.401    14577454.276       87796.252      870560.351    20530400.683      123650.540
D4103    789481.167    13219790.591       31827.089      789481.040    18618304.899       44823.959
D5627    843206.901    14119422.883       67529.655      843206.947    19885326.064       95104.677
D5727    500366.543     8378603.256       15413.481      500366.455    11800129.091       21708.258
D5826   1185842.995    19856828.604      105720.417     1185842.923    27965707.743      148892.056
D5926   1047161.994    17534635.113       79338.119     1047161.813    24695188.974      111739.514
> 2019  1 10  9 51 58.6000000  0 8                     
D3704   1120365.980    18760428.718       47837.385     1120365.780    26421557.983       67374.345
D3903   1209721.617    20256671.822      103959.388     1209721.405    28528827.883      146413.655
D4003    869511.793    14559895.026       87558.498      869511.623    20505670.575      123313.823
D4103    789101.027    13213425.173       31657.975      789100.812    18609340.107       44583.797
D5627    842400.610    14105916.952       67313.359      842400.436    19866305.129       94801.678
D5727    500182.445     8375520.560       15116.716      500182.413    11795787.440       21290.678
D5826   1184580.453    19835684.520      105714.635     1184580.216    27935929.332      148884.544
D5926   1046214.262    17518767.489       79221.176     1046214.183    24672841.071      111570.281
> 2019  1 10  9 51 58.8000000  0 8                     
D3704   1119794.610    18750861.241       47703.793     1119794.446    26408083.114       67181.881
D3903   1208479.785    20235879.944      103917.949     1208479.648    28499545.152      146355.903
D4003    868466.002    14542383.326       87595.684      868465.829    20481007.810      123367.043
D4103    788722.963    13207093.578       31483.148      788722.772    18600423.348       44342.426
D5627    841596.470    14092454.280       67167.109      841596.405    19847344.793       94598.396
D5727    500001.862     8372497.217       14821.424      500001.829    11791529.304       20875.840
D5826   1183317.748    19814541.593      105604.091     1183317.599    27906152.423      148728.205
D5926   1045268.129    17502923.254       79083.317     1045267.988    24650527.015      111379.253
> 2019  1 10  9 51 59.0000000  0 8                     
D3704   1119224.880    18741320.482       47556.868     1119224.741    26394646.738       66978.500
D3903   1207238.558    20215096.354      103881.746     1207238.475    28470273.971      146301.112
D4003    867419.717    14524864.190       87499.464      867419.575    20456334.402      123230.187
D4103    788346.865    13200796.949       31330.731      788346.784    18591554.862       44124.813
D5627    840794.225    14079020.858       67131.511      840794.130    19828425.114       94545.058
D5727    499824.759     8369532.932       14427.405      499824.715    11787354.136       20317.810
D5826   1182056.413    19793420.775      105561.981     1182056.255    27876406.782      148673.684
D5926   1044323.599    17487106.591       79055.832     1044323.421    24628251.164      111338.215
> 2019  1 10  9 51 59.2000000  0 8                     
D3704   1118656.797    18731809.108       47480.233     1118656.634    26381251.037       66867.644
D3903   1205997.894    20194320.005      103920.502     1205997.777    28441013.749      146359.093
D4003    866374.632    14507364.297       87372.031      866374.606    20431688.364      123053.407
D4103    787972.706    13194530.802       31109.890      787972.505    18582729.900       43812.369
D5627    839992.497    14065594.556       66940.696      839992.265    19809516.102       94277.071
D5727    499652.461     8366647.451       14224.214      499652.480    11783290.574       20034.094
D5826   1180795.488    19772308.379      105606.970     1180795.355    27846672.045      148731.599
D5926   1043379.323    17471295.424       78915.359     1043379.206    24605983.521      111143.687
> 2019  1 10  9 51 59.4000000  0 8                     
D3704   1118089.750    18722313.062       47367.523     1118089.607    26367877.509       66713.554
D3903   1204756.607    20173535.905      103880.778     1204756.510    28411741.930      146304.214
D4003    865331.166    14489889.891       87384.436      865330.985    20407077.683      123069.694
D4103    787601.114    13188308.824       30978.981      787601.111    18573967.426       43631.301
D5627    839192.817    14052206.417       66803.040      839192.792    19790660.688       94082.561
D5727    499482.776     8363802.608       13865.545      499482.594    11779283.755       19525.014
D5826   1179534.191    19751186.985      105643.006     1179534.064    27816925.725      148785.380
D5926   1042436.782    17455512.352       78891.862     1042436.551    24583754.784      111108.616
> 2019  1 10  9 51 59.6000000  0 8                     
D3704   1117524.043    18712839.557       47243.447     1117523.791    26354534.798       66533.373
D3903   1203515.846    20152759.749      103816.158     1203515.750    28382481.088      146209.871
D4003    864287.439    14472413.003       87233.118      864287.281    20382463.744      122854.711
D4103    787231.092    13182113.028       30707.035      787231.038    18565241.166       43245.309
D5627    838395.018    14038845.809       66674.793      838394.952    19771844.176       93902.349
D5727    499317.077     8361029.499       13566.841      499317.013    11775378.752       19108.303
D5826   1178272.385    19730058.384      105509.865     1178272.277    27787168.649      148593.582
D5926   1041494.441    17439733.980       78746.228     1041494.247    24561533.061      110902.945
> 2019  1 10  9 51 59.8000000  0 8                     
D3704   1116959.768    18703390.868       47115.963     1116959.614    26341228.123       66358.749
D3903   1202275.858    20131996.517      103892.628     1202275.830    28353239.113      146318.051
D4003    863245.504    14454966.380       87219.086      863245.341    20357892.802      122835.307
D4103    786864.297    13175971.621       30670.605      786864.266    18556592.104       43196.540
D5627    837598.622    14025510.850       66618.644      837598.569    19753063.706       93823.265
D5727    499154.977     8358316.131       13253.282      499154.957    11771557.092       18665.836
D5826   1177012.281    19708956.411      105534.342     1177012.121    27757449.933      148633.044
D5926   1040554.030    17423984.734       78643.609     1040553.848    24539352.472      110759.627
> 2019  1 10  9 52  0.0000000  0 8                     
D3704   1116396.815    18693967.675       46904.491     1116396.731    26327956.374       66060.848
D3903   1201035.020    20111217.992      103725.897     1201034.962    28323975.503      146082.937
D4003    862203.798    14437522.563       87093.588      862203.588    20333325.741      122662.128
D4103    786498.085    13169837.500       30394.195      786497.794    18547952.796       42805.968
D5627    836802.998    14012187.122       66441.105      836802.826    19734299.053       93574.830
D5727    498996.719     8355665.475       12901.528      498996.662    11767823.925       18169.631
D5826   1175751.715    19687849.542      105446.602     1175751.493    27727723.324      148507.412
D5926   1039614.708    17408256.013       78601.771     1039614.513    24517200.546      110698.710
> 2019  1 10  9 52  0.2000000  0 8                     
D3704   1115836.644    18684586.777       46897.929     1115836.551    26314744.204       66046.610
D3903   1199796.158    20090472.812      103786.119     1199796.003    28294758.916      146170.464
D4003    861163.566    14420103.845       86975.958      861163.450    20308793.315      122493.450
D4103    786135.036    13163758.661       30205.232      786134.854    18539391.602       42541.132
D5627    836009.304    13998898.901       66312.639      836009.259    19715584.087       93390.487
D5727    498842.722     8353085.169       12640.830      498842.600    11764189.998       17803.645
D5826   1174492.258    19666760.222      105511.235     1174492.164    27698021.841      148597.175
D5926   1038675.894    17392535.658       78496.627     1038675.731    24495060.804      110551.321
> 2019  1 10  9 52  0.4000000  0 8                     
D3704   1115276.573    18675207.191       46784.984     1115276.449    26301534.882       65890.909
D3903   1198556.569    20069715.589      103716.573     1198556.339    28265524.823      146071.124
D4003    860124.741    14402708.653       86964.429      860124.606    20284294.625      122479.063
D4103    785774.212    13157717.615       30047.979      785774.100    18530883.376       42317.912
D5627    835217.370    13985636.373       66177.573      835217.257    19696905.990       93205.185
D5727    498691.597     8350557.003       12251.316      498691.618    11760629.269       17254.404
D5826   1173232.097    19645657.975      105420.756     1173231.900    27668302.406      148470.039
D5926   1037738.247    17376836.333       78360.778     1037738.061    24472950.540      110359.054
> 2019  1 10  9 52  0.6000000  0 8                     
D3704   1114717.664    18665850.194       46589.786     1114717.555    26288356.700       65616.726
D3903   1197317.703    20048972.274      103740.669     1197317.662    28236310.598      146104.236
D4003    859085.895    14385315.768       86897.784      859085.777    20259798.813      122383.917
D4103    785415.328    13151708.019       29885.767      785415.227    18522419.794       42090.601
D5627    834426.947    13972400.858       66028.561      834426.759    19678264.953       92989.541
D5727    498545.268     8348106.740       11997.856      498545.132    11757178.389       16897.239
D5826   1171973.014    19624573.824      105405.590     1171972.803    27638608.399      148449.280
D5926   1036802.501    17361164.177       78290.362     1036802.308    24450878.729      110266.041
> 2019  1 10  9 52  0.8000000  0 8                     
D3704   1114161.244    18656532.237       46482.894     1114161.014    26275233.355       65464.692
D3903   1196078.747    20028224.140      103704.958     1196078.546    28207089.751      146055.201
D4003    858047.927    14367936.211       86836.413      858047.987    20235322.029      122295.296
D4103    785058.428    13145730.866       29667.997      785058.242    18514001.673       41781.482
D5627    833638.289    13959195.146       65932.380      833638.187    19659667.045       92859.719
D5727    498401.942     8345707.169       11665.932      498401.975    11753798.941       16429.756
D5826   1170714.077    19603492.706      105338.122     1170713.937    27608918.543      148357.539
D5926   1035867.182    17345506.105       78183.997     1035867.086    24428825.521      110109.367
> 2019  1 10  9 52  1.0000000  0 8                     
D3704   1113606.099    18647235.658       46388.990     1113606.035    26262140.417       65331.627
D3903   1194840.097    20007483.149      103674.504     1194839.856    28177878.711      146013.573
D4003    857010.895    14350568.928       86662.118      857010.818    20210862.970      122055.519
D4103    784704.025    13139797.266       29515.682      784703.921    18505645.377       41569.679
D5627    832850.804    13946008.670       65808.686      832850.598    19641095.101       92680.259
D5727    498262.653     8343373.982       11339.154      498262.523    11750512.990       15969.781
D5826   1169455.829    19582425.081      105359.507     1169455.645    27579247.035      148381.265
D5926   1034933.354    17329869.306       78100.811     1034933.223    24406803.648      109997.396
> 2019  1 10  9 52  1.2000000  0 8                     
D3704   1113052.148    18637957.860       46338.673     1113051.982    26249074.091       65260.411
D3903   1193601.715    19986748.248      103667.988     1193601.499    28148675.996      145999.279
D4003    855975.800    14333236.505       86662.263      855975.661    20186451.866      122050.032
D4103    784351.501    13133894.130       29325.377      784351.222    18497331.441       41299.277
D5627    832064.845    13932846.933       65589.509      832064.583    19622559.049       92375.949
D5727    498127.173     8341106.151       11032.126      498127.099    11747319.034       15537.662
D5826   1168197.583    19561353.180      105316.159     1168197.363    27549570.782      148328.285
D5926   1034000.440    17314249.144       78041.689     1034000.418    24384804.169      109907.671
> 2019  1 10  9 52  1.4000000  0 8                     
D3704   1112498.686    18628690.126       46066.114     1112498.423    26236022.009       64878.214
D3903   1192363.579    19966014.650      103605.465     1192363.331    28119476.140      145916.912
D4003    854940.824    14315904.052       86584.198      854940.567    20162041.860      121941.087
D4103    784001.294    13128029.054       29129.647      784001.128    18489071.586       41026.984
D5627    831281.424    13919729.031       65483.740      831281.276    19604083.859       92225.119
D5727    497995.347     8338899.726       10747.067      497995.354    11744211.501       15136.881
D5826   1166939.449    19540289.948      105351.440     1166939.260    27519905.125      148372.118
D5926   1033068.506    17298640.806       77929.330     1033068.393    24362822.634      109754.697
> 2019  1 10  9 52  1.6000000  0 8                     
D3704   1111948.391    18619476.903       45980.790     1111948.332    26223046.366       64758.263
D3903   1191126.111    19945293.557      103652.758     1191125.852    28090292.758      145980.460
D4003    853906.571    14298587.212       86416.443      853906.467    20137653.642      121707.066
D4103    783653.291    13122203.125       28957.279      783653.191    18480866.189       40781.764
D5627    830499.299    13906632.283       65403.199      830499.129    19585638.835       92111.149
D5727    497867.132     8336750.313       10414.868      497866.920    11741184.125       14666.891
D5826   1165681.291    19519219.660      105228.477     1165681.011    27490230.701      148201.199
D5926   1032137.779    17283054.940       77849.280     1032137.506    24340871.695      109640.252
> 2019  1 10  9 52  1.8000000  0 8                     
D3704   1111399.147    18610280.745       45898.155     1111399.047    26210094.714       64643.113
D3903   1189888.043    19924563.006      103554.039     1189887.850    28061096.666      145842.023
D4003    852874.449    14281303.924       86402.662      852874.294    20113312.229      121687.140
D4103    783307.454    13116411.669       28839.884      783307.420    18472709.836       40618.626
D5627    829718.097    13893551.643       65247.433      829717.953    19567216.606       91893.338
D5727    497742.633     8334667.339       10043.316      497742.670    11738250.747       14145.459
D5826   1164424.364    19498173.965      105234.471     1164424.138    27460590.461      148206.852
D5926   1031207.904    17267485.084       77698.929     1031207.766    24318943.645      109426.445
> 2019  1 10  9 52  2.0000000  0 8                     
D3704   1110850.894    18601101.114       45743.753     1110850.786    26197166.091       64423.062
D3903   1188651.248    19903852.198      103498.129     1188651.073    28031928.261      145763.932
D4003    851842.489    14264023.391       86351.673      851842.349    20088974.801      121614.209
D4103    782962.962    13110643.692       28610.924      782962.818    18464586.111       40292.735
D5627    828938.681    13880502.157       65136.166      828938.645    19548837.938       91735.019
D5727    497622.786     8332658.676        9795.348      497622.682    11735421.655       13794.073
D5826   1163167.521    19477127.071      105188.483     1163167.336    27430949.091      148142.839
D5926   1030279.906    17251945.298       77630.323     1030279.699    24297058.356      109334.701
> 2019  1 10  9 52  2.2000000  0 8                     
D3704   1110304.650    18591952.363       45669.640     1110304.487    26184281.479       64319.813
D3903   1187415.009    19883152.572      103589.291     1187414.741    28002775.475      145891.299
D4003    850811.042    14246753.057       86258.737      850810.958    20064651.959      121483.852
D4103    782621.310    13104921.508       28373.444      782621.166    18456527.564       39960.997
D5627    828160.793    13867474.923       64900.899      828160.619    19530490.934       91404.440
D5727    497505.709     8330699.607        9438.610      497505.698    11732662.840       13294.857
D5826   1161911.256    19456089.374      105168.003     1161910.936    27401320.523      148118.431
D5926   1029352.548    17236419.233       77575.655     1029352.518    24275191.415      109256.997
> 2019  1 10  9 52  2.4000000  0 8                     
D3704   1109759.176    18582818.435       45502.872     1109759.013    26171417.516       64084.263
D3903   1186177.682    19862434.714      103528.971     1186177.604    27973597.215      145808.725
D4003    849780.839    14229501.310       86180.128      849780.647    20040355.189      121372.377
D4103    782282.386    13099246.819       28260.150      782282.350    18448535.365       39799.075
D5627    827385.538    13854494.744       64860.313      827385.469    19512210.046       91346.204
D5727    497392.922     8328811.885        9175.865      497392.867    11730003.869       12921.705
D5826   1160654.980    19435055.773      105199.067     1160654.775    27371696.837      148156.037
D5926   1028426.011    17220904.102       77456.372     1028425.850    24253340.016      109084.862
> 2019  1 10  9 52  2.6000000  0 8                     
D3704   1109215.652    18573717.861       45385.966     1109215.613    26158600.663       63919.617
D3903   1184941.132    19841728.920      103467.941     1184940.940    27944435.470      145719.994
D4003    848751.371    14212265.284       86066.829      848751.402    20016080.713      121214.105
D4103    781944.812    13093594.789       28074.656      781944.788    18440575.550       39541.375
D5627    826610.891    13841522.681       64736.857      826610.949    19493940.805       91172.673
D5727    497283.516     8326976.712        8777.322      497283.370    11727419.528       12361.941
D5826   1159398.617    19414015.960      105058.261     1159398.265    27342065.630      147962.061
D5926   1027500.894    17205412.828       77345.468     1027500.823    24231523.043      108932.664
> 2019  1 10  9 52  2.8000000  0 8                     
D3704   1108673.634    18564640.668       45272.286     1108673.443    26145816.740       63758.806
D3903   1183705.405    19821035.331      103497.952     1183705.116    27915291.471      145761.959
D4003    847723.592    14195051.918       86020.102      847723.430    19991837.892      121148.324
D4103    781609.528    13087979.857       27844.788      781609.368    18432667.275       39217.015
D5627    825837.748    13828575.310       64524.781      825837.518    19475706.271       90874.857
D5727    497178.582     8325221.247        8528.615      497178.450    11724947.140       12010.833
D5826   1158143.809    19393004.308      105115.471     1158143.501    27312473.217      148040.390
D5926   1026577.021    17189943.734       77234.900     1026576.879    24209736.511      108772.169
> 2019  1 10  9 52  3.0000000  0 8                     
D3704   1108132.821    18555586.210       45213.255     1108132.713    26133064.979       63676.642
D3903   1182469.255    19800335.741      103402.897     1182469.081    27886139.079      145628.744
D4003    846695.970    14177847.898       85914.365      846696.003    19967608.227      120999.562
D4103    781276.982    13082410.900       27681.346      781276.750    18424823.872       38984.383
D5627    825067.035    13815670.353       64421.574      825066.910    19457531.299       90728.074
D5727    497076.666     8323515.524        8131.239      497076.656    11722544.973       11452.016
D5826   1156888.162    19371981.214      105046.263     1156888.043    27282865.139      147945.508
D5926   1025654.717    17174496.754       77202.657     1025654.437    24187982.077      108730.627
> 2019  1 10  9 52  3.2000000  0 8                     
D3704   1107592.903    18546543.559       45014.337     1107592.680    26120329.650       63399.821
D3903   1181234.254    19779655.162      103335.554     1181234.040    27857013.331      145530.862
D4003    845669.793    14160665.025       85864.706      845669.838    19943408.315      120928.809
D4103    780946.330    13076874.631       27517.008      780946.247    18417026.995       38754.536
D5627    824297.614    13802786.039       64290.919      824297.490    19439385.685       90547.804
D5727    496979.579     8321889.276        7899.896      496979.492    11720254.570       11127.720
D5826   1155633.413    19350971.961      105057.468     1155633.305    27253276.038      147956.569
D5926   1024732.461    17159056.223       77040.756     1024732.313    24166235.952      108501.012
> 2019  1 10  9 52  3.4000000  0 8                     
D3704   1107055.051    18537540.692       44866.934     1107054.963    26107649.686       63186.443
D3903   1180000.073    19758988.051      103439.389     1179999.871    27827907.158      145681.222
D4003    844644.345    14143492.084       85782.507      844644.245    19919222.553      120814.021
D4103    780617.614    13071371.229       27287.437      780617.404    18409276.088       38428.635
D5627    823529.640    13789927.855       64171.582      823529.487    19421276.124       90377.674
D5727    496885.205     8320309.297        7553.376      496885.098    11718029.026       10636.959
D5826   1154378.770    19329960.468      104984.408     1154378.586    27223684.724      147856.966
D5926   1023812.347    17143648.072       76972.513     1023812.234    24144535.749      108406.227
> 2019  1 10  9 52  3.6000000  0 8                     
D3704   1106519.240    18528567.305       44724.947     1106519.186    26095012.398       62991.878
D3903   1178764.594    19738300.173      103346.638     1178764.420    27798770.914      145553.808
D4003    843619.836    14126335.582       85696.869      843619.597    19895059.749      120691.060
D4103    780291.787    13065913.742       27126.729      780291.653    18401590.361       38204.096
D5627    822763.341    13777093.538       63988.516      822763.122    19403200.589       90117.175
D5727    496794.939     8318798.622        7267.116      496794.914    11715901.634       10233.658
D5826   1153124.805    19308963.586      105006.839     1153124.713    27194113.331      147889.041
D5926   1022892.979    17128253.569       76858.210     1022892.854    24122854.504      108244.019
> 2019  1 10  9 52  3.8000000  0 8                     
D3704   1105985.029    18519622.316       44658.639     1105984.931    26082414.022       62895.088
D3903   1177530.098    19717630.846      103385.928     1177529.979    27769660.152      145601.912
D4003    842596.243    14109196.209       85544.414      842596.040    19870921.537      120476.409
D4103    779967.745    13060488.396       27004.499      779967.591    18393949.542       38033.370
D5627    821998.947    13764295.835       63917.549      821998.938    19385177.154       90020.936
D5727    496708.092     8317345.199        6906.832      496708.184    11713854.903        9727.538
D5826   1151870.735    19287962.218      104935.617     1151870.547    27164535.523      147788.926
D5926   1021974.982    17112881.927       76821.806     1021974.856    24101205.700      108193.296
> 2019  1 10  9 52  4.0000000  0 8                     
D3704   1105451.722    18510690.588       44498.536     1105451.452    26069835.005       62671.662
D3903   1176295.415    19696953.660      103233.429     1176295.188    27740539.770      145393.923
D4003    841574.425    14092087.326       85511.050      841574.522    19846826.255      120433.251
D4103    779645.123    13055087.496       26782.107      779645.150    18386342.867       37717.257
D5627    821235.520    13751512.326       63764.407      821235.416    19367172.967       89800.687
D5727    496625.642     8315963.832        6562.982      496625.550    11711909.395        9242.870
D5826   1150617.147    19266975.095      104939.283     1150617.147    27134977.737      147792.102
D5926   1021057.533    17097517.566       76629.005     1021057.357    24079567.041      107919.844
> 2019  1 10  9 52  4.2000000  0 8                     
D3704   1104920.213    18501790.881       44378.400     1104920.104    26057300.672       62501.582
D3903   1175062.312    19676306.974      103306.070     1175062.089    27711460.985      145494.537
D4003    840553.053    14074985.116       85470.613      840553.000    19822739.605      120372.072
D4103    779325.397    13049731.075       26568.587      779325.177    18378799.416       37419.768
D5627    820473.856    13738759.444       63601.795      820473.856    19349212.829       89576.393
D5727    496547.333     8314651.236        6309.379      496547.314    11710060.821        8886.091
D5826   1149363.850    19245987.238      104870.803     1149363.773    27105419.317      147694.768
D5926   1020142.259    17082191.765       76597.956     1020142.094    24057983.072      107878.728
> 2019  1 10  9 52  4.4000000  0 8                     
D3704   1104390.050    18492915.201       44322.346     1104389.914    26044800.356       62419.251
D3903   1173828.327    19655645.760      103199.277     1173828.241    27682362.078      145341.312
D4003    839532.282    14057890.993       85313.090      839532.264    19798665.191      120153.092
D4103    779007.942    13044417.357       26358.497      779007.874    18371315.462       37122.570
D5627    819714.322    13726039.085       63390.831      819714.139    19331297.551       89278.220
D5727    496471.938     8313389.360        5973.011      496471.823    11708283.603        8410.500
D5826   1148111.401    19225013.078      104862.450     1148111.159    27075880.363      147686.003
D5926   1019227.312    17066872.174       76455.836     1019227.232    24036407.326      107679.444
> 2019  1 10  9 52  4.6000000  0 8                     
D3704   1103860.869    18484050.732       44124.482     1103860.675    26032316.505       62142.771
D3903   1172595.814    19635005.905      103275.801     1172595.640    27653293.816      145447.703
D4003    838513.308    14040828.375       85259.391      838513.192    19774634.572      120075.693
D4103    778693.156    13039145.658       26213.351      778693.003    18363890.948       36918.798
D5627    818957.152    13713360.919       63362.690      818956.993    19313441.907       89237.679
D5727    496400.625     8312194.758        5582.872      496400.482    11706601.503        7865.560
D5826   1146858.851    19204040.588      104798.604     1146858.699    27046343.163      147596.247
D5926   1018314.138    17051581.007       76351.665     1018313.964    24014871.438      107530.343
> 2019  1 10  9 52  4.8000000  0 8                     
D3704   1103333.813    18475225.835       43971.317     1103333.497    26019887.951       61929.096
D3903   1171362.349    19614350.744      103170.244     1171362.160    27624204.275      145300.992
D4003    837495.009    14023776.497       85181.650      837494.882    19750619.434      119968.188
D4103    778380.108    13033902.987       25988.241      778379.958    18356507.189       36599.396
D5627    818200.452    13700688.381       63204.143      818200.310    19295594.371       89016.185
D5727    496333.999     8311078.183        5303.346      496333.806    11705028.391        7468.372
D5826   1145607.137    19183080.867      104800.919     1145606.946    27016823.913      147595.494
D5926   1017402.241    17036310.674       76376.539     1017401.997    23993365.369      107565.072
> 2019  1 10  9 52  5.0000000  0 8                     
D3704   1102808.539    18466431.572       43944.392     1102808.363    26007502.132       61890.729
D3903   1170130.068    19593716.695      103182.555     1170129.922    27595144.077      145319.120
D4003    836477.693    14006740.167       85115.004      836477.451    19726625.796      119873.043
D4103    778069.613    13028705.339       25852.267      778069.655    18349187.309       36411.474
D5627    817445.431    13688047.552       62998.431      817445.216    19277791.134       88723.042
D5727    496270.485     8310017.514        5018.226      496270.558    11703534.717        7067.051
D5826   1144355.484    19162120.683      104752.097     1144355.384    26987304.814      147529.198
D5926   1016490.007    17021035.366       76206.028     1016489.818    23971852.355      107328.186
> 2019  1 10  9 52  5.2000000  0 8                     
D3704   1102283.708    18457642.694       43811.038     1102283.511    25995123.986       61699.628
D3903   1168897.708    19573080.184      103163.176     1168897.551    27566080.253      145292.629
D4003    835460.929    13989717.166       85057.350      835460.902    19702651.187      119791.478
D4103    777760.820    13023534.886       25630.082      777760.681    18341905.015       36095.710
D5627    816692.940    13675447.866       62898.139      816692.874    19260046.526       88583.248
D5727    496210.689     8309013.869        4716.631      496210.659    11702121.306        6641.984
D5826   1143104.264    19141170.264      104710.302     1143104.093    26957798.975      147470.520
D5926   1015579.825    17005794.160       76043.832     1015579.692    23950386.717      107095.818
> 2019  1 10  9 52  5.4000000  0 8                     
D3704   1101760.544    18448880.486       43589.620     1101760.332    25982784.061       61393.203
D3903   1167665.341    19552447.549      103148.156     1167665.311    27537021.727      145270.448
D4003    834445.033    13972705.696       84899.056      834444.859    19678692.892      119570.324
D4103    777454.689    13018408.869       25529.899      777454.535    18334685.873       35954.203
D5627    815941.698    13662868.238       62800.178      815941.680    19242329.876       88445.853
D5727    496154.330     8308070.543        4340.978      496154.339    11700792.910        6115.881
D5826   1141853.668    19120228.203      104761.197     1141853.406    26928304.871      147542.893
D5926   1014671.505    16990585.394       76048.823     1014671.372    23928967.554      107105.707
> 2019  1 10  9 52  5.6000000  0 8                     
D3704   1101239.733    18440162.562       43468.952     1101239.664    25970505.420       61217.149
D3903   1166433.459    19531817.918      103076.367     1166433.323    27507967.637      145167.817
D4003    833431.029    13955725.885       84806.969      833430.862    19654778.827      119439.084
D4103    777149.823    13013302.890       25269.640      777149.698    18327495.032       35589.291
D5627    815191.766    13650308.203       62531.293      815191.517    19224640.705       88067.886
D5727    496102.471     8307202.347        4075.526      496102.335    11699569.733        5737.901
D5826   1140602.381    19099275.964      104666.259     1140602.131    26898796.292      147408.232
D5926   1013763.182    16975375.629       75854.904     1013763.011    23907546.412      106831.943
> 2019  1 10  9 52  5.8000000  0 8                     
D3704   1100720.618    18431468.772       43417.978     1100720.420    25958261.990       61149.760
D3903   1165202.342    19511202.644      103099.077     1165202.234    27478934.074      145201.661
D4003    832418.100    13938764.491       84803.172      832417.931    19630891.010      119433.138
D4103    776847.894    13008248.961       25137.685      776847.833    18320377.174       35404.940
D5627    814444.795    13637801.944       62482.864      814444.697    19207027.128       88000.285
D5727    496053.889     8306387.242        3692.476      496053.656    11698422.153        5201.219
D5826   1139352.190    19078342.712      104640.184     1139352.014    26869314.646      147373.341
D5926   1012857.226    16960204.649       75804.391     1012857.016    23886180.024      106758.188
> 2019  1 10  9 52  6.0000000  0 8                     
D3704   1100202.032    18422785.176       43290.043     1100201.803    25946032.038       60968.044
D3903   1163970.945    19490582.829      103029.935     1163970.747    27449893.742      145105.259
D4003    831405.234    13921803.857       84690.573      831405.129    19607004.382      119276.067
D4103    776547.711    13003221.424       24836.145      776547.563    18313296.186       34976.773
D5627    813698.467    13625305.371       62392.595      813698.354    19189427.071       87872.113
D5727    496009.694     8305648.747        3421.857      496009.712    11697381.909        4819.514
D5826   1138102.451    19057414.675      104610.056     1138102.285    26839839.978      147329.614
D5926   1011951.869    16945043.770       75712.989     1011951.729    23864828.386      106633.397
> 2019  1 10  9 52  6.2000000  0 8                     
D3704   1099684.849    18414127.167       43142.146     1099684.816    25933838.429       60760.954
D3903   1162740.235    19469976.842      103066.549     1162740.074    27420872.690      145153.781
D4003    830393.719    13904865.742       84540.414      830393.546    19583149.169      119064.293
D4103    776251.076    12998254.195       24739.447      776250.916    18306300.831       34842.668
D5627    812953.296    13612826.852       62210.424      812953.130    19171852.649       87612.016
D5727    495968.814     8304964.375        3077.947      495968.776    11696418.007        4333.664
D5826   1136852.935    19036492.664      104621.342     1136852.771    26810374.055      147344.386
D5926   1011047.476    16929901.173       75576.515     1011047.347    23843501.707      106439.821
> 2019  1 10  9 52  6.4000000  0 8                     
D3704   1099169.614    18405498.738       42960.900     1099169.492    25921686.239       60503.176
D3903   1161509.286    19449363.532      103016.986     1161509.283    27391841.934      145085.694
D4003    829383.844    13887957.659       84530.975      829383.783    19559336.310      119051.631
D4103    775955.685    12993306.306       24578.900      775955.591    18299332.298       34617.797
D5627    812210.267    13600384.767       62013.490      812210.187    19154330.246       87338.876
D5727    495932.062     8304348.786        2787.594      495932.089    11695551.274        3926.291
D5826   1135603.373    19015568.396      104543.015     1135603.229    26780905.178      147233.799
D5926   1010144.827    16914785.870       75520.811     1010144.659    23822213.743      106360.836
> 2019  1 10  9 52  6.6000000  0 8                     
D3704   1098656.554    18396906.558       42896.391     1098656.405    25909585.603       60417.758
D3903   1160278.930    19428760.135      102941.455     1160278.774    27362824.795      144978.947
D4003    828374.206    13871051.464       84434.144      828374.117    19535525.984      118912.553
D4103    775662.007    12988390.526       24316.550      775661.974    18292408.738       34245.603
D5627    811469.557    13587982.069       61873.844      811469.408    19136862.470       87139.715
D5727    495898.745     8303791.267        2428.849      495898.721    11694766.016        3420.846
D5826   1134354.695    18994659.793      104499.983     1134354.555    26751458.418      147176.286
D5926   1009242.721    16899681.707       75301.148     1009242.650    23800941.576      106051.284
> 2019  1 10  9 52  6.8000000  0 8                     
D3704   1098144.116    18388327.280       42728.251     1098144.095    25897502.052       60173.360
D3903   1159049.406    19408171.844      102930.156     1159049.223    27333829.006      144964.139
D4003    827365.843    13854164.635       84335.518      827365.815    19511743.474      118775.526
D4103    775371.743    12983527.216       24187.441      775371.561    18285559.618       34066.213
D5627    810730.578    13575607.301       61782.430      810730.418    19119434.527       87012.784
D5727    495869.711     8303305.497        2114.698      495869.717    11694081.846        2978.865
D5826   1133106.602    18973759.796      104484.000     1133106.438    26722023.161      147152.226
D5926   1008343.414    16884621.478       75299.878     1008343.240    23779731.319      106050.150
> 2019  1 10  9 52  7.0000000  0 8                     
D3704   1097633.857    18379781.630       42607.091     1097633.688    25885467.380       60008.528
D3903   1157819.973    19387585.813      102904.929     1157819.767    27304836.178      144929.583
D4003    826358.596    13837297.532       84258.222      826358.368    19487988.368      118664.369
D4103    775082.679    12978689.728       23931.768      775082.532    18278746.375       33700.900
D5627    809992.657    13563250.815       61588.439      809992.487    19102031.971       86739.619
D5727    495844.541     8302882.558        1788.946      495844.486    11693486.073        2520.001
D5826   1131858.554    18952862.996      104478.564     1131858.374    26692592.715      147142.594
D5926   1007443.897    16869561.502       75259.821     1007443.786    23758521.289      105993.225
> 2019  1 10  9 52  7.2000000  0 8                     
D3704   1097124.985    18371260.211       42533.312     1097124.680    25873465.674       59901.262
D3903   1156590.867    19367004.827      102865.130     1156590.794    27275850.261      144872.464
D4003    825352.178    13820445.887       84135.612      825352.054    19464255.494      118495.471
D4103    774796.882    12973903.374       23826.992      774796.756    18272006.195       33560.178
D5627    809257.081    13550933.127       61499.596      809256.932    19084684.047       86614.343
D5727    495823.151     8302524.769        1511.738      495823.013    11692982.073        2128.802
D5826   1130610.725    18931967.284      104371.783     1130610.515    26663164.196      146991.638
D5926   1006545.077    16854509.538       75091.496     1006544.947    23737322.644      105755.702
> 2019  1 10  9 52  7.4000000  0 8                     
D3704   1096616.958    18362753.549       42364.999     1096616.901    25861485.422       59664.932
D3903   1155362.370    19346431.801      102912.073     1155362.117    27246875.768      144934.946
D4003    824347.244    13803618.765       84110.998      824347.027    19440556.400      118459.238
D4103    774512.293    12969137.976       23577.799      774512.275    18265294.160       33204.566
D5627    808522.456    13538633.208       61329.710      808522.353    19067361.178       86375.391
D5727    495805.117     8302222.421        1167.110      495805.020    11692556.313        1643.489
D5826   1129364.207    18911092.927      104417.375     1129364.013    26633765.869      147059.789
D5926   1005648.248    16839491.239       74967.241     1005648.057    23716171.503      105582.212
> 2019  1 10  9 52  7.6000000  0 8                     
D3704   1096110.941    18354280.549       42171.857     1096110.894    25849552.435       59393.393
D3903   1154133.086    19325849.387      102856.588     1154132.950    27217888.779      144860.125
D4003    823342.695    13786796.565       83943.537      823342.485    19416864.553      118222.363
D4103    774230.697    12964422.416       23402.835      774230.522    18258653.247       32959.031
D5627    807789.976    13526367.266       61174.610      807789.829    19050086.100       86156.193
