     3.02           OBSERVATION DATA    M: Mixed            RINEX VERSION / TYPE
BUPT PLAN 6.0                           20210329 120000 UTC PGM / RUN BY / DATE 
                                                            MARKER NAME         
                                                            MARKER NUMBER       
                                                            MARKER TYPE         
                                                            OBSERVER / AGENCY   
                                                            REC # / TYPE / VERS 
                                                            ANT # / TYPE        
  4076128.1056   519876.3642  4878092.5196                  APPROX POSITION XYZ 
        0.0000        0.0000        0.0000                  ANTENNA: DELTA H/E/N 
D    6 C5D L5D D5D C7D L7D D7D                              SYS / # / OBS TYPES  
    30.000                                                  INTERVAL            
  2019     1    10     9    51   54.0000000     GPS         TIME OF FIRST OBS   
  2019     1    10     9    54   44.0000000     GPS         TIME OF LAST OBS   
                                                            END OF HEADER       
> 2019  1 10  9 51 54.0000000  0 8                     
D3704   1133898.130    18987019.963       49607.686     1133898.032    26740687.651       69868.102
D3903   1238356.891    20736172.932      102696.261     1238356.804    29204137.966      144635.739
D4003    893827.305    14967054.011       87832.021      893827.358    21079103.390      123699.576
D4103    798382.307    13368836.010       35212.260      798382.240    18828229.865       49588.813
D5627    861317.223    14422682.682       69148.963      861317.274    20312425.405       97386.339
D5727    505354.480     8462115.818       22268.734      505354.337    11917762.952       31362.805
D5826   1213699.490    20323280.461      107105.581     1213699.436    28622638.083      150842.884
D5926   1068266.397    17888023.641       83159.821     1068266.226    25192894.345      117120.730
> 2019  1 10  9 51 54.2000000  0 8                     
D3704   1133305.612    18977098.426       49390.199     1133305.480    26726714.031       69558.635
D3903   1237130.185    20715633.680      102382.044     1237130.144    29175210.818      144190.914
D4003    892778.326    14949487.607       87573.941      892778.303    21054363.475      123338.109
D4103    797961.759    13361793.558       34904.610      797961.790    18818312.102       49158.573
D5627    860491.309    14408852.889       68945.799      860491.276    20292948.137       97100.105
D5727    505088.570     8457662.072       21938.011      505088.367    11911490.391       30896.694
D5826   1212420.351    20301859.345      106872.791     1212420.144    28592469.507      150521.071
D5926   1067273.185    17871391.677       83069.032     1067273.030    25169470.199      116990.996
> 2019  1 10  9 51 54.4000000  0 8                     
D3704   1132715.696    18967220.386       49254.794     1132715.537    26712802.304       69368.518
D3903   1235907.434    20695157.271      102414.072     1235907.453    29146372.635      144235.451
D4003    891732.385    14931972.819       87438.459      891732.325    21029695.854      123144.638
D4103    797544.890    13354812.636       34685.320      797544.779    18808480.388       48850.134
D5627    859667.972    14395063.730       68803.589      859667.990    20273528.116       96898.452
D5727    504826.545     8453274.470       21631.547      504826.339    11905311.052       30468.305
D5826   1211143.670    20280484.786      106978.352     1211143.709    28562365.292      150661.367
D5926   1066281.049    17854777.871       82837.588     1066280.982    25146071.999      116666.175
> 2019  1 10  9 51 54.6000000  0 8                     
D3704   1132127.327    18957369.427       49184.038     1132127.407    26698928.601       69268.672
D3903   1234684.355    20674674.456      102411.572     1234684.166    29117525.545      144232.667
D4003    890687.930    14914485.127       87511.881      890687.688    21005066.926      123249.026
D4103    797130.638    13347875.572       34550.329      797130.566    18798710.361       48659.594
D5627    858846.146    14381303.012       68681.391      858846.206    20254148.426       96730.926
D5727    504567.978     8448948.160       21311.512      504567.974    11899217.391       30009.860
D5826   1209865.937    20259089.116      106871.547     1209865.850    28532233.019      150517.058
D5926   1065291.585    17838210.353       82832.450     1065291.414    25122738.764      116656.143
> 2019  1 10  9 51 54.8000000  0 8                     
D3704   1131539.991    18947532.620       49070.609     1131539.635    26685074.866       69107.080
D3903   1233461.118    20654192.142      102377.091     1233460.915    29088679.012      144185.192
D4003    889642.773    14896982.751       87440.716      889642.645    20980417.121      123145.253
D4103    796717.838    13340965.506       34453.593      796717.847    18788978.442       48523.122
D5627    858025.923    14367566.734       68535.652      858025.711    20234802.241       96524.053
D5727    504313.646     8444685.858       21007.374      504313.497    11893215.419       29587.682
D5826   1208589.516    20237714.807      106887.604     1208589.348    28502129.608      150536.253
D5926   1064302.301    17821643.863       82686.712     1064302.211    25099407.536      116452.761
> 2019  1 10  9 51 55.0000000  0 8                     
D3704   1130953.894    18937718.498       48918.421     1130953.749    26671253.450       68898.664
D3903   1232238.321    20633716.724      102341.141     1232238.006    29059841.974      144131.613
D4003    888598.417    14879494.608       87329.731      888598.420    20955788.070      122994.838
D4103    796306.550    13334074.788       34250.957      796306.381    18779273.818       48237.068
D5627    857207.275    14353859.603       68477.204      857207.235    20215497.430       96440.414
D5727    504062.618     8440484.383       20723.352      504062.681    11887297.883       29188.711
D5826   1207312.893    20216337.286      106801.961     1207312.757    28472022.357      150413.483
D5926   1063314.714    17805106.521       82653.528     1063314.530    25076116.984      116408.040
> 2019  1 10  9 51 55.2000000  0 8                     
D3704   1130369.597    18927934.814       48841.386     1130369.490    26657473.717       68784.487
D3903   1231015.975    20613248.496      102297.901     1231015.764    29031015.651      144076.195
D4003    887555.322    14862028.662       87287.048      887555.123    20931189.103      122932.643
D4103    795897.373    13327224.596       34129.588      795897.253    18769626.404       48065.412
D5627    856389.419    14340164.162       68307.315      856389.240    20196209.347       96198.103
D5727    503815.107     8436339.713       20391.797      503815.061    11881460.141       28718.020
D5826   1206037.364    20194976.894      106865.274     1206037.116    28441939.660      150506.480
D5926   1062327.423    17788575.815       82643.599     1062327.365    25052835.376      116393.857
> 2019  1 10  9 51 55.4000000  0 8                     
D3704   1129786.418    18918166.536       48736.431     1129786.015    26643716.820       68637.861
D3903   1229794.013    20592788.915      102284.065     1229794.018    29002200.412      144052.263
D4003    886512.749    14844571.252       87201.042      886512.629    20906602.574      122809.020
D4103    795489.772    13320398.679       33829.468      795489.619    18760013.322       47646.245
D5627    855573.497    14326502.699       68241.800      855573.455    20176969.727       96110.397
D5727    503571.590     8432261.353       20096.910      503571.520    11875716.537       28303.849
D5826   1204760.866    20173603.839      106768.423     1204760.594    28411838.364      150366.722
D5926   1061340.531    17772047.095       82460.940     1061340.257    25029556.604      116134.459
> 2019  1 10  9 51 55.6000000  0 8                     
D3704   1129204.140    18908419.250       48616.090     1129203.852    26629989.248       68470.193
D3903   1228572.577    20572332.102      102316.165     1228572.264    28973389.960      144100.258
D4003    885471.236    14827131.044       87106.422      885471.122    20882040.770      122678.125
D4103    795085.718    13313632.785       33759.226      795085.611    18750484.073       47544.763
D5627    854758.419    14312854.339       68061.016      854758.322    20157747.647       95857.273
D5727    503331.654     8428241.971       19790.480      503331.487    11870055.767       27869.417
D5826   1203485.750    20152250.154      106797.485     1203485.451    28381765.020      150412.725
D5926   1060355.524    17755554.907       82400.187     1060355.304    25006329.713      116050.493
> 2019  1 10  9 51 55.8000000  0 8                     
D3704   1128623.392    18898696.032       48450.109     1128623.336    26616295.209       68238.117
D3903   1227350.242    20551868.869      102314.117     1227350.193    28944569.908      144093.723
D4003    884430.838    14809709.759       87152.219      884430.719    20857505.145      122744.133
D4103    794682.494    13306880.940       33587.605      794682.399    18740975.120       47303.730
D5627    853945.509    14299242.136       67891.083      853945.404    20138576.193       95615.653
D5727    503095.244     8424283.875       19455.413      503094.951    11864481.883       27400.969
D5826   1202210.075    20130890.657      106801.514     1202209.795    28351682.475      150415.107
D5926   1059371.292    17739074.870       82310.989     1059371.021    24983119.614      115922.145
> 2019  1 10  9 51 56.0000000  0 8                     
D3704   1128044.730    18889006.010       48451.357     1128044.590    26602647.586       68233.364
D3903   1226128.262    20531406.046      102226.668     1226128.133    28915751.163      143974.744
D4003    883389.958    14792279.316       86978.740      883389.846    20832956.318      122497.099
D4103    794281.278    13300163.419       33384.291      794281.140    18731514.374       47013.759
D5627    853134.688    14285663.919       67883.333      853134.497    20119453.062       95604.895
D5727    502862.802     8420392.793       19193.759      502862.589    11859001.690       27032.996
D5826   1200934.451    20109530.355      106707.092     1200934.303    28321599.454      150282.987
D5926   1058388.163    17722612.672       82247.508     1058388.081    24959935.185      115837.566
> 2019  1 10  9 51 56.2000000  0 8                     
D3704   1127466.209    18879315.739       48232.721     1127466.108    26589000.913       67930.254
D3903   1224907.306    20510960.712      102247.225     1224907.178    28886956.215      143998.853
D4003    882351.064    14774883.568       86909.231      882350.918    20808456.899      122401.906
D4103    793882.591    13293486.561       33262.233      793882.468    18722111.622       46850.058
D5627    852323.870    14272087.253       67675.204      852323.919    20100332.083       95310.819
D5727    502633.593     8416554.041       18843.038      502633.439    11853595.090       26537.082
D5826   1199659.986    20088188.936      106665.662     1199659.752    28291542.856      150222.847
D5926   1057405.847    17706163.171       82112.675     1057405.740    24936767.672      115642.377
> 2019  1 10  9 51 56.4000000  0 8                     
D3704   1126890.094    18869669.195       48122.775     1126889.825    26575414.863       67774.977
D3903   1223686.213    20490511.267      102142.308     1223685.924    28858156.444      143853.211
D4003    881312.940    14757501.721       86912.333      881312.827    20783976.517      122401.392
D4103    793485.255    13286834.114       33064.169      793485.085    18712741.611       46565.305
D5627    851515.744    14258552.212       67568.579      851515.494    20081269.920       95162.148
D5727    502408.569     8412785.433       18578.749      502408.379    11848287.674       26169.571
D5826   1198385.856    20066855.804      106681.122     1198385.671    28261498.287      150246.988
D5926   1056425.191    17689740.635       82115.450     1056425.038    24913639.196      115648.928
> 2019  1 10  9 51 56.6000000  0 8                     
D3704   1126315.165    18860044.640       48046.241     1126315.025    26561859.867       67667.702
D3903   1222466.191    20470082.806      102300.762     1222466.055    28829385.802      144079.856
D4003    880275.012    14740119.255       86814.929      880274.798    20759496.239      122266.925
D4103    793090.543    13280221.280       32875.748      793090.272    18703428.550       46299.032
D5627    850708.501    14245038.496       67454.342      850708.417    20062237.490       95001.288
D5727    502186.661     8409069.684       18241.334      502186.554    11843053.760       25688.646
D5826   1197111.715    20045519.580      106656.594     1197111.477    28231448.889      150210.900
D5926   1055444.383    17673317.545       81997.976     1055444.185    24890509.411      115486.444
> 2019  1 10  9 51 56.8000000  0 8                     
D3704   1125741.385    18850435.392       48022.484     1125741.094    26548326.327       67633.466
D3903   1221244.225    20449622.653      102143.729     1221243.994    28800569.830      143854.773
D4003    879238.072    14722756.269       86715.304      879237.876    20735042.854      122126.698
D4103    792697.636    13273646.131       32764.025      792697.692    18694168.743       46146.611
D5627    849902.729    14231547.628       67320.727      849902.655    20043237.232       94812.256
D5727    501968.740     8405421.417       17890.856      501968.545    11837916.031       25195.552
D5826   1195837.918    20024188.261      106609.847     1195837.635    28201406.709      150145.877
D5926   1054464.909    17656917.950       81870.989     1054464.828    24867412.122      115300.750
> 2019  1 10  9 51 57.0000000  0 8                     
D3704   1125167.878    18840830.895       47797.677     1125167.600    26534799.633       67315.474
D3903   1220024.266    20429193.908      102187.138     1220024.052    28771798.876      143917.007
D4003    878202.477    14705413.208       86669.039      878202.151    20710617.514      122063.016
D4103    792306.214    13267093.326       32554.927      792306.252    18684939.421       45848.233
D5627    849098.770    14218083.482       67197.578      849098.640    20024274.781       94636.830
D5727    501755.125     8401843.245       17705.641      501754.982    11832876.920       24939.218
D5826   1194564.455    20002866.291      106626.310     1194564.340    28171377.534      150166.721
D5926   1053486.981    17640543.752       81856.779     1053486.878    24844351.972      115282.344
> 2019  1 10  9 51 57.2000000  0 8                     
D3704   1124596.913    18831271.360       47688.861     1124596.833    26521336.539       67164.305
D3903   1218803.697    20408756.480      102076.702     1218803.512    28743015.474      143762.231
D4003    877167.186    14688079.400       86620.886      877167.009    20686204.911      121995.051
D4103    791917.517    13260582.340       32416.881      791917.482    18675769.775       45654.672
D5627    848296.306    14204643.967       67020.671      848296.217    20005347.415       94391.094
D5727    501543.481     8398302.117       17252.610      501543.477    11827889.077       24293.617
D5826   1193291.081    19981541.029      106563.798     1193290.853    28141344.190      150081.732
D5926   1052509.566    17624172.397       81699.021     1052509.313    24821295.503      115063.352
> 2019  1 10  9 51 57.4000000  0 8                     
D3704   1124027.164    18821733.587       47612.300     1124027.125    26507903.678       67054.170
D3903   1217584.626    20388341.139      102117.823     1217584.286    28714263.028      143819.140
D4003    876132.584    14670755.223       86531.859      876132.380    20661805.901      121868.501
D4103    791530.283    13254098.964       32260.037      791530.346    18666638.840       45434.154
D5627    847495.622    14191239.833       66964.099      847495.614    19986469.196       94311.322
D5727    501337.488     8394851.595       17105.268      501337.277    11823030.353       24094.866
D5826   1192018.097    19960228.270      106583.228     1192018.061    28111327.843      150109.209
D5926   1051533.508    17607832.592       81667.203     1051533.366    24798282.833      115018.691
> 2019  1 10  9 51 57.6000000  0 8                     
D3704   1123458.500    18812211.127       47496.230     1123458.540    26494492.844       66894.912
D3903   1216364.872    20367917.575      102081.644     1216364.751    28685499.200      143768.304
D4003    875098.946    14653448.851       86486.473      875098.821    20637432.201      121803.818
D4103    791145.076    13247646.957       32061.540      791144.940    18657552.010       45155.627
D5627    846695.795    14177847.013       66762.538      846695.756    19967606.932       94023.463
D5727    501133.206     8391430.542       16673.410      501133.219    11818211.380       23482.232
D5826   1190745.174    19938911.624      106505.396     1190744.983    28081306.001      149998.632
D5926   1050558.078    17591499.152       81576.488     1050557.985    24775279.094      114889.280
> 2019  1 10  9 51 57.8000000  0 8                     
D3704   1122891.349    18802711.881       47333.967     1122891.059    26481113.861       66662.956
D3903   1215145.600    20347501.246      102038.856     1215145.457    28656745.539      143708.428
D4003    874065.893    14636151.556       86374.235      874065.859    20613071.437      121644.918
D4103    790762.020    13241234.649       31887.739      790761.919    18648520.884       44908.133
D5627    845898.463    14164494.505       66717.040      845898.271    19948802.239       93962.890
D5727    500934.041     8388095.860       16374.409      500934.065    11813514.934       23059.195
D5826   1189473.174    19917610.545      106489.189     1189472.908    28051306.275      149973.954
D5926   1049583.710    17575183.854       81455.795     1049583.620    24752301.238      114721.714
> 2019  1 10  9 51 58.0000000  0 8                     
D3704   1122326.022    18793245.088       47288.139     1122325.852    26467781.270       66600.407
D3903   1213926.870    20327093.475      102104.755     1213926.690    28628003.854      143799.946
D4003    873034.296    14618876.709       86331.376      873034.250    20588742.454      121591.456
D4103    790381.251    13234857.101       31773.176      790381.163    18639539.258       44748.762
D5627    845101.642    14151151.097       66501.484      845101.457    19930009.661       93659.470
D5727    500738.513     8384820.978       16078.885      500738.388    11808903.095       22647.617
D5826   1188201.137    19896312.707      106518.340     1188201.044    28021311.484      150019.188
D5926   1048610.785    17558892.695       81329.717     1048610.700    24729356.896      114537.810
> 2019  1 10  9 51 58.2000000  0 8                     
D3704   1121761.054    18783787.460       47121.779     1121760.772    26454461.189       66361.548
D3903   1212707.206    20306672.524      102003.359     1212707.220    28599243.865      143656.708
D4003    872003.223    14601610.434       86234.926      872003.047    20564424.162      121444.155
D4103    790001.749    13228502.466       31552.321      790001.597    18630589.505       44436.657
D5627    844307.285    14137850.800       66482.596      844307.159    19911277.767       93630.129
D5727    500546.357     8381605.201       15806.491      500546.280    11804373.571       22260.668
D5826   1186928.969    19875009.039      106458.753     1186928.845    27991307.647      149933.630
D5926   1047639.507    17542626.752       81333.301     1047639.461    24706449.333      114550.051
> 2019  1 10  9 51 58.4000000  0 8                     
D3704   1121198.258    18774363.104       47086.385     1121198.090    26441188.879       66316.894
D3903   1211488.893    20286271.852      101999.946     1211488.952    28570512.523      143653.397
D4003    870973.306    14584363.449       86227.499      870973.231    20540135.331      121439.438
D4103    789624.820    13222192.002       31330.053      789624.834    18621702.174       44124.526
D5627    843513.310    14124554.281       66285.217      843513.238    19892551.741       93352.025
D5727    500357.615     8378443.903       15463.787      500357.617    11799921.438       21774.641
D5826   1185657.244    19853717.289      106374.478     1185657.310    27961320.921      149813.077
D5926   1046668.094    17526360.092       81199.027     1046667.875    24683539.323      114358.826
> 2019  1 10  9 51 58.6000000  0 8                     
D3704   1120636.038    18764945.827       46829.509     1120635.826    26427925.500       65952.831
D3903   1210270.724    20265871.863      101979.327     1210270.515    28541781.844      143627.058
D4003    869943.485    14567117.949       86086.624      869943.502    20515847.444      121243.258
D4103    789250.709    13215925.991       31202.967      789250.643    18612877.269       43946.009
D5627    842721.568    14111297.238       66159.970      842721.485    19873881.336       93179.212
D5727    500172.977     8375351.145       15088.399      500172.828    11795566.509       21252.047
D5826   1184386.935    19832442.393      106380.532     1184386.624    27931358.305      149825.198
D5926   1045698.128    17510120.286       81152.044     1045698.053    24660667.558      114288.761
> 2019  1 10  9 51 58.8000000  0 8                     
D3704   1120076.522    18755579.925       46795.732     1120076.382    26414734.934       65904.771
D3903   1209052.645    20245475.997      102018.354     1209052.490    28513056.432      143679.549
D4003    868915.288    14549900.625       86044.146      868915.134    20491598.792      121185.853
D4103    788877.973    13209685.398       31094.996      788877.960    18604088.067       43791.650
D5627    841931.418    14098065.244       66019.583      841931.227    19855245.494       92979.964
D5727    499992.739     8372333.466       14859.296      499992.551    11791316.100       20928.509
D5826   1183116.242    19811166.287      106428.906     1183116.110    27901393.266      149887.173
D5926   1044728.882    17493889.878       81004.139     1044728.767    24637809.806      114082.733
> 2019  1 10  9 51 59.0000000  0 8                     
D3704   1119517.582    18746220.779       46709.723     1119517.422    26401553.980       65783.683
D3903   1207834.158    20225072.327      101934.280     1207834.043    28484320.523      143559.227
D4003    867887.377    14532691.795       85929.652      867887.339    20467361.622      121020.147
D4103    788506.648    13203466.399       30883.172      788506.460    18595329.737       43496.281
D5627    841142.756    14084861.327       65884.245      841142.623    19836649.501       92789.844
D5727    499815.311     8369361.606       14508.949      499815.202    11787130.398       20433.380
D5826   1181845.094    19789880.505      106342.070     1181844.838    27871415.831      149770.678
D5926   1043761.414    17477689.050       80983.967     1043761.208    24614993.259      114056.113
> 2019  1 10  9 51 59.2000000  0 8                     
D3704   1118959.753    18736878.835       46568.705     1118959.497    26388397.243       65587.168
D3903   1206616.745    20204685.470      101891.492     1206616.690    28455608.677      143497.694
D4003    866861.148    14515505.865       85923.684      866860.940    20443157.592      121011.768
D4103    788137.763    13197289.764       30663.845      788137.492    18586630.481       43184.287
D5627    840355.983    14071684.478       65798.502      840355.683    19818091.532       92666.543
D5727    499641.788     8366459.817       14270.329      499641.855    11783043.722       20097.464
D5826   1180574.891    19768612.091      106361.887     1180574.746    27841461.696      149796.774
D5926   1042794.205    17461492.256       80827.506     1042794.097    24592182.037      113839.773
> 2019  1 10  9 51 59.4000000  0 8                     
D3704   1118403.582    18727565.093       46446.078     1118403.383    26375279.810       65409.887
D3903   1205399.738    20184307.172      101840.066     1205399.446    28426909.138      143431.568
D4003    865834.865    14498321.128       85836.386      865834.581    20418955.239      120887.686
D4103    787771.331    13191156.995       30541.727      787771.317    18577993.623       43014.731
D5627    839570.056    14058524.778       65624.064      839569.821    19799558.224       92425.089
D5727    499471.555     8363605.751       13887.961      499471.374    11779024.230       19556.955
D5826   1179304.625    19747339.714      106289.903     1179304.451    27811502.341      149695.614
D5926   1041828.599    17445326.755       80853.831     1041828.442    24569414.082      113867.056
> 2019  1 10  9 51 59.6000000  0 8                     
D3704   1117848.851    18718275.878       46326.513     1117848.681    26362197.832       65245.348
D3903   1204183.458    20163939.159      101936.808     1204183.140    28398222.825      143561.771
D4003    864809.743    14481153.851       85774.594      864809.477    20394777.701      120802.897
D4103    787406.602    13185048.650       30385.980      787406.621    18569390.677       42794.106
D5627    838786.166    14045399.965       65574.820      838786.071    19781073.206       92353.581
D5727    499305.568     8360828.159       13559.509      499305.644    11775112.839       19100.800
D5826   1178034.987    19726081.734      106246.555     1178034.738    27781563.218      149635.223
D5926   1040863.043    17429155.989       80641.919     1040862.885    24546640.671      113575.780
> 2019  1 10  9 51 59.8000000  0 8                     
D3704   1117295.540    18709010.575       46204.688     1117295.417    26349148.763       65072.465
D3903   1202965.830    20143551.797      101862.044     1202965.667    28369510.471      143460.352
D4003    863785.211    14463998.932       85698.499      863784.936    20370617.122      120692.170
D4103    787043.808    13178971.454       30156.800      787043.585    18560831.856       42470.030
D5627    838002.896    14032285.001       65322.040      838002.818    19762602.490       91994.375
D5727    499143.589     8358116.257       13286.204      499143.635    11771292.678       18711.201
D5826   1176765.980    19704832.423      106223.692     1176765.746    27751636.173      149597.891
D5926   1039899.837    17413027.605       80628.971     1039899.678    24523925.515      113553.602
> 2019  1 10  9 52  0.0000000  0 8                     
D3704   1116743.607    18699769.638       46101.203     1116743.461    26336134.270       64927.530
D3903   1201749.169    20123179.389      101789.642     1201749.002    28340818.400      143358.993
D4003    862761.567    14446859.232       85660.711      862761.457    20346478.688      120646.044
D4103    786683.557    13172940.094       29995.530      786683.417    18552337.850       42249.775
D5627    837222.777    14019220.593       65209.285      837222.676    19744203.615       91841.353
D5727    498984.842     8355459.016       12939.257      498984.997    11767550.438       18221.328
D5826   1175497.472    19683587.684      106248.524     1175497.236    27721716.595      149637.988
D5926   1038936.854    17396901.811       80470.859     1038936.554    24501214.795      113334.064
> 2019  1 10  9 52  0.2000000  0 8                     
D3704   1116193.080    18690549.397       45997.011     1116192.850    26323148.764       64778.654
D3903   1200533.396    20102821.460      101779.350     1200533.272    28312146.602      143342.411
D4003    861738.377    14429727.090       85460.125      861738.520    20322349.479      120357.880
D4103    786325.203    13166940.988       29892.212      786325.162    18543887.895       42097.874
D5627    836443.830    14006178.736       65155.655      836443.751    19725835.344       91761.665
D5727    498830.443     8352871.165       12581.770      498830.341    11763906.173       17720.916
D5826   1174228.223    19662337.979      106202.673     1174228.084    27691788.998      149574.032
D5926   1037975.608    17380807.639       80466.065     1037975.472    24478547.982      113323.836
> 2019  1 10  9 52  0.4000000  0 8                     
D3704   1115643.821    18681349.995       45845.870     1115643.547    26310193.033       64571.946
D3903   1199317.720    20082465.590      101833.368     1199317.680    28283478.119      143417.652
D4003    860717.724    14412635.065       85520.449      860717.500    20298277.903      120442.173
D4103    785968.334    13160962.545       29670.841      785968.029    18535468.320       41786.546
D5627    835665.738    13993147.605       64961.049      835665.494    19707483.011       91489.951
D5727    498680.203     8350354.811       12421.669      498680.149    11760361.990       17493.252
D5826   1172959.858    19641097.445      106130.030     1172959.775    27661874.191      149467.941
D5926   1037014.554    17364714.426       80263.955     1037014.517    24455883.215      113038.735
> 2019  1 10  9 52  0.6000000  0 8                     
D3704   1115096.098    18672180.821       45808.619     1115095.950    26297278.644       64514.721
D3903   1198101.467    20062098.917      101785.867     1198101.269    28254794.589      143351.305
D4003    859696.343    14395530.975       85358.745      859696.161    20274189.469      120219.797
D4103    785613.952    13155028.377       29477.956      785613.756    18527111.011       41514.664
D5627    834889.852    13980155.395       64833.632      834889.518    19689185.021       91309.549
D5727    498531.936     8347870.477       11988.825      498531.764    11756863.339       16885.050
D5826   1171692.191    19619871.439      106193.302     1171692.110    27631980.603      149563.136
D5926   1036055.904    17348661.635       80242.169     1036055.888    24433275.468      113012.215
> 2019  1 10  9 52  0.8000000  0 8                     
D3704   1114548.968    18663019.097       45550.360     1114548.857    26284375.700       64152.844
D3903   1196885.742    20041741.743      101731.682     1196885.747    28226124.328      143275.363
D4003    858676.634    14378459.226       85338.861      858676.588    20250145.509      120184.078
D4103    785261.701    13149132.786       29343.164      785261.735    18518808.078       41326.919
D5627    834115.441    13967188.668       64693.852      834115.237    19670923.111       91114.362
D5727    498388.702     8345472.712       11739.736      498388.609    11753486.329       16533.658
D5826   1170423.817    19598632.778      106059.033     1170423.701    27602067.976      149366.860
D5926   1035097.732    17332613.201       80153.321     1035097.428    24410673.025      112884.384
> 2019  1 10  9 52  1.0000000  0 8                     
D3704   1114004.827    18653909.025       45577.395     1114004.770    26271545.131       64186.970
D3903   1195670.595    20021395.407      101737.123     1195670.527    28197469.255      143283.338
D4003    857657.529    14361391.454       85214.832      857657.331    20226108.693      120015.830
D4103    784911.369    13143264.153       29179.628      784911.208    18510542.694       41096.295
D5627    833342.710    13954249.898       64588.861      833342.632    19652700.239       90965.297
D5727    498248.328     8343124.765       11411.619      498248.235    11750179.597       16072.250
D5826   1169156.890    19577420.972      106096.553     1169156.923    27572194.604      149422.410
D5926   1034140.279    17316582.537       80061.741     1034140.068    24388096.148      112758.101
> 2019  1 10  9 52  1.2000000  0 8                     
D3704   1113460.480    18644793.546       45423.962     1113460.315    26258707.737       63976.628
D3903   1194455.634    20001047.982      101698.732     1194455.302    28168812.588      143232.969
D4003    856639.582    14344348.488       85218.447      856639.589    20202105.527      120017.314
D4103    784562.872    13137428.227       28991.421      784562.580    18502323.435       40827.644
D5627    832571.316    13941332.126       64458.126      832571.106    19634507.179       90779.695
D5727    498112.117     8340842.441       10984.586      498112.125    11746965.147       15469.381
D5826   1167889.791    19556201.661      106103.159     1167889.833    27542310.122      149431.632
D5926   1033184.054    17300570.189       79992.680     1033183.749    24365544.528      112657.565
> 2019  1 10  9 52  1.4000000  0 8                     
D3704   1112917.983    18635708.754       45267.181     1112917.850    26245912.411       63751.526
D3903   1193240.858    19980708.236      101643.859     1193240.664    28140165.994      143150.335
D4003    855621.763    14327304.799       85101.344      855621.614    20178102.065      119855.024
D4103    784216.578    13131629.943       28751.354      784216.402    18494157.907       40494.454
D5627    831801.375    13928440.501       64296.714      831801.289    19616351.240       90552.005
D5727    497980.888     8338645.524       10789.371      497980.765    11743871.271       15198.283
D5826   1166622.435    19534981.029      106068.334     1166622.332    27512423.795      149384.454
D5926   1032228.520    17284571.653       79873.880     1032228.270    24343013.014      112492.237
> 2019  1 10  9 52  1.6000000  0 8                     
D3704   1112377.413    18626655.318       45168.060     1112377.225    26233162.106       63613.361
D3903   1192026.812    19960379.464      101709.229     1192026.698    28111535.927      143243.300
D4003    854605.323    14310284.530       85035.690      854605.295    20154131.060      119762.060
D4103    783873.169    13125879.672       28624.508      783872.990    18486059.016       40313.255
D5627    831033.543    13915581.158       64214.130      831033.258    19598240.839       90436.874
D5727    497852.013     8336487.649       10414.095      497851.890    11740831.615       14665.136
D5826   1165355.723    19513767.363      105984.555     1165355.607    27482546.905      149264.336
D5926   1031274.520    17268596.877       79826.660     1031274.554    24320514.567      112424.144
> 2019  1 10  9 52  1.8000000  0 8                     
D3704   1111837.812    18617621.706       45040.207     1111837.625    26220439.434       63432.730
D3903   1190812.060    19940037.618      101617.128     1190811.785    28082887.267      143112.234
D4003    853589.712    14293277.392       84961.164      853589.601    20130178.648      119655.707
D4103    783531.007    13120154.771       28466.843      783531.042    18477996.365       40090.393
D5627    830266.606    13902738.332       64032.972      830266.389    19580153.465       90182.771
D5727    497727.710     8334404.830       10133.996      497727.661    11737898.587       14272.382
D5826   1164089.944    19492570.452      105973.949     1164089.656    27452694.037      149249.197
D5926   1030321.215    17252631.545       79647.526     1030321.034    24298029.738      112175.883
> 2019  1 10  9 52  2.0000000  0 8                     
D3704   1111299.830    18608613.664       44916.641     1111299.821    26207752.888       63259.694
D3903   1189598.401    19919714.193      101619.455     1189598.214    28054264.820      143119.007
D4003    852574.903    14276285.159       84877.869      852574.817    20106247.506      119541.018
D4103    783191.318    13114461.402       28328.002      783191.038    18469978.286       39897.641
D5627    829501.603    13889931.737       63858.194      829501.488    19562116.910       89934.810
D5727    497606.609     8332378.031        9814.500      497606.609    11735044.111       13821.283
D5826   1162824.112    19471375.662      105923.044     1162823.997    27422844.198      149184.312
D5926   1029369.741    17236702.040       79614.879     1029369.636    24275594.562      112125.825
> 2019  1 10  9 52  2.2000000  0 8                     
D3704   1110763.310    18599630.336       44806.879     1110763.078    26195100.949       63102.957
D3903   1188384.424    19899390.302      101501.545     1188384.457    28025641.019      142950.638
D4003    851561.085    14259309.585       84835.646      851561.036    20082339.303      119477.605
D4103    782852.827    13108795.802       28133.117      782852.803    18461998.758       39624.217
D5627    828738.826    13877160.099       63805.892      828738.823    19544129.948       89861.905
D5727    497489.286     8330415.131        9494.703      497489.214    11732279.854       13373.082
D5826   1161558.728    19450191.053      105952.579     1161558.730    27393007.336      149214.355
D5926   1028418.657    17220779.064       79506.057     1028418.675    24253169.397      111973.720
> 2019  1 10  9 52  2.4000000  0 8                     
D3704   1110228.224    18590668.960       44701.033     1110227.989    26182480.358       62954.814
D3903   1187172.271    19879089.993      101627.370     1187172.143    27997050.891      143128.535
D4003    850547.911    14242342.456       84664.795      850547.642    20058443.782      119238.557
D4103    782516.884    13103169.178       27924.658      782516.742    18454073.915       39326.255
D5627    827976.847    13864398.920       63637.209      827976.860    19526157.567       89625.057
D5727    497376.016     8328516.191        9237.205      497375.797    11729605.238       13008.520
D5826   1160293.522    19429000.537      105900.444     1160293.341    27363164.465      149149.871
D5926   1027469.147    17204877.852       79427.845     1027469.186    24230774.653      111864.842
> 2019  1 10  9 52  2.6000000  0 8                     
D3704   1109694.247    18581728.754       44640.025     1109694.013    26169889.395       62871.335
D3903   1185958.418    19858764.519      101518.268     1185958.116    27968425.184      142975.834
D4003    849536.738    14225409.497       84688.060      849536.446    20034596.070      119271.352
D4103    782183.309    13097584.247       27761.942      782183.173    18446208.664       39093.924
D5627    827216.677    13851671.478       63441.394      827216.648    19508232.556       89348.249
D5727    497265.554     8326668.750        8811.785      497265.571    11727003.534       12410.774
D5826   1159028.572    19407820.448      105885.253     1159028.291    27333334.490      149124.890
D5926   1026520.423    17188992.283       79285.125     1026520.420    24208401.684      111663.716
> 2019  1 10  9 52  2.8000000  0 8                     
D3704   1109161.069    18572800.749       44407.359     1109160.971    26157315.128       62542.132
D3903   1184745.968    19838460.865      101566.990     1184745.607    27939830.017      143043.138
D4003    848525.154    14208471.885       84605.757      848525.124    20010741.800      119157.657
D4103    781851.816    13092031.858       27561.421      781851.696    18438389.879       38822.126
D5627    826459.129    13838983.200       63382.474      826458.940    19490362.906       89265.423
D5727    497160.367     8324906.393        8513.095      497160.353    11724521.379       11989.021
D5826   1157763.867    19386643.398      105819.898     1157763.654    27303509.513      149032.758
D5926   1025573.516    17173135.258       79260.337     1025573.338    24186068.941      111624.755
> 2019  1 10  9 52  3.0000000  0 8                     
D3704   1108630.668    18563919.277       44343.082     1108630.451    26144806.702       62452.551
D3903   1183532.732    19818147.467      101495.394     1183532.683    27911221.390      142939.994
D4003    847514.684    14191550.734       84519.408      847514.596    19986910.269      119034.568
D4103    781522.619    13086519.574       27433.982      781522.442    18430625.454       38636.632
D5627    825702.117    13826306.705       63152.229      825701.914    19472509.822       88940.608
D5727    497058.772     8323203.774        8215.283      497058.560    11722123.575       11571.853
D5826   1156500.092    19365479.418      105830.660     1156499.879    27273702.961      149047.670
D5926   1024626.923    17157283.191       79171.295     1024626.793    24163743.990      111502.133
> 2019  1 10  9 52  3.2000000  0 8                     
D3704   1108101.045    18555050.661       44233.088     1108100.998    26132316.192       62295.070
D3903   1182320.650    19797848.388      101432.732     1182320.337    27882633.391      142856.043
D4003    846505.162    14174646.852       84406.116      846504.908    19963103.355      118873.959
D4103    781194.896    13081032.778       27262.450      781194.806    18422898.127       38394.480
D5627    824947.794    13813676.259       63077.455      824947.642    19454721.700       88836.993
D5727    496960.531     8321560.717        7953.568      496960.589    11719809.204       11199.831
D5826   1155236.025    19344313.286      105804.565     1155235.905    27243893.427      149012.267
D5926   1023681.311    17141448.932       79021.489     1023681.186    24141443.563      111292.754
> 2019  1 10  9 52  3.4000000  0 8                     
D3704   1107572.601    18546204.043       44061.201     1107572.605    26119857.178       62053.972
D3903   1181109.082    19777561.842      101491.162     1181108.905    27854062.182      142936.333
D4003    845496.885    14157765.629       84384.991      845496.919    19939328.563      118846.286
D4103    780869.250    13075580.287       27035.687      780869.239    18415219.231       38077.161
D5627    824194.423    13801060.768       63001.524      824194.322    19436954.301       88729.955
D5727    496865.616     8319970.003        7571.766      496865.528    11717569.238       10665.483
D5826   1153972.156    19323152.373      105753.329     1153971.955    27214090.973      148937.025
D5926   1022737.561    17125644.634       78980.357     1022737.222    24119185.012      111232.707
> 2019  1 10  9 52  3.6000000  0 8                     
D3704   1107046.580    18537391.803       44055.497     1107046.410    26107446.383       62048.554
D3903   1179896.823    19757263.609      101380.046     1179896.734    27825474.915      142781.071
D4003    844489.091    14140888.631       84212.539      844488.933    19915559.306      118600.465
D4103    780546.351    13070173.150       26917.107      780546.301    18407603.799       37906.813
D5627    823442.000    13788460.463       62792.177      823441.696    19419208.310       88435.632
D5727    496775.162     8318455.650        7239.285      496775.167    11715436.142       10194.591
D5826   1152709.225    19302001.707      105745.602     1152709.041    27184303.568      148931.989
D5926   1021794.095    17109848.563       78849.829     1021793.911    24096938.471      111048.720
> 2019  1 10  9 52  3.8000000  0 8                     
D3704   1106520.184    18528580.704       43809.530     1106520.001    26095036.672       61698.112
D3903   1178686.087    19736987.600      101471.002     1178685.760    27796918.701      142910.255
D4003    843483.341    14124046.123       84230.067      843483.099    19891839.213      118627.504
D4103    780224.813    13064789.729       26769.167      780224.890    18400022.437       37701.824
D5627    822691.748    13775902.028       62649.285      822691.858    19401521.184       88230.699
D5727    496688.651     8317007.793        6914.698      496688.566    11713397.223        9738.868
D5826   1151446.101    19280852.587      105702.821     1151445.933    27154517.171      148867.001
D5926   1020852.465    17094078.597       78800.379     1020852.238    24074728.727      110978.831
> 2019  1 10  9 52  4.0000000  0 8                     
D3704   1105997.044    18519818.798       43792.977     1105996.808    26082697.050       61675.057
D3903   1177474.076    19716693.400      101331.057     1177473.864    27768336.650      142707.751
D4003    842477.253    14107200.110       84169.904      842477.134    19868113.712      118542.304
D4103    779905.169    13059435.895       26456.526      779905.021    18392482.072       37262.220
D5627    821943.697    13763372.171       62552.024      821943.425    19383875.044       88099.606
D5727    496606.221     8315624.854        6667.901      496605.916    11711449.450        9389.375
D5826   1150183.599    19259712.023      105709.363     1150183.582    27124743.770      148874.178
D5926   1019911.087    17078318.521       78661.975     1019911.023    24052532.961      110785.038
> 2019  1 10  9 52  4.2000000  0 8                     
D3704   1105473.915    18511060.202       43601.859     1105473.760    26070362.039       61409.929
D3903   1176263.621    19696427.188      101381.115     1176263.610    27739795.100      142784.045
D4003    841471.944    14090366.129       83969.666      841471.837    19844405.252      118259.056
D4103    779589.078    13054144.590       26362.642      779588.980    18385029.628       37125.714
D5627    821196.452    13750861.766       62336.253      821196.310    19366255.123       87789.062
D5727    496526.438     8314291.273        6357.631      496526.337    11709571.575        8954.218
D5826   1148921.013    19238570.150      105601.065     1148920.926    27094968.935      148727.504
D5926   1018971.716    17062586.126       78583.455     1018971.474    24030375.953      110677.750
> 2019  1 10  9 52  4.4000000  0 8                     
D3704   1104953.232    18502339.830       43509.658     1104952.978    26058080.053       61275.078
D3903   1175052.885    19676150.965      101355.675     1175052.566    27711238.291      142745.771
D4003    840469.019    14073572.195       83979.836      840468.983    19820753.440      118276.918
D4103    779274.327    13048872.062       26201.949      779274.137    18377604.485       36903.460
D5627    820452.051    13738394.515       62235.231      820451.814    19348697.311       87653.863
D5727    496450.482     8313019.747        5986.169      496450.357    11707780.731        8430.755
D5826   1147659.809    19217449.937      105653.362     1147659.723    27065223.434      148801.323
D5926   1018032.913    17046869.435       78525.431     1018032.812    24008240.403      110589.409
> 2019  1 10  9 52  4.6000000  0 8                     
D3704   1104433.512    18493637.899       43377.631     1104433.377    26045825.037       61095.781
D3903   1173842.253    19655879.830      101261.047     1173842.034    27682689.137      142614.937
D4003    839465.978    14056776.228       83913.936      839465.866    19797098.057      118178.433
D4103    778961.298    13043631.672       25975.212      778961.242    18370223.793       36580.830
D5627    819708.643    13725947.469       62106.597      819708.362    19331166.538       87465.985
D5727    496379.099     8311822.513        5629.133      496378.879    11706094.580        7927.843
D5826   1146397.811    19196319.265      105618.177     1146397.657    27035463.170      148744.476
D5926   1017095.198    17031164.349       78350.639     1017095.019    23986122.522      110347.227
> 2019  1 10  9 52  4.8000000  0 8                     
D3704   1103915.242    18484962.373       43257.189     1103915.142    26033605.881       60919.814
D3903   1172632.599    19635627.621      101313.894     1172632.544    27654166.149      142684.299
D4003    838463.703    14039993.441       83807.337      838463.592    19773462.370      118032.053
D4103    778650.987    13038436.629       25855.967      778650.959    18362907.627       36414.184
D5627    818966.670    13713526.150       61947.088      818966.631    19313673.341       87242.978
D5727    496311.709     8310696.687        5371.680      496311.880    11704509.012        7566.906
D5826   1145136.388    19175195.629      105608.559     1145136.203    27005714.274      148739.717
D5926   1016159.308    17015494.221       78319.320     1016159.101    23964053.076      110302.483
> 2019  1 10  9 52  5.0000000  0 8                     
D3704   1103398.784    18476310.935       43145.968     1103398.684    26021421.918       60765.775
D3903   1171422.718    19615364.842      101253.608     1171422.445    27625629.290      142602.676
D4003    837462.630    14023231.974       83713.578      837462.632    19749855.960      117900.166
D4103    778342.165    13033265.436       25648.757      778342.209    18355624.790       36125.647
D5627    818226.924    13701136.732       61848.778      818226.858    19296224.746       87104.987
D5727    496247.646     8309622.351        5073.513      496247.701    11702995.630        7143.545
D5826   1143874.739    19154073.918      105478.907     1143874.725    26975966.331      148551.753
D5926   1015223.911    16999830.357       78174.173     1015223.766    23941992.579      110097.652
> 2019  1 10  9 52  5.2000000  0 8                     
D3704   1102883.473    18467681.741       42999.342     1102883.158    26009268.763       60559.094
D3903   1170213.138    19595114.121      101246.500     1170212.995    27597108.754      142592.580
D4003    836462.782    14006489.258       83675.003      836462.776    19726275.926      117846.275
D4103    778035.959    13028135.684       25448.741      778035.781    18348399.661       35841.540
D5627    817488.360    13688766.977       61657.881      817488.120    19278803.748       86840.256
D5727    496187.078     8308607.648        4742.458      496187.032    11701566.921        6678.612
D5826   1142615.158    19132978.136      105487.983     1142614.910    26946255.980      148566.272
D5926   1014290.161    16984195.523       78102.402     1014290.178    23919973.049      109996.695
> 2019  1 10  9 52  5.4000000  0 8                     
D3704   1102369.655    18459081.873       42938.529     1102369.641    25997156.944       60470.021
D3903   1169004.031    19574864.821      101261.418     1169004.017    27568590.239      142613.311
D4003    835463.462    13989754.258       83562.261      835463.351    19702706.671      117683.824
D4103    777731.868    13023045.936       25284.826      777731.762    18341231.353       35611.833
D5627    816751.817    13676435.401       61546.727      816751.588    19261435.697       86680.358
D5727    496130.414     8307659.157        4436.095      496130.294    11700231.199        6250.319
D5826   1141355.119    19111880.540      105513.746     1141355.074    26916542.726      148598.767
D5926   1013357.379    16968575.042       77967.493     1013357.183    23897973.710      109805.356
> 2019  1 10  9 52  5.6000000  0 8                     
D3704   1101857.098    18450494.167       42776.499     1101856.885    25985062.940       60248.991
D3903   1167794.440    19554612.537      101168.480     1167794.516    27540067.576      142482.080
D4003    834465.551    13973041.805       83518.991      834465.260    19679169.907      117627.034
D4103    777429.973    13017988.971       25115.783      777429.789    18334108.986       35370.496
D5627    816016.580    13664126.055       61384.594      816016.482    19244099.625       86453.742
D5727    496077.376     8306771.938        4014.486      496077.362    11698981.135        5652.980
D5826   1140094.956    19090777.791      105426.012     1140094.716    26886822.972      148482.884
D5926   1012426.228    16952981.544       77932.286     1012425.979    23876012.639      109756.598
> 2019  1 10  9 52  5.8000000  0 8                     
D3704   1101346.082    18441938.867       42680.393     1101345.965    25973013.142       60107.357
D3903   1166586.145    19534378.841      101162.533     1166586.140    27511571.160      142472.413
D4003    833467.699    13956338.007       83352.061      833467.637    19655644.500      117391.358
D4103    777130.060    13012965.814       24980.481      777129.680    18327034.887       35180.630
D5627    815283.585    13651849.136       61236.950      815283.427    19226808.877       86242.041
D5727    496029.479     8305969.040        3755.392      496029.364    11697850.539        5287.105
D5826   1138835.742    19069692.588      105430.630     1138835.662    26857126.396      148480.739
D5926   1011495.273    16937395.086       77830.510     1011495.192    23854061.319      109615.259
> 2019  1 10  9 52  6.0000000  0 8                     
D3704   1100836.192    18433402.789       42527.722     1100836.198    25960991.671       59897.580
D3903   1165378.043    19514146.334      101143.413     1165377.749    27483076.678      142449.193
D4003    832472.153    13939667.595       83371.152      832472.081    19632166.228      117416.641
D4103    776831.517    13007969.718       24756.985      776831.381    18319998.761       34870.811
D5627    814552.048    13639601.746       61134.151      814551.973    19209560.469       86098.064
D5727    495984.764     8305217.962        3482.953      495984.624    11696793.118        4906.365
D5826   1137576.678    19048606.462      105414.733     1137576.411    26827430.248      148465.324
D5926   1010565.664    16921828.985       77719.078     1010565.580    23832138.267      109459.907
> 2019  1 10  9 52  6.2000000  0 8                     
D3704   1100328.327    18424897.244       42402.430     1100328.156    25949012.155       59714.320
D3903   1164169.946    19493917.652      101127.893     1164169.682    27454586.839      142422.910
D4003    831476.443    13922993.365       83287.588      831476.386    19608682.900      117299.109
D4103    776535.794    13003018.321       24615.938      776535.749    18313024.599       34664.437
D5627    813821.885    13627374.916       60919.226      813821.877    19192340.856       85797.963
D5727    495943.030     8304521.371        3107.713      495942.854    11695811.845        4379.349
D5826   1136317.383    19027523.516      105363.433     1136317.140    26797737.183      148389.092
D5926   1009637.487    16906285.169       77651.491     1009637.195    23810246.286      109359.862
> 2019  1 10  9 52  6.4000000  0 8                     
D3704   1099821.916    18416416.758       42323.265     1099821.730    25937069.291       59607.877
D3903   1162962.064    19473692.073      101108.141     1162961.902    27426102.257      142398.965
D4003    830481.760    13906335.847       83127.856      830481.440    19585223.078      117072.326
D4103    776241.906    12998095.134       24410.655      776241.783    18306091.711       34378.825
D5627    813094.182    13615191.071       60806.107      813094.170    19175181.263       85636.324
D5727    495905.982     8303899.829        2841.670      495905.835    11694935.976        3998.494
D5826   1135058.989    19006450.829      105326.461     1135058.877    26768059.365      148338.198
D5926   1008709.854    16890754.871       77500.227     1008709.772    23788374.314      109149.169
> 2019  1 10  9 52  6.6000000  0 8                     
D3704   1099316.447    18407952.105       42176.055     1099316.226    25925147.715       59402.440
D3903   1161754.401    19453470.445      101012.552     1161754.189    27397622.464      142261.512
D4003    829488.898    13889710.276       83065.350      829488.690    19561808.613      116990.091
D4103    775950.380    12993213.003       24173.337      775950.295    18299215.946       34046.566
D5627    812368.080    13603029.850       60690.766      812367.805    19158053.999       85473.830
D5727    495871.987     8303331.495        2481.278      495871.996    11694136.277        3497.067
D5826   1133800.989    18985385.537      105280.242     1133800.887    26738391.725      148274.653
D5926   1007784.282    16875254.825       77418.782     1007784.017    23766544.480      109032.767
> 2019  1 10  9 52  6.8000000  0 8                     
D3704   1098812.638    18399516.894       42044.036     1098812.394    25913267.227       59213.659
D3903   1160547.864    19433267.935      101085.888     1160547.695    27369170.162      142368.328
D4003    828496.857    13873097.206       83058.969      828496.640    19538410.595      116974.370
D4103    775661.606    12988378.335       24067.203      775661.435    18292406.633       33896.909
D5627    811643.106    13590891.696       60503.305      811642.914    19140959.233       85212.154
D5727    495842.323     8302835.239        2147.724      495842.228    11693436.863        3021.393
D5826   1132543.497    18964329.488      105265.715     1132543.381    26708736.794      148251.584
D5926   1006859.653    16859771.069       77335.042     1006859.375    23744737.926      108916.369
> 2019  1 10  9 52  7.0000000  0 8                     
D3704   1098310.400    18391108.087       41954.407     1098310.281    25901424.496       59085.285
D3903   1159340.468    19413050.757      101063.005     1159340.511    27340696.496      142333.750
D4003    827504.552    13856485.412       82891.206      827504.459    19515015.721      116743.011
D4103    775374.288    12983564.895       23848.565      775373.880    18285627.252       33587.940
D5627    810920.488    13578791.035       60376.353      810920.415    19123916.802       85031.569
D5727    495816.820     8302405.694        1864.000      495816.593    11692832.585        2627.675
D5826   1131286.149    18943276.345      105265.961     1131286.094    26679086.478      148255.732
D5926   1005935.952    16844304.061       77224.785     1005935.752    23722954.652      108762.311
> 2019  1 10  9 52  7.2000000  0 8                     
D3704   1097809.531    18382717.206       41813.963     1097809.312    25889607.439       58887.150
D3903   1158133.474    19392838.156      100894.497     1158133.293    27312229.746      142095.571
D4003    826514.632    13839907.171       82893.809      826514.553    19491667.119      116743.098
D4103    775089.371    12978795.182       23714.389      775089.145    18278909.664       33396.258
D5627    810199.471    13566715.765       60282.902      810199.257    19106910.488       84902.027
D5727    495794.347     8302032.894        1503.488      495794.373    11692307.050        2117.920
D5826   1130028.701    18922223.153      105279.705     1130028.599    26649435.331      148273.921
D5926   1005013.513    16828859.104       77133.731     1005013.343    23701202.190      108632.050
> 2019  1 10  9 52  7.4000000  0 8                     
D3704   1097309.882    18374354.413       41696.708     1097309.853    25877830.009       58726.116
D3903   1156928.413    19372659.257      101031.215     1156928.245    27283810.632      142291.242
D4003    825524.645    13823328.409       82747.254      825524.334    19468318.499      116540.878
D4103    774805.969    12974052.304       23499.346      774805.915    18272230.412       33095.364
D5627    809479.272    13554659.184       60015.262      809479.161    19089930.083       84521.744
D5727    495776.468     8301732.197        1241.045      495776.377    11691883.466        1745.707
D5826   1128771.464    18901167.212      105151.632     1128771.323    26619780.547      148087.309
D5926   1004092.075    16813432.357       77055.654     1004091.967    23679475.780      108521.641
> 2019  1 10  9 52  7.6000000  0 8                     
D3704   1096812.132    18366015.071       41534.342     1096811.787    25866084.785       58498.372
D3903   1155721.597    19352453.014      100993.069     1155721.571    27255352.384      142234.102
D4003    824536.099    13806778.958       82686.532      824536.257    19445010.324      116451.633
D4103    774525.321    12969352.435       23312.615      774525.260    18265611.339       32834.205
D5627    808762.437    13542656.132       59973.744      808762.417    19073025.734       84465.235
