     3.02           OBSERVATION DATA    M: Mixed            RINEX VERSION / TYPE
BUPT PLAN 6.0                           20210405 120000 UTC PGM / RUN BY / DATE 
                                                            MARKER NAME         
                                                            MARKER NUMBER       
                                                            MARKER TYPE         
                                                            OBSERVER / AGENCY   
                                                            REC # / TYPE / VERS 
                                                            ANT # / TYPE        
 -2191672.7436  4417449.0579  4099773.9035                  APPROX POSITION XYZ 
        0.0000        0.0000        0.0000                  ANTENNA: DELTA H/E/N
D    6 C5D C7D D5D D7D L5D L7D                              SYS / # / OBS TYPES 
     0.200                                                  INTERVAL
  2019     1    10     9    51   54.0000000     GPS         TIME OF FIRST OBS   
  2019     1    10     9    54   44.0000000     GPS         TIME OF LAST OBS   
                                                            END OF HEADER       
> 2019 01 10  9 51 54.0000000  0  8                     
D3704   1094433.230     1094433.230       52521.143       73969.020    18394767.98906  25906657.30730  
D3903   1195278.673     1195278.673      108015.884      152125.956    20445228.93999  28794457.88959  
D4003    905462.814      905462.814       93156.174      131198.038    14854477.76589  20920631.03681  
D4103    819793.103      819793.103       37474.385       52777.670    13465225.79659  18964055.05616  
D5627    876752.136      876752.136       73239.348      103147.847    14341399.00807  20198028.08506  
D5727    478540.353      478540.353       23851.347       33591.439     8334419.68363  11737999.43491  
D5826   1183899.416     1183899.416      107126.898      150873.938    20022750.21475  28199452.99169  
D5926   1038359.359     1038359.359       80882.116      113911.666    17254412.35404  24300618.59423  
> 2019 01 10  9 51 54.2000000  0  8                     
D3704   1093806.654     1093806.654       52399.000       73796.997    18384276.01945  25891880.76843  
D3903   1193988.693     1193988.693      107994.974      152096.507    20423628.30758  28764036.28180  
D4003    904350.598      904350.598       93086.568      131100.007    14835853.79755  20894401.66309  
D4103    819346.610      819346.610       37290.231       52518.314    13457749.29317  18953525.39894  
D5627    875878.089      875878.089       73120.549      102980.535    14326763.16602  20177415.45493  
D5727    478257.394      478257.394       23528.543       33136.812     8329681.54637  11731326.40096  
D5826   1182620.071     1182620.071      107102.690      150839.845    20001327.69926  28169282.23780  
D5926   1037393.840     1037393.840       80795.384      113789.515    17238244.81703  24277848.77618  
> 2019 01 10  9 51 54.4000000  0  8                     
D3704   1093181.538     1093181.538       52276.644       73624.676    18373808.49934  25877138.66341  
D3903   1192698.962     1192698.962      107973.993      152066.958    20402031.86414  28733620.57359  
D4003    903239.214      903239.214       93016.684      131001.584    14817243.77784  20868191.93413  
D4103    818902.317      818902.317       37105.771       52258.527    13450309.65047  18943047.65514  
D5627    875005.463      875005.463       73001.388      102812.711    14312151.11909  20156836.33704  
D5727    477978.294      477978.294       23205.189       32681.412     8325008.02431  11724744.36889  
D5826   1181341.016     1181341.016      107078.412      150805.653    19979910.03217  28139118.31224  
D5926   1036429.358     1036429.358       80708.399      113667.009    17222094.65083  24255103.42258  
> 2019 01 10  9 51 54.6000000  0  8                     
D3704   1092557.885     1092557.885       52154.075       73452.054    18363365.47096  25862431.05174  
D3903   1191409.482     1191409.482      107952.933      152037.299    20380439.62395  28703210.78513  
D4003    902128.667      902128.667       92946.537      130902.792    14798647.76026  20842001.92530  
D4103    818460.230      818460.230       36921.002       51998.303    13442906.93008  18932621.91149  
D5627    874134.262      874134.262       72881.853      102644.363    14297562.94080  20136290.83495  
D5727    477703.058      477703.058       22881.292       32225.247     8320399.22639  11718253.49214  
D5826   1180062.252     1180062.252      107054.039      150771.326    19958497.23005  28108961.23833  
D5926   1035465.917     1035465.917       80621.171      113544.159    17205961.90509  24232382.60339  
> 2019 01 10  9 51 54.8000000  0  8                     
D3704   1091935.697     1091935.697       52031.299       73279.140    18352946.97656  25847757.99288  
D3903   1190120.254     1190120.254      107931.815      152007.556    20358851.60139  28672806.93662  
D4003    901018.959      901018.959       92876.116      130803.613    14780065.79852  20815831.71225  
D4103    818020.352      818020.352       36735.928       51737.651    13435541.19344  18922248.25451  
D5627    873264.492      873264.492       72761.954      102475.502    14282998.70483  20115779.05242  
D5727    477431.695      477431.695       22556.862       31768.330     8315855.26029  11711853.92237  
D5826   1178783.779     1178783.779      107029.589      150736.891    19937089.30951  28078811.03949  
D5926   1034503.518     1034503.518       80533.693      113420.958    17189846.62960  24209686.38869  
> 2019 01 10  9 51 55.0000000  0  8                     
D3704   1091314.977     1091314.977       51908.310       73105.927    18342553.05834  25833119.54631  
D3903   1188831.279     1188831.279      107910.612      151977.695    20337267.81086  28642409.04836  
D4003    899910.094      899910.094       92805.435      130704.068    14761497.94659  20789681.37099  
D4103    817582.685      817582.685       36550.546       51476.565    13428212.50179  18911926.77045  
D5627    872396.155      872396.155       72641.686      102306.119    14268458.48507  20095301.09352  
D5727    477164.210      477164.210       22231.903       31310.668     8311376.23243  11705545.80941  
D5826   1177505.598     1177505.598      107005.055      150702.338    19915686.28726  28048667.73923  
D5926   1033542.166     1033542.166       80445.960      113297.398    17173748.87427  24187014.84882  
> 2019 01 10  9 51 55.2000000  0  8                     
D3704   1090695.727     1090695.727       51785.107       72932.412    18332183.75854  25818515.77149  
D3903   1187542.558     1187542.558      107889.349      151947.748    20315688.26685  28612017.14076  
D4003    898802.074      898802.074       92734.472      130604.126    14742944.25865  20763550.97783  
D4103    817147.235      817147.235       36364.861       51215.053    13420920.91621  18901657.54534  
D5627    871529.257      871529.257       72521.042      102136.209    14253942.35556  20074857.06251  
D5727    476900.608      476900.608       21906.422       30852.272     8306962.24789  11699329.30131  
D5826   1176227.712     1176227.712      106980.437      150667.667    19894288.18005  28018531.36115  
D5926   1032581.864     1032581.864       80357.981      113173.492    17157668.68918  24164368.05428  
> 2019 01 10  9 51 55.4000000  0  8                     
D3704   1090077.949     1090077.949       51661.697       72758.605    18321839.11938  25803946.72789  
D3903   1186254.091     1186254.091      107868.000      151917.682    20294112.98388  28581631.23428  
D4003    897694.904      897694.904       92663.241      130503.808    14724404.78914  20737440.60940  
D4103    816714.004      816714.004       36178.870       50953.110    13413666.49759  18891440.66493  
D5627    870663.803      870663.803       72400.031      101965.781    14239450.39053  20054447.06396  
D5727    476640.898      476640.898       21580.425       30393.148     8302613.41047  11693204.54423  
D5826   1174950.119     1174950.119      106955.734      150632.877    19872895.00474  27988401.92898  
D5926   1031622.613     1031622.613       80269.752      113049.232    17141606.12451  24141746.07575  
> 2019 01 10  9 51 55.6000000  0  8                     
D3704   1089461.647     1089461.647       51538.072       72584.496    18311519.18306  25789412.47495  
D3903   1184965.879     1184965.879      107846.585      151887.521    20272541.97657  28551251.34947  
D4003    896588.586      896588.586       92591.737      130403.103    14705879.59268  20711350.34268  
D4103    816282.997      816282.997       35992.576       50690.739    13406449.30665  18881276.21475  
D5627    869799.795      869799.795       72278.644      101794.823    14224982.66440  20034071.20265  
D5727    476385.084      476385.084       21253.918       29933.307     8298329.82266  11687171.68251  
D5826   1173672.822     1173672.822      106930.947      150597.968    19851506.77819  27958279.46650  
D5926   1030664.418     1030664.418       80181.270      112924.617    17125561.23057  24119148.98410  
> 2019 01 10  9 51 55.8000000  0  8                     
D3704   1088846.823     1088846.823       51414.240       72410.094    18301223.99180  25774913.07211  
D3903   1183677.924     1183677.924      107825.096      151857.256    20250975.25953  28520877.50695  
D4003    895483.124      895483.124       92519.957      130302.012    14687368.72417  20685280.25496  
D4103    815854.216      815854.216       35805.979       50427.943    13399269.40394  18871164.28005  
D5627    868937.240      868937.240       72156.883      101623.339    14210539.25174  20013729.58362  
D5727    476133.173      476133.173       20926.910       29472.759     8294111.58561  11681230.85861  
D5826   1172395.822     1172395.822      106906.076      150562.939    19830123.51739  27928163.99760  
D5926   1029707.281     1029707.281       80092.531      112799.640    17109534.05783  24096576.85037  
> 2019 01 10  9 51 56.0000000  0  8                     
D3704   1088233.479     1088233.479       51290.197       72235.396    18290953.58779  25760448.57882  
D3903   1182390.225     1182390.225      107803.527      151826.880    20229412.84749  28490509.72744  
D4003    894378.521      894378.521       92447.896      130200.523    14668872.23871  20659230.42384  
D4103    815427.666      815427.666       35619.084       50164.726    13392126.84981  18861104.94584  
D5627    868076.141      868076.141       72034.752      101451.334    14196120.22732  19993422.31218  
D5727    475885.171      475885.171       20599.406       29011.514     8289958.79911  11675382.21309  
D5826   1171119.119     1171119.119      106881.118      150527.790    19808745.23935  27898055.54626  
D5926   1028751.206     1028751.206       80003.539      112674.306    17093524.65686  24074029.74581  
> 2019 01 10  9 51 56.2000000  0  8                     
D3704   1087621.617     1087621.617       51165.939       72060.396    18280708.01322  25746019.05448  
D3903   1181102.785     1181102.785      107781.897      151796.417    20207854.75522  28460148.03176  
D4003    893274.780      893274.780       92375.569      130098.660    14650390.19167  20633200.92732  
D4103    815003.350      815003.350       35431.886       49901.082    13385021.70442  18851098.29687  
D5627    867216.504      867216.504       71912.245      101278.800    14181725.66607  19973149.49385  
D5727    475641.083      475641.083       20271.414       28549.581     8285871.56163  11669625.88461  
D5826   1169842.715     1169842.715      106856.075      150492.520    19787371.96119  27867954.13658  
D5926   1027796.195     1027796.195       79914.302      112548.628    17077533.07839  24051507.74188  
> 2019 01 10  9 51 56.4000000  0  8                     
D3704   1087011.241     1087011.241       51041.473       71885.103    18270487.31029  25731624.55851  
D3903   1179815.603     1179815.603      107760.180      151765.831    20186300.99754  28429792.44075  
D4003    892171.905      892171.905       92302.947      129996.381    14631922.63862  20607191.84363  
D4103    814581.271      814581.271       35244.390       49637.020    13377954.02777  18841144.41760  
D5627    866358.331      866358.331       71789.363      101105.737    14167355.64312  19952911.23443  
D5727    475400.916      475400.916       19942.939       28086.967     8281849.97026  11663962.00991  
D5826   1168566.611     1168566.611      106830.940      150457.121    19766003.70007  27837859.79273  
D5926   1026842.251     1026842.251       79824.801      112422.578    17061559.37326  24029010.91015  
> 2019 01 10  9 51 56.6000000  0  8                     
D3704   1086402.353     1086402.353       50916.797       71709.513    18260291.52116  25717265.15032  
D3903   1178528.682     1178528.682      107738.395      151735.149    20164751.58934  28399442.97542  
D4003    891069.898      891069.898       92230.061      129893.731    14613469.63539  20581203.25144  
D4103    814161.434      814161.434       35056.595       49372.535    13370923.87965  18831243.39225  
D5627    865501.629      865501.629       71666.100      100932.136    14153010.23375  19932707.63996  
D5727    475164.674      475164.674       19613.989       27623.685     8277894.12071  11658390.72379  
D5826   1167290.807     1167290.807      106805.725      150421.608    19744640.47325  27807772.53902  
D5926   1025889.377     1025889.377       79735.049      112296.175    17045603.59248  24006539.32247  
> 2019 01 10  9 51 56.8000000  0  8                     
D3704   1085794.955     1085794.955       50791.907       71533.622    18250120.68800  25702940.88927  
D3903   1177242.020     1177242.020      107716.541      151704.371    20143206.54555  28369099.65678  
D4003    889968.764      889968.764       92156.889      129790.679    14595031.23804  20555235.22966  
D4103    813743.841      813743.841       34868.501       49107.630    13363931.31965  18821395.30476  
D5627    864646.401      864646.401       71542.463      100758.011    14138689.51342  19912538.81671  
D5727    474932.364      474932.364       19284.571       27159.744     8274004.10733  11652912.15912  
D5826   1166015.305     1166015.305      106780.429      150385.982    19723282.29802  27777692.39980  
D5926   1024937.578     1024937.578       79645.038      112169.405    17029665.78714  23984093.05081  
> 2019 01 10  9 51 57.0000000  0  8                     
D3704   1085189.050     1085189.050       50666.806       71357.434    18239974.85297  25688651.83476  
D3903   1175955.621     1175955.621      107694.605      151673.478    20121665.88119  28338762.50598  
D4003    888868.505      888868.505       92083.430      129687.221    14576607.50284  20529287.85759  
D4103    813328.497      813328.497       34680.113       48842.311    13356976.40718  18811600.23880  
D5627    863792.652      863792.652       71418.443      100583.345    14124393.55778  19892404.87122  
D5727    474703.992      474703.992       18954.692       26695.154     8270180.02303  11647526.44678  
D5826   1164740.105     1164740.105      106755.033      150350.216    19701929.19175  27747619.39954  
D5926   1023986.854     1023986.854       79554.774      112042.281    17013746.00849  23961672.16734  
> 2019 01 10  9 51 57.2000000  0  8                     
D3704   1084584.641     1084584.641       50541.498       71180.954    18229854.05822  25674398.04613  
D3903   1174669.484     1174669.484      107672.588      151642.470    20100129.61131  28308431.54422  
D4003    887769.126      887769.126       92009.692      129583.372    14558198.48636  20503361.21485  
D4103    812915.404      812915.404       34491.428       48576.573    13350059.20146  18801858.27775  
D5627    862940.386      862940.386       71294.048      100408.151    14110122.44266  19872305.91028  
D5727    474479.562      474479.562       18624.358       26229.922     8266421.95935  11642233.71566  
D5826   1163465.210     1163465.210      106729.557      150314.336    19680581.17191  27717553.56283  
D5926   1023037.211     1023037.211       79464.252      111914.794    16997844.30794  23939276.74445  
> 2019 01 10  9 51 57.4000000  0  8                     
D3704   1083981.729     1083981.729       50415.979       71004.177    18219758.34588  25660179.58274  
D3903   1173383.610     1173383.610      107650.501      151611.363    20078597.75106  28278106.79282  
D4003    886670.628      886670.628       91935.671      129479.122    14539804.24536  20477455.38141  
D4103    812504.567      812504.567       34302.448       48310.420    13343179.76150  18792169.50474  
D5627    862089.608      862089.608       71169.273      100232.422    14095876.24402  19852242.04088  
D5727    474259.081      474259.081       18293.578       25764.063     8262730.00641  11637034.09269  
D5826   1162190.619     1162190.619      106703.992      150278.332    19659238.25601  27687494.91434  
D5926   1022088.650     1022088.650       79373.473      111786.943    16981960.73699  23916906.85468  
> 2019 01 10  9 51 57.6000000  0  8                     
D3704   1083380.318     1083380.318       50290.245       70827.099    18209687.75807  25645996.50390  
D3903   1172098.000     1172098.000      107628.339      151580.150    20057070.31561  28247788.27318  
D4003    885573.017      885573.017       91861.358      129374.462    14521424.83686  20451570.43757  
D4103    812095.989      812095.989       34113.176       48043.856    13336338.14611  18782534.00258  
D5627    861240.323      861240.323       71044.112      100056.149    14081655.03805  19832213.37033  
D5727    474042.553      474042.553       17962.358       25297.584     8259104.25288  11631927.70276  
D5826   1160916.334     1160916.334      106678.340      150242.203    19637900.46165  27657443.47886  
D5926   1021141.174     1021141.174       79282.431      111658.723    16966095.34729  23894562.57079  
> 2019 01 10  9 51 57.8000000  0  8                     
D3704   1082780.410     1082780.410       50164.306       70649.729    18199642.33692  25631848.86893  
D3903   1170812.656     1170812.656      107606.100      151548.829    20035547.32020  28217476.00673  
D4003    884476.295      884476.295       91786.763      129269.406    14503060.31811  20425706.46396  
D4103    811689.673      811689.673       33923.610       47776.877    13329534.41389  18772951.85383  
D5627    860392.535      860392.535       70918.573       99879.345    14067458.90108  19812220.00610  
D5727    473829.983      473829.983       17630.707       24830.497     8255544.78600  11626914.66873  
D5826   1159642.356     1159642.356      106652.599      150205.951    19616567.80648  27627399.28124  
D5926   1020194.788     1020194.788       79191.134      111530.143    16950248.19063  23872243.96569  
> 2019 01 10  9 51 58.0000000  0  8                     
D3704   1082182.007     1082182.007       50038.152       70472.058    18189622.12451  25617736.73711  
D3903   1169527.577     1169527.577      107583.784      151517.401    20014028.78015  28187170.01508  
D4003    883380.465      883380.465       91711.875      129163.936    14484710.74662  20399863.54156  
D4103    811285.623      811285.623       33733.753       47509.488    13322768.62326  18763423.14072  
D5627    859546.249      859546.249       70792.651       99702.001    14053287.90961  19792262.05597  
D5727    473621.377      473621.377       17298.628       24362.809     8252051.69158  11621995.11145  
D5826   1158368.685     1158368.685      106626.763      150169.564    19595240.30824  27597362.34646  
D5926   1019249.494     1019249.494       79099.577      111401.197    16934419.31893  23849951.11251  
> 2019 01 10  9 51 58.2000000  0  8                     
D3704   1081585.112     1081585.112       49911.791       70294.096    18179627.16294  25603660.16772  
D3903   1168242.766     1168242.766      107561.397      151485.872    19992514.71084  28156870.31984  
D4003    882285.532      882285.532       91636.704      129058.067    14466376.18014  20374041.75171  
D4103    810883.842      810883.842       33543.607       47241.693    13316040.83241  18753947.94524  
D5627    858701.469      858701.469       70666.341       99524.110    14039142.14033  19772339.62792  
D5727    473416.740      473416.740       16966.133       23894.534     8248625.05395  11617169.14968  
D5826   1157095.324     1157095.324      106600.844      150133.061    19573917.98473  27567332.69961  
D5926   1018305.294     1018305.294       79007.755      111271.878    16918608.78422  23827684.08455  
> 2019 01 10  9 51 58.4000000  0  8                     
D3704   1080989.728     1080989.728       49785.216       70115.833    18169657.49427  25589619.22002  
D3903   1166958.223     1166958.223      107538.921      151454.217    19971005.12767  28126576.94276  
D4003    881191.498      881191.498       91561.247      128951.795    14448056.67665  20348241.17608  
D4103    810484.334      810484.334       33353.171       46973.490    13309351.09932  18744526.34904  
D5627    857858.199      857858.199       70539.647       99345.678    14025021.67010  19752452.83020  
D5727    473216.077      473216.077       16633.227       23425.680     8245264.95597  11612436.90015  
D5826   1155822.273     1155822.273      106574.841      150096.440    19552600.85383  27537310.36586  
D5926   1017362.193     1017362.193       78915.676      111142.198    16902816.63871  23805442.95532  
> 2019 01 10  9 51 58.6000000  0  8                     
D3704   1080395.857     1080395.857       49658.434       69937.277    18159713.16057  25575613.95324  
D3903   1165673.948     1165673.948      107516.373      151422.461    19949500.04617  28096289.90567  
D4003    880098.367      880098.367       91485.487      128845.098    14429752.29439  20322461.89668  
D4103    810087.103      810087.103       33162.445       46704.878    13302699.48178  18735158.43350  
D5627    857016.446      857016.446       70412.571       99166.708    14010926.57594  19732601.77129  
D5727    473019.392      473019.392       16299.917       22956.258     8241971.47905  11607798.47747  
D5826   1154549.533     1154549.533      106548.743      150059.683    19531288.93351  27507295.37050  
D5926   1016420.194     1016420.194       78823.336      111012.148    16887042.93472  23783227.79850  
> 2019 01 10  9 51 58.8000000  0  8                     
D3704   1079803.501     1079803.501       49531.440       69758.423    18149794.20388  25561644.42658  
D3903   1164389.943     1164389.943      107493.747      151390.596    19927999.48188  28066009.23046  
D4003    879006.142      879006.142       91409.440      128737.996    14411463.09183  20296703.99587  
D4103    809692.151      809692.151       32971.432       46435.862    13296086.03735  18725844.27969  
D5627    856176.212      856176.212       70285.108       98987.194    13996856.93504  19712786.55991  
D5727    472826.691      472826.691       15966.212       22486.279     8238744.70307  11603253.99417  
D5826   1153277.106     1153277.106      106522.547      150022.791    19509982.24176  27477287.73889  
D5926   1015479.298     1015479.298       78730.728      110881.722    16871287.72468  23761038.68795  
> 2019 01 10  9 51 59.0000000  0  8                     
D3704   1079212.663     1079212.663       49404.238       69579.276    18139900.66622  25547710.69924  
D3903   1163106.209     1163106.209      107471.043      151358.621    19906503.45043  28035734.93915  
D4003    877914.828      877914.828       91333.093      128630.471    14393189.12772  20270967.55637  
D4103    809299.482      809299.482       32780.133       46166.443    13289510.82336  18716583.96836  
D5627    855337.503      855337.503       70157.255       98807.130    13982812.82477  19693007.30501  
D5727    472637.977      472637.977       15632.118       22015.752     8235584.70645  11598803.56068  
D5826   1152004.991     1152004.991      106496.274      149985.788    19488680.79670  27447287.49654  
D5926   1014539.511     1014539.511       78637.861      110750.932    16855551.06120  23738875.69774  
> 2019 01 10  9 51 59.2000000  0  8                     
D3704   1078623.346     1078623.346       49276.826       69399.832    18130032.58961  25533812.83038  
D3903   1161822.747     1161822.747      107448.261      151326.534    19885011.96748  28005467.05381  
D4003    876824.427      876824.427       91256.456      128522.538    14374930.46103  20245252.66125  
D4103    808909.100      808909.100       32588.549       45896.622    13282973.89696  18707377.57999  
D5627    854500.323      854500.323       70029.017       98626.524    13968794.32267  19673264.11579  
D5727    472453.257      472453.257       15297.645       21544.692     8232491.56609  11594447.28531  
D5826   1150733.192     1150733.192      106469.897      149948.640    19467384.61648  27417294.66903  
D5926   1013600.834     1013600.834       78544.731      110619.770    16839832.99698  23716738.90212  
> 2019 01 10  9 51 59.4000000  0  8                     
D3704   1078035.552     1078035.552       49149.201       69220.090    18120190.01603  25519950.87915  
D3903   1160539.557     1160539.557      107425.393      151294.328    19863525.04880  27975205.59662  
D4003    875734.943      875734.943       91179.522      128414.187    14356687.15098  20219559.39390  
D4103    808521.007      808521.007       32396.683       45626.404    13276475.31505  18698225.19471  
D5627    853664.677      853664.677       69900.386       98445.365    13954801.50644  19653557.10170  
D5727    472272.533      472272.533       14962.797       21073.103     8229465.35736  11590185.27421  
D5826   1149461.707     1149461.707      106443.435      149911.372    19446093.71936  27387309.28205  
D5926   1012663.270     1012663.270       78451.331      110488.229    16824133.58488  23694628.37552  
> 2019 01 10  9 51 59.6000000  0  8                     
D3704   1077449.283     1077449.283       49021.369       69040.055    18110372.98747  25506124.90466  
D3903   1159256.640     1159256.640      107402.458      151262.028    19842042.71020  27944950.58987  
D4003    874646.380      874646.380       91102.290      128305.416    14338459.25706  20193887.83813  
D4103    808135.208      808135.208       32204.532       45355.785    13270015.13432  18689126.89236  
D5627    852830.570      852830.570       69771.370       98263.662    13940834.45396  19633886.37241  
D5727    472095.811      472095.811       14627.585       20601.001     8226506.15413  11586017.63141  
D5826   1148190.539     1148190.539      106416.881      149873.974    19424808.12367  27357331.36142  
D5926   1011726.824     1011726.824       78357.675      110356.327    16808452.87790  23672544.19258  
> 2019 01 10  9 51 59.8000000  0  8                     
D3704   1076864.542     1076864.542       48893.328       68859.727    18100581.54587  25492334.96600  
D3903   1157973.998     1157973.998      107379.438      151229.607    19820564.96755  27914702.05589  
D4003    873558.742      873558.742       91024.754      128196.217    14320246.83899  20168238.07802  
D4103    807751.706      807751.706       32012.099       45084.769    13263593.41122  18680082.75245  
D5627    851998.006      851998.006       69641.959       98081.404    13926893.24326  19614252.03782  
D5727    471923.095      471923.095       14292.015       20128.396     8223614.02872  11581944.45877  
D5826   1146919.689     1146919.689      106390.235      149836.447    19403527.84778  27327360.93303  
D5926   1010791.499     1010791.499       78263.744      110224.038    16792790.92915  23650486.42810  
> 2019 01 10  9 52  0.0000000  0  8                     
D3704   1076281.332     1076281.332       48765.074       68679.098    18090815.73318  25478581.12223  
D3903   1156691.632     1156691.632      107356.332      151197.065    19799091.83677  27884460.01713  
D4003    872472.031      872472.031       90946.922      128086.601    14302049.95676  20142610.19806  
D4103    807370.503      807370.503       31819.388       44813.361    13257210.20199  18671092.85420  
D5627    851166.990      851166.990       69512.160       97898.600    13912977.95256  19594654.20809  
D5727    471754.389      471754.389       13956.094       19655.296     8220789.05191  11577965.85598  
D5826   1145649.158     1145649.158      106363.497      149798.790    19382252.91016  27297398.02288  
D5926   1009857.296     1009857.296       78169.551      110091.380    16777147.79188  23628455.15710  
> 2019 01 10  9 52  0.2000000  0  8                     
D3704   1075699.655     1075699.655       48636.613       68498.178    18081075.59132  25464863.43239  
D3903   1155409.542     1155409.542      107333.151      151164.419    19777623.33390  27854224.49615  
D4003    871386.251      871386.251       90868.788      127976.560    14283868.67060  20117004.28310  
D4103    806991.604      806991.604       31626.395       44541.556    13250865.56264  18662157.27647  
D5627    850337.527      850337.527       69381.969       97715.244    13899088.66023  19575092.99358  
D5727    471589.697      471589.697       13619.833       19181.717     8218031.29294  11574081.92053  
D5826   1144378.947     1144378.947      106336.659      149760.992    19360983.32937  27267442.65710  
D5926   1008924.220     1008924.220       78075.087      109958.339    16761523.51950  23606450.45475  
> 2019 01 10  9 52  0.4000000  0  8                     
D3704   1075119.514     1075119.514       48507.941       68316.960    18071361.16217  25451181.95549  
D3903   1154127.729     1154127.729      107309.897      151131.668    19756159.47498  27823995.51556  
D4003    870301.406      870301.406       90790.352      127866.093    14265703.04100  20091420.41830  
D4103    806615.012      806615.012       31433.126       44269.362    13244559.54894  18653276.09781  
D5627    849509.621      849509.621       69251.381       97531.328    13885225.44480  19555568.50493  
D5727    471429.023      471429.023       13283.236       18707.665     8215340.81948  11570292.74775  
D5826   1143109.056     1143109.056      106309.741      149723.081    19339719.12402  27237494.86191  
D5926   1007992.274     1007992.274       77980.358      109824.927    16745918.16551  23584472.39645  
> 2019 01 10  9 52  0.6000000  0  8                     
D3704   1074540.910     1074540.910       48379.061       68135.450    18061672.48763  25437536.75051  
D3903   1152846.194     1152846.194      107286.549      151098.785    19734700.27616  27793773.09810  
D4003    869217.500      869217.500       90711.605      127755.189    14247553.12871  20065858.68924  
D4103    806240.729      806240.729       31239.577       43996.775    13238292.21643  18644449.39644  
D5627    848683.277      848683.277       69120.403       97346.863    13871388.38500  19536080.85298  
D5727    471272.372      471272.372       12946.312       18233.153     8212717.69763  11566598.43073  
D5826   1141839.488     1141839.488      106282.723      149685.030    19318460.31281  27207554.66366  
D5926   1007061.461     1007061.461       77885.362      109691.137    16730331.78360  23562521.05777  
> 2019 01 10  9 52  0.8000000  0  8                     
D3704   1073963.847     1073963.847       48249.969       67953.642    18052009.60955  25423927.87639  
D3903   1151564.939     1151564.939      107263.126      151065.797    19713245.75364  27763557.26658  
D4003    868134.536      868134.536       90632.559      127643.863    14229418.99473  20040319.18182  
D4103    805868.760      805868.760       31045.753       43723.800    13232063.62041  18635677.25026  
D5627    847858.500      847858.500       68989.027       97161.837    13857577.55968  19516630.14880  
D5727    471119.746      471119.746       12609.070       17758.193     8210161.99193  11562999.06034  
D5826   1140570.243     1140570.243      106255.604      149646.837    19297206.91450  27177622.08875  
D5926   1006131.785     1006131.785       77790.091      109556.961    16714764.42753  23540596.51446  
> 2019 01 10  9 52  1.0000000  0  8                     
D3704   1073388.328     1073388.328       48120.672       67771.544    18042372.56975  25410355.39206  
D3903   1150283.964     1150283.964      107239.622      151032.695    19691795.92367  27733348.04389  
D4003    867052.519      867052.519       90553.205      127532.103    14211300.70031  20014801.98231  
D4103    805499.108      805499.108       30851.656       43450.440    13225873.81596  18626959.73682  
D5627    847035.294      847035.294       68857.259       96976.259    13843793.04789  19497216.50371  
D5727    470971.151      470971.151       12271.518       17282.795     8207673.76532  11559494.72526  
D5826   1139301.323     1139301.323      106228.403      149608.528    19275958.94796  27147697.16376  
D5926   1005203.247     1005203.247       77694.555      109422.411    16699216.15123  23518698.84247  
> 2019 01 10  9 52  1.2000000  0  8                     
D3704   1072814.353     1072814.353       47991.162       67589.146    18032761.41005  25396819.35638  
D3903   1149003.270     1149003.270      107216.036      150999.477    19670350.80260  27703145.45306  
D4003    865971.450      865971.450       90473.543      127419.910    14193198.30698  19989307.17736  
D4103    805131.776      805131.776       30657.284       43176.693    13219722.85790  18618296.93334  
D5627    846213.664      846213.664       68725.090       96790.117    13830034.92882  19477840.02924  
D5727    470826.589      470826.589       11933.663       16806.971     8205253.07917  11556085.51190  
D5826   1138032.728     1138032.728      106201.102      149570.077    19254716.43210  27117779.91533  
D5926   1004275.853     1004275.853       77598.744      109287.474    16683687.00878  23496828.11795  
> 2019 01 10  9 52  1.4000000  0  8                     
D3704   1072241.927     1072241.927       47861.444       67406.456    18023176.17223  25383319.82822  
D3903   1147722.859     1147722.859      107192.368      150966.143    19648910.40682  27672949.51718  
D4003    864891.336      864891.336       90393.566      127307.274    14175111.87651  19963834.85397  
D4103    804766.766      804766.766       30462.639       42902.562    13213610.80082  18609688.91669  
D5627    845393.615      845393.615       68592.528       96603.420    13816303.28184  19458500.83717  
D5727    470686.064      470686.064       11595.513       16330.732     8202899.99323  11552771.50440  
D5826   1136764.459     1136764.459      106173.705      149531.492    19233479.38593  27087870.37022  
D5926   1003349.604     1003349.604       77502.670      109152.167    16668177.05437  23474984.41721  
> 2019 01 10  9 52  1.6000000  0  8                     
D3704   1071671.051     1071671.051       47731.519       67223.475    18013616.89806  25369856.86639  
D3903   1146442.730     1146442.730      107168.617      150932.694    19627474.75280  27642760.25943  
D4003    863812.178      863812.178       90313.284      127194.207    14157041.47093  19938385.09950  
D4103    804404.083      804404.083       30267.724       42628.049    13207537.69905  18601135.76340  
D5627    844575.152      844575.152       68459.564       96416.159    13802598.18646  19439199.03950  
D5727    470549.580      470549.580       11257.075       15854.088     8200614.56565  11549552.78469  
D5826   1135496.519     1135496.519      106146.206      149492.764    19212247.82853  27057968.55532  
D5926   1002424.504     1002424.504       77406.316      109016.464    16652686.34232  23453167.81677  
> 2019 01 10  9 52  1.8000000  0  8                     
D3704   1071101.729     1071101.729       47601.386       67040.200    18004083.62927  25356430.52967  
D3903   1145162.886     1145162.886      107144.777      150899.118    19606043.85707  27612577.70309  
D4003    862733.980      862733.980       90232.690      127080.701    14138987.15254  19912958.00169  
D4103    804043.730      804043.730       30072.540       42353.159    13201503.60670  18592637.54967  
D5627    843758.279      843758.279       68326.201       96228.335    13788919.72237  19419934.74844  
D5727    470417.139      470417.139       10918.361       15377.054     8198396.85298  11546429.43239  
D5826   1134228.907     1134228.907      106118.624      149453.918    19191021.77907  27028074.49762  
D5926   1001500.557     1001500.557       77309.693      108880.384    16637214.92709  23431378.39333  
> 2019 01 10  9 52  2.0000000  0  8                     
D3704   1070533.961     1070533.961       47471.045       66856.631    17994576.40758  25343040.87681  
D3903   1143883.327     1143883.327      107120.866      150865.443    19584617.73624  27582401.87155  
D4003    861656.748      861656.748       90151.777      126966.745    14120948.98390  19887553.64864  
D4103    803685.710      803685.710       29877.086       42077.888    13195508.57760  18584194.35132  
D5627    842943.002      842943.002       68192.443       96039.955    13775267.96942  19400708.07646  
D5727    470288.746      470288.746       10579.374       14899.637     8196246.91015  11543401.52485  
D5826   1132961.625     1132961.625      106090.933      149414.919    19169801.25678  26998188.22419  
D5926   1000577.766     1000577.766       77212.792      108743.913    16621762.86328  23409616.22379  
> 2019 01 10  9 52  2.2000000  0  8                     
D3704   1069967.752     1069967.752       47340.493       66672.766    17985095.27467  25329687.96651  
D3903   1142604.054     1142604.054      107096.860      150831.634    19563196.40696  27552232.78829  
D4003    860580.483      860580.483       90070.554      126852.354    14102927.02784  19862172.12884  
D4103    803330.025      803330.025       29681.365       41802.241    13189552.66535  18575806.24384  
D5627    842129.324      842129.324       68058.284       95851.010    13761643.00761  19381519.13622  
D5727    470164.403      470164.403       10240.126       14421.851     8194164.79044  11540469.13713  
D5826   1131694.675     1131694.675      106063.151      149375.792    19148586.28097  26968309.76225  
D5926    999656.133      999656.133       77115.622      108607.062    16606330.20563  23387881.38522  
> 2019 01 10  9 52  2.4000000  0  8                     
D3704   1069403.104     1069403.104       47209.732       66488.607    17975640.27219  25316371.85745  
D3903   1141325.068     1141325.068      107072.782      150797.723    19541779.88599  27522070.47688  
D4003    859505.191      859505.191       89989.016      126737.518    14084921.34742  19836813.53113  
D4103    802976.680      802976.680       29485.379       41526.221    13183635.92331  18567473.30235  
D5627    841317.251      841317.251       67923.720       95661.494    13748044.91711  19362368.04063  
D5727    470044.113      470044.113        9900.624       13943.707     8192150.54553  11537632.34200  
D5826   1130428.057     1130428.057      106035.272      149336.528    19127376.87107  26938439.13913  
D5926    998735.663      998735.663       77018.178      108469.824    16590917.00900  23366173.95491  
> 2019 01 10  9 52  2.6000000  0  8                     
D3704   1068840.018     1068840.018       47078.765       66304.158    17966211.44179  25303092.60826  
D3903   1140046.370     1140046.370      107048.614      150763.685    19520368.19012  27491914.96098  
D4003    858430.874      858430.874       89907.159      126622.235    14066932.00603  19811477.94474  
D4103    802625.677      802625.677       29289.127       41249.826    13177758.40455  18559195.60162  
D5627    840506.788      840506.788       67788.758       95471.418    13734473.77824  19343254.90282  
D5727    469927.880      469927.880        9560.876       13465.217     8190204.22543  11534891.20992  
D5826   1129161.773     1129161.773      106007.295      149297.127    19106173.04653  26908576.38226  
D5926    997816.358      997816.358       76920.453      108332.192    16575523.32839  23344494.01030  
> 2019 01 10  9 52  2.8000000  0  8                     
D3704   1068278.498     1068278.498       46947.591       66119.417    17956808.82505  25289850.27752  
D3903   1138767.962     1138767.962      107024.354      150729.519    19498961.33622  27461766.26436  
D4003    857357.537      857357.537       89824.979      126506.495    14048959.06724  19786165.45924  
D4103    802277.020      802277.020       29092.613       40973.062    13171920.16190  18550973.21606  
D5627    839697.939      839697.939       67653.389       95280.770    13720929.67147  19324179.83611  
D5727    469815.706      469815.706        9220.890       12986.393     8188325.87853  11532245.80900  
D5826   1127895.823     1127895.823      105979.221      149257.588    19084974.82691  26878721.51917  
D5926    996898.222      996898.222       76822.457      108194.178    16560149.21893  23322841.62905  
> 2019 01 10  9 52  3.0000000  0  8                     
D3704   1067718.546     1067718.546       46816.206       65934.378    17947432.46356  25276644.92378  
D3903   1137489.844     1137489.844      107000.017      150695.243    19477559.34125  27431624.41089  
D4003    856285.183      856285.183       89742.484      126390.312    14031002.59497  19760876.16463  
D4103    801930.711      801930.711       28895.835       40695.927    13166121.24793  18542806.21970  
D5627    838890.709      838890.709       67517.621       95089.558    13707412.67744  19305142.95408  
D5727    469707.595      469707.595        8880.674       12507.244     8186515.55156  11529696.20508  
D5826   1126630.209     1126630.209      105951.048      149217.910    19063782.23186  26848874.57754  
D5926    995981.257      995981.257       76724.180      108055.768    16544794.73589  23301216.88899  
> 2019 01 10  9 52  3.2000000  0  8                     
D3704   1067160.164     1067160.164       46684.615       65749.049    17938082.39886  25263476.60556  
D3903   1136212.016     1136212.016      106975.593      150660.846    19456162.22222  27401489.42452  
D4003    855213.816      855213.816       89659.668      126273.676    14013062.65335  19735610.15123  
D4103    801586.755      801586.755       28698.798       40418.426    13160361.71496  18534694.68622  
D5627    838085.103      838085.103       67381.444       94897.771    13693922.87695  19286144.37052  
D5727    469603.548      469603.548        8540.237       12027.784     8184773.28958  11527242.46162  
D5826   1125364.933     1125364.933      105922.776      149178.093    19042595.28109  26819035.58513  
D5926    995065.469      995065.469       76625.630      107916.973    16529459.93466  23279619.86814  
> 2019 01 10  9 52  3.4000000  0  8                     
D3704   1066603.355     1066603.355       46552.818       65563.431    17928758.67246  25250345.38133  
D3903   1134934.482     1134934.482      106951.085      150626.329    19434769.99620  27371361.32931  
D4003    854143.440      854143.440       89576.529      126156.585    13995139.30681  19710367.50979  
D4103    801245.153      801245.153       28501.499       40140.558    13154641.61503  18526638.68890  
D5627    837281.126      837281.126       67244.870       94705.425    13680460.35094  19267184.19943  
D5727    469503.569      469503.569        8199.588       11548.025     8183099.13602  11524884.63977  
D5826   1124099.994     1124099.994      105894.399      149138.128    19021413.99441  26789204.56982  
D5926    994150.859      994150.859       76526.802      107777.787    16514144.87080  23258050.64473  
> 2019 01 10  9 52  3.6000000  0  8                     
D3704   1066048.121     1066048.121       46420.813       65377.520    17919461.32584  25237251.30950  
D3903   1133657.240     1133657.240      106926.490      150591.691    19413382.68037  27341240.14945  
D4003    853074.060      853074.060       89493.066      126039.039    13977232.62004  19685148.33141  
D4103    800905.909      800905.909       28303.943       39862.326    13148960.99993  18518638.30069  
D5627    836478.783      836478.783       67107.883       94512.496    13667025.18052  19248262.55503  
D5727    469407.659      469407.659        7858.734       11067.978     8181493.13261  11522622.79831  
D5826   1122835.395     1122835.395      105865.935      149098.039    19000238.39172  26759381.55965  
D5926    993237.431      993237.431       76427.695      107638.208    16498849.59996  23236509.29716  
> 2019 01 10  9 52  3.8000000  0  8                     
D3704   1065494.466     1065494.466       46288.599       65191.314    17910190.40046  25224194.44845  
D3903   1132380.292     1132380.292      106901.809      150556.931    19392000.29193  27311125.90915  
D4003    852005.678      852005.678       89409.271      125921.026    13959342.65799  19659952.70757  
D4103    800569.026      800569.026       28106.131       39583.734    13143319.92115  18510693.59413  
D5627    835678.078      835678.078       66970.492       94319.000    13653617.44692  19229379.55174  
D5727    469315.822      469315.822        7517.684       10587.654     8179955.31942  11520456.99368  
D5826   1121571.137     1121571.137      105837.358      149057.793    18979068.49295  26729566.58270  
D5926    992325.188      992325.188       76328.305      107498.230    16483574.17795  23214995.90401  
> 2019 01 10  9 52  4.0000000  0  8                     
D3704   1064942.391     1064942.391       46156.181       65004.820    17900945.93773  25211174.85652  
D3903   1131103.640     1131103.640      106877.042      150522.049    19370622.84819  27281018.63280  
D4003    850938.299      850938.299       89325.156      125802.560    13941469.48590  19634780.73014  
D4103    800234.508      800234.508       27908.062       39304.781    13137718.42995  18502804.64138  
D5627    834879.016      834879.016       66832.690       94124.925    13640237.23158  19210535.30423  
D5727    469228.059      469228.059        7176.446       10107.067     8178485.73484  11518387.27994  
D5826   1120307.220     1120307.220      105808.687      149017.414    18957904.31817  26699759.66722  
D5926    991414.134      991414.134       76228.634      107357.857    16468318.66070  23193510.54406  
> 2019 01 10  9 52  4.2000000  0  8                     
D3704   1064391.898     1064391.898       46023.553       64818.032    17891727.97903  25198192.59198  
D3903   1129827.285     1129827.285      106852.187      150487.045    19349250.36650  27250918.34485  
D4003    849871.926      849871.926       89240.712      125683.632    13923613.16927  19609632.49138  
D4103    799902.357      799902.357       27709.738       39025.467    13132156.57728  18494971.51422  
D5627    834081.603      834081.603       66694.480       93930.274    13626884.61603  19191729.92735  
D5727    469144.374      469144.374        6835.029        9626.226     8177084.41558  11516413.70879  
D5826   1119043.647     1119043.647      105779.915      148976.892    18936745.88751  26669960.84157  
D5926    990504.273      990504.273       76128.692      107217.102    16453083.10429  23172053.29629  
> 2019 01 10  9 52  4.4000000  0  8                     
D3704   1063842.991     1063842.991       45890.720       64630.955    17882536.56572  25185247.71308  
D3903   1128551.226     1128551.226      106827.239      150451.909    19327882.86431  27220825.06986  
D4003    848806.564      848806.564       89155.933      125564.233    13905773.77387  19584508.08392  
D4103    799572.575      799572.575       27511.163       38745.802    13126634.41386  18487194.28407  
D5627    833285.843      833285.843       66555.862       93735.048    13613559.68199  19172963.53619  
D5727    469064.767      469064.767        6493.442        9145.146     8175751.39666  11514536.32956  
D5826   1117780.417     1117780.417      105751.042      148936.228    18915593.22119  26640170.13422  
D5926    989595.606      989595.606       76028.459      107075.938    16437867.56492  23150624.23984  
> 2019 01 10  9 52  4.6000000  0  8                     
D3704   1063295.671     1063295.671       45757.682       64443.588    17873371.73912  25172340.27801  
D3903   1127275.466     1127275.466      106802.215      150416.666    19306520.35915  27190738.83251  
D4003    847742.216      847742.216       89070.829      125444.375    13887951.36577  19559407.60080  
D4103    799245.168      799245.168       27312.336       38465.780    13121151.99010  18479473.02192  
D5627    832491.741      832491.741       66416.841       93539.256    13600262.51133  19154236.24603  
D5727    468989.240      468989.240        6151.692        8663.837     8174486.71141  11512755.18918  
D5826   1116517.534     1116517.534      105722.067      148895.421    18894446.33950  26610387.57375  
D5926    988688.139      988688.139       75927.949      106934.382    16422672.09894  23129223.45408  
> 2019 01 10  9 52  4.8000000  0  8                     
D3704   1062749.942     1062749.942       45624.438       64255.931    17864233.54051  25159470.34490  
D3903   1126000.006     1126000.006      106777.091      150381.282    19285162.86856  27160659.65752  
D4003    846678.887      846678.887       88985.392      125324.048    13870146.01129  19534331.13542  
D4103    798920.136      798920.136       27113.261       38185.409    13115709.35614  18471807.79839  
D5627    831699.302      831699.302       66277.398       93342.870    13586993.18603  19135548.17236  
D5727    468917.797      468917.797        5809.788        8182.311     8173290.39147  11511070.33221  
D5826   1115254.996     1115254.996      105692.984      148854.461    18873305.26282  26580613.18887  
D5926    987781.873      987781.873       75827.156      106792.429    16407496.76280  23107851.01852  
> 2019 01 10  9 52  5.0000000  0  8                     
D3704   1062205.806     1062205.806       45490.981       64067.976    17855122.01112  25146637.97184  
D3903   1124724.846     1124724.846      106751.885      150345.783    19263810.41023  27130587.56979  
D4003    845616.580      845616.580       88899.617      125203.245    13852357.77702  19509278.78158  
D4103    798597.484      798597.484       26913.935       37904.685    13110306.56184  18464198.68370  
D5627    830908.530      830908.530       66137.552       93145.915    13573751.78827  19116899.43089  
D5727    468850.438      468850.438        5467.738        7700.580     8172162.46677  11509481.80081  
D5826   1113992.807     1113992.807      105663.804      148813.366    18852170.01163  26550847.00841  
D5926    986876.813      986876.813       75726.076      106650.071    16392341.61311  23086507.01288  
> 2019 01 10  9 52  5.2000000  0  8                     
D3704   1061663.264     1061663.264       45357.324       63879.738    17846037.19217  25133843.21686  
D3903   1123449.987     1123449.987      106726.590      150310.158    19242463.00188  27100522.59428  
D4003    844555.300      844555.300       88813.511      125081.977    13834586.72986  19484250.63349  
D4103    798277.213      798277.213       26714.364       37623.616    13104943.65677  18456645.74768  
D5627    830119.432      830119.432       65997.294       92948.380    13560538.40034  19098290.13753  
D5727    468787.166      468787.166        5125.552        7218.656     8171102.96553  11507989.63473  
D5826   1112730.967     1112730.967      105634.528      148772.134    18831040.60648  26521089.06132  
D5926    985972.962      985972.962       75624.711      106507.312    16377206.70662  23065191.51709  
> 2019 01 10  9 52  5.4000000  0  8                     
D3704   1061122.320     1061122.320       45223.461       63691.209    17836979.12484  25121086.13797  
D3903   1122175.431     1122175.431      106701.212      150274.416    19221120.66131  27070464.75607  
D4003    843495.050      843495.050       88727.064      124960.228    13816832.93696  19459246.78571  
D4103    797959.328      797959.328       26514.545       37342.198    13099620.69023  18449149.05975  
D5627    829332.011      829332.011       65856.623       92750.264    13547353.10469  19079720.40840  
D5727    468727.981      468727.981        4783.238        6736.552     8170111.91429  11506593.87132  
D5826   1111469.477     1111469.477      105605.142      148730.747    18809917.06800  26491339.37665  
D5926    985070.323      985070.323       75523.070      106364.165    16362092.10019  23043904.61123  
> 2019 01 10  9 52  5.6000000  0  8                     
D3704   1060582.977     1060582.977       45089.394       63502.393    17827947.85025  25108366.79308  
D3903   1120901.179     1120901.179      106675.732      150238.531    19199783.40640  27040414.08033  
D4003    842435.835      842435.835       88640.284      124838.009    13799096.46576  19434267.33325  
D4103    797643.831      797643.831       26314.482       37060.436    13094337.71123  18441708.68893  
D5627    828546.272      828546.272       65715.535       92551.561    13534195.98391  19061190.35981  
D5727    468672.885      468672.885        4440.804        6254.279     8169189.33786  11505294.54555  
D5826   1110208.339     1110208.339      105575.646      148689.206    18788799.41694  26461597.98362  
D5926    984168.900      984168.900       75421.136      106220.603    16346997.85084  23022646.37559  
> 2019 01 10  9 52  5.8000000  0  8                     
D3704   1060045.235     1060045.235       44955.117       63313.282    17818943.40950  25095685.24007  
D3903   1119627.232     1119627.232      106650.168      150202.528    19178451.25510  27010370.59234  
D4003    841377.658      841377.658       88553.165      124715.314    13781377.38398  19409312.37146  
D4103    797330.725      797330.725       26114.176       36778.332    13089094.76848  18434324.70381  
D5627    827762.222      827762.222       65574.038       92352.280    13521067.12074  19042700.10830  
D5727    468621.881      468621.881        4098.258        5771.850     8168335.25932  11504091.68992  
D5826   1108947.554     1108947.554      105546.052      148647.527    18767687.67408  26431864.91151  
D5926    983268.697      983268.697       75318.919      106076.645    16331924.01570  23001416.89064  
> 2019 01 10  9 52  6.0000000  0  8                     
D3704   1059509.099     1059509.099       44820.636       63123.884    17809965.84364  25083041.53676  
D3903   1118353.591     1118353.591      106624.514      150166.397    19157124.22543  26980334.31749  
D4003    840320.523      840320.523       88465.700      124592.131    13763675.75961  19384381.99611  
D4103    797020.013      797020.013       25913.631       36495.890    13083891.91041  18426997.17262  
D5627    826979.863      826979.863       65432.121       92152.410    13507966.59805  19024249.77057  
D5727    468574.968      468574.968        3755.611        5289.276     8167549.70008  11502985.33457  
D5826   1107687.123     1107687.123      105516.353      148605.700    18746581.86034  26402140.18976  
D5926    982369.715      982369.715       75216.412      105932.277    16316870.65204  22980216.23703  
> 2019 01 10  9 52  6.2000000  0  8                     
D3704   1058974.570     1058974.570       44685.952       62934.200    17801015.19369  25070435.74091  
D3903   1117080.256     1117080.256      106598.769      150130.139    19135802.33549  26950305.28126  
D4003    839264.436      839264.436       88377.898      124468.473    13745991.66095  19359476.30337  
D4103    796711.697      796711.697       25712.844       36213.108    13078729.18514  18419726.16313  
D5627    826199.202      826199.202       65289.789       91951.954    13494894.49887  19005839.46355  
D5727    468532.148      468532.148        3412.869        4806.570     8166832.67979  11501975.50719  
D5826   1106427.047     1106427.047      105486.549      148563.725    18725481.99669  26372423.84793  
D5926    981471.960      981471.960       75113.626      105787.517    16301837.81726  22959044.49563  
> 2019 01 10  9 52  6.4000000  0  8                     
D3704   1058441.651     1058441.651       44551.064       62744.227    17792091.50062  25057867.91023  
D3903   1115807.230     1115807.230      106572.933      150093.753    19114485.60346  26920283.50925  
D4003    838209.398      838209.398       88289.757      124344.339    13728325.15656  19334595.38981  
D4103    796405.781      796405.781       25511.818       35929.991    13073606.64052  18412511.74272  
D5627    825420.244      825420.244       65147.045       91750.917    13481850.90637  18987469.30438  
D5727    468493.422      468493.422        3070.042        4323.744     8166184.21638  11501062.23304  
D5826   1105167.327     1105167.327      105456.639      148521.601    18704388.10422  26342715.91570  
D5926    980575.434      980575.434       75010.539      105642.332    16286825.56891  22937901.74744  
> 2019 01 10  9 52  6.6000000  0  8                     
D3704   1057910.344     1057910.344       44415.968       62553.963    17783194.80537  25045338.10238  
D3903   1114534.512     1114534.512      106547.006      150057.238    19093174.04759  26890269.02719  
D4003    837155.416      837155.416       88201.261      124219.705    13710676.31528  19309739.35239  
D4103    796102.267      796102.267       25310.556       35646.540    13068524.32409  18405353.97835  
D5627    824642.993      824642.993       65003.880       91549.289    13468835.90383  18969139.41037  
D5727    468458.792      468458.792        2727.138        3840.810     8165604.32609  11500245.53496  
D5826   1103907.966     1103907.966      105426.623      148479.328    18683300.20408  26313016.42288  
D5926    979680.141      979680.141       74907.176      105496.759    16271833.96465  22916788.07372  
> 2019 01 10  9 52  6.8000000  0  8                     
D3704   1057380.652     1057380.652       44280.668       62363.411    17774325.14882  25032846.37493  
D3903   1113262.105     1113262.105      106520.981      150020.584    19071867.68621  26860261.86085  
D4003    836102.493      836102.493       88112.424      124094.590    13693045.20625  19284908.28848  
D4103    795801.159      795801.159       25109.059       35362.759    13063482.28308  18398252.93654  
D5627    823867.454      823867.454       64860.301       91347.077    13455849.57470  18950849.89902  
D5727    468428.258      468428.258        2384.166        3357.780     8165093.02341  11499525.43337  
D5826   1102648.964     1102648.964      105396.502      148436.906    18662218.31752  26283325.39938  
D5926    978786.084      978786.084       74803.515      105350.767    16256863.06229  22895703.55585  
> 2019 01 10  9 52  7.0000000  0  8                     
D3704   1056852.577     1056852.577       44145.167       62172.575    17765482.57182  25020392.78541  
D3903   1111990.009     1111990.009      106494.876      149983.819    19050566.53772  26830262.03619  
D4003    835050.633      835050.633       88023.234      123968.978    13675431.89888  19260102.29584  
D4103    795502.459      795502.459       24907.329       35078.649    13058480.56445  18391208.68340  
D5627    823093.633      823093.633       64716.300       91144.271    13442892.00255  18932600.88805  
D5727    468401.820      468401.820        2041.135        2874.666     8164650.32109  11498901.94624  
D5826   1101390.322     1101390.322      105366.272      148394.332    18641142.46588  26253642.87525  
D5926    977893.267      977893.267       74699.564      105204.366    16241912.91975  22874648.27543  
> 2019 01 10  9 52  7.2000000  0  8                     
