     3.02           OBSERVATION DATA    M: Mixed            RINEX VERSION / TYPE
BUPT PLAN 6.0                           20210405 120000 UTC PGM / RUN BY / DATE 
                                                            MARKER NAME         
                                                            MARKER NUMBER       
                                                            MARKER TYPE         
                                                            OBSERVER / AGENCY   
                                                            REC # / TYPE / VERS 
                                                            ANT # / TYPE        
 -2173821.7072  4381469.4593  4093741.0168                  APPROX POSITION XYZ 
        0.0000        0.0000        0.0000                  ANTENNA: DELTA H/E/N
D    6 C5D C7D D5D D7D L5D L7D                              SYS / # / OBS TYPES 
    30.000                                                  INTERVAL
  2019     1    10     9    51   54.0000000     GPS         TIME OF FIRST OBS   
  2019     1    10     9    54   44.0000000     GPS         TIME OF LAST OBS   
                                                            END OF HEADER       
> 2019 01 10  9 51 54.0000000  0  8                     
D3704   1114624.388     1114624.388       49648.509       69923.299    18664458.09449  26286406.32033  
D3903   1219777.074     1219777.074      106078.549      149397.479    20425478.17526  28766568.06755  
D4003    888978.018      888978.018       90595.921      127592.264    14886112.27796  20965110.51896  
D4103    807254.372      807254.372       35244.245       49636.816    13517482.82387  19037578.59856  
D5627    873503.975      873503.975       73262.743      103180.795    14626945.52685  20600108.74001  
D5727    529624.885      529624.885       25575.438       36019.591     8868550.22554  12490177.50888  
D5826   1223593.363     1223593.363      105628.598      148763.782    20489381.12816  28856566.84782  
D5926   1063635.615     1063635.615       79773.465      112350.279    17810753.74105  25084077.67913  
> 2019 01 10  9 51 54.2000000  0  8                     
D3704   1114032.125     1114032.125       49525.785       69750.459    18654540.14426  26272438.21114  
D3903   1218510.251     1218510.251      106054.205      149363.193    20404264.78715  28736691.84166  
D4003    887896.411      887896.411       90521.029      127486.788    14868000.31883  20939602.24185  
D4103    806834.518      806834.518       35059.397       49376.481    13510451.86478  19027676.43107  
D5627    872629.629      872629.629       73147.293      103018.200    14612304.12375  20579488.27787  
D5727    529321.196      529321.196       25275.624       35597.342     8863464.43117  12483014.84629  
D5826   1222331.924     1222331.924      105602.606      148727.176    20468257.88783  28826817.58306  
D5926   1062683.328     1062683.328       79688.342      112230.394    17794807.21197  25061619.12124  
> 2019 01 10  9 51 54.4000000  0  8                     
D3704   1113441.328     1113441.328       49402.860       69577.335    18644646.75833  26258504.69749  
D3903   1217243.720     1217243.720      106029.779      149328.793    20383056.27584  28706822.48410  
D4003    886815.701      886815.701       90445.859      127380.920    14849903.36552  20914115.09845  
D4103    806416.874      806416.874       34874.258       49115.738    13503457.90362  19017826.37023  
D5627    871756.663      871756.663       73031.490      102855.106    14597685.84497  20558900.38326  
D5727    529021.092      529021.092       24975.295       35174.370     8858438.65030  12475936.70471  
D5826   1221070.796     1221070.796      105576.528      148690.449    20447139.85426  28797075.65131  
D5926   1061732.059     1061732.059       79602.986      112110.182    17778877.73037  25039184.57245  
> 2019 01 10  9 51 54.6000000  0  8                     
D3704   1112852.002     1112852.002       49279.741       69403.938    18634777.97625  26244605.83508  
D3903   1215977.481     1215977.481      106005.273      149294.279    20361852.65753  28676960.01768  
D4003    885735.890      885735.890       90370.403      127274.652    14831821.47380  20888649.16728  
D4103    806001.443      806001.443       34688.831       48854.588    13496500.99828  19008028.49758  
D5627    870885.084      870885.084       72915.339      102691.524    14583090.76066  20538345.15495  
D5727    528724.577      528724.577       24674.458       34750.681     8853472.98523  12468943.22820  
D5826   1219809.980     1219809.980      105550.359      148653.594    20426027.04450  28767341.07662  
D5926   1060781.810     1060781.810       79517.393      111989.635    17762965.34282  25016774.09835  
> 2019 01 10  9 51 54.8000000  0  8                     
D3704   1112264.147     1112264.147       49156.420       69230.257    18624933.83750  26230741.67951  
D3903   1214711.535     1214711.535      105980.685      149259.650    20340653.94850  28647104.46531  
D4003    884656.982      884656.982       90294.673      127167.995    14813754.69971  20863204.52728  
D4103    805588.229      805588.229       34503.117       48593.035    13489581.20648  18998282.89438  
D5627    870014.893      870014.893       72798.833      102527.440    14568518.94105  20517822.69187  
D5727    528431.659      528431.659       24373.117       34326.282     8848567.53724  12462034.55941  
D5826   1218549.477     1218549.477      105524.111      148616.626    20404919.47577  28737613.88321  
D5926   1059832.585     1059832.585       79431.570      111868.765    17747070.09606  24994387.76478  
> 2019 01 10  9 51 55.0000000  0  8                     
D3704   1111677.766     1111677.766       49032.906       69056.304    18615114.38160  26216912.28644  
D3903   1213445.883     1213445.883      105956.009      149224.897    20319460.16504  28617255.84996  
D4003    883578.980      883578.980       90218.660      127060.942    14795703.09946  20837781.25760  
D4103    805177.234      805177.234       34317.114       48331.076    13482698.58569  18988589.64160  
D5627    869146.096      869146.096       72681.978      102362.865    14553970.45661  20497333.09327  
D5727    528142.343      528142.343       24071.278       33901.183     8843722.40662  12455210.83961  
D5826   1217289.288     1217289.288      105497.775      148579.536    20383817.16527  28707894.09531  
D5926   1058884.387     1058884.387       79345.512      111747.564    17731192.03693  24972025.63766  
> 2019 01 10  9 51 55.2000000  0  8                     
D3704   1111092.861     1111092.861       48909.194       68882.072    18605319.64801  26203117.71144  
D3903   1212180.526     1212180.526      105931.263      149190.046    20298271.32364  28587414.19484  
D4003    882501.888      882501.888       90142.360      126953.483    14777666.72949  20812379.43775  
D4103    804768.462      804768.462       34130.828       48068.716    13475853.19325  18978948.81998  
D5627    868278.697      868278.697       72564.770      102197.793    14539445.37794  20476876.45857  
D5727    527856.635      527856.635       23768.943       33475.384     8838937.69265  12448472.20858  
D5826   1216029.414     1216029.414      105471.354      148542.325    20362720.13028  28678181.73727  
D5926   1057937.218     1057937.218       79259.215      111626.026    17715331.21233  24949687.78310  
> 2019 01 10  9 51 55.4000000  0  8                     
D3704   1110509.435     1110509.435       48785.282       68707.558    18595549.67618  26189358.01007  
D3903   1210915.466     1210915.466      105906.429      149155.070    20277087.44068  28557579.52303  
D4003    881425.709      881425.709       90065.786      126845.639    14759645.64654  20786999.14761  
D4103    804361.917      804361.917       33944.254       47805.951    13469045.08628  18969360.50997  
D5627    867412.699      867412.699       72447.203      102032.216    14524943.77580  20456452.88744  
D5727    527574.541      527574.541       23466.121       33048.899     8834213.49358  12441818.80470  
D5826   1214769.856     1214769.856      105444.845      148504.991    20341628.38816  28648476.83352  
D5926   1056991.081     1056991.081       79172.687      111504.163    17699487.66938  24927374.26744  
> 2019 01 10  9 51 55.6000000  0  8                     
D3704   1109927.490     1109927.490       48661.173       68532.768    18585804.50555  26175633.23790  
D3903   1209650.702     1209650.702      105881.505      149119.969    20255908.53269  28527751.85779  
D4003    880350.446      880350.446       89988.917      126737.378    14741639.90746  20761640.46728  
D4103    803957.603      803957.603       33757.396       47542.787    13462274.32171  18959824.79173  
D5627    866548.108      866548.108       72329.285      101866.145    14510465.72118  20436062.47982  
D5727    527296.066      527296.066       23162.815       32621.733     8829549.90661  12435250.76489  
D5826   1213510.616     1213510.616      105418.249      148467.534    20320541.95632  28618779.40861  
D5926   1056045.978     1056045.978       79085.923      111381.968    17683661.45525  24905085.15709  
> 2019 01 10  9 51 55.8000000  0  8                     
D3704   1109347.029     1109347.029       48536.870       68357.703    18576084.17556  26161943.45044  
D3903   1208386.237     1208386.237      105856.505      149084.759    20234734.61630  28497931.22256  
D4003    879276.102      879276.102       89911.766      126628.722    14723649.56943  20736303.47726  
D4103    803555.521      803555.521       33570.255       47279.224    13455540.95626  18950341.74517  
D5627    865684.928      865684.928       72211.007      101699.566    14496011.28513  20415705.33583  
D5727    527021.217      527021.217       22859.032       32193.896     8824947.02792  12428768.22458  
D5826   1212251.693     1212251.693      105391.559      148429.945    20299460.85224  28589089.48712  
D5926   1055101.914     1055101.914       78998.922      111259.438    17667852.61722  24882820.51867  
> 2019 01 10  9 51 56.0000000  0  8                     
D3704   1108768.054     1108768.054       48412.369       68182.360    18566388.72560  26148288.70318  
D3903   1207122.070     1207122.070      105831.421      149049.432    20213565.70814  28468117.64075  
D4003    878202.682      878202.682       89834.323      126519.653    14705674.68978  20710988.25832  
D4103    803155.677      803155.677       33382.834       47015.266    13448845.04647  18940911.44991  
D5627    864823.162      864823.162       72092.377      101532.491    14481580.53897  20395381.55589  
D5727    526749.999      526749.999       22554.774       31765.389     8820404.95260  12422371.31771  
D5826   1210993.090     1210993.090      105364.794      148392.249    20278385.09354  28559407.09389  
D5926   1054158.890     1054158.890       78911.679      111136.568    17652061.20269  24860580.41893  
> 2019 01 10  9 51 56.2000000  0  8                     
D3704   1108190.567     1108190.567       48287.669       68006.737    18556718.19504  26134669.05158  
D3903   1205858.204     1205858.204      105806.254      149013.987    20192401.82494  28438311.13592  
D4003    877130.189      877130.189       89756.596      126410.186    14687715.32617  20685694.89164  
D4103    802758.073      802758.073       33195.131       46750.912    13442186.64866  18931533.98526  
D5627    863962.815      863962.815       71973.384      101364.906    14467173.55413  20375091.24058  
D5727    526482.418      526482.418       22250.050       31336.226     8815923.77472  12416060.17675  
D5826   1209734.807     1209734.807      105337.934      148354.421    20257314.69777  28529732.25364  
D5926   1053216.909     1053216.909       78824.203      111013.369    17636287.25923  24838364.92485  
> 2019 01 10  9 51 56.4000000  0  8                     
D3704   1107614.570     1107614.570       48162.775       67830.840    18547072.62328  26121084.55111  
D3903   1204594.639     1204594.639      105781.002      148978.424    20171242.98347  28408511.73170  
D4003    876058.625      876058.625       89678.580      126300.310    14669771.53640  20660423.45864  
D4103    802362.712      802362.712       33007.147       46486.161    13435565.81895  18922209.43028  
D5627    863103.892      863103.892       71854.038      101196.822    14452790.40223  20354834.49080  
D5727    526218.480      526218.480       21944.863       30906.411     8811503.58724  12409834.93263  
D5826   1208476.845     1208476.845      105310.979      148316.459    20236249.68263  28500064.99127  
D5926   1052275.975     1052275.975       78736.488      110889.835    17620530.83447  24816174.10353  
> 2019 01 10  9 51 56.6000000  0  8                     
D3704   1107040.066     1107040.066       48037.684       67654.667    18537452.04965  26107535.25717  
D3903   1203331.376     1203331.376      105755.666      148942.741    20150089.20060  28378719.45183  
D4003    874987.995      874987.995       89600.272      126190.025    14651843.37855  20635174.04110  
D4103    801969.598      801969.598       32818.885       46221.020    13428982.61327  18912937.86371  
D5627    862246.396      862246.396       71734.328      101028.227    14438431.15504  20334611.40759  
D5727    525958.189      525958.189       21639.220       30475.954     8807144.48206  12403695.71477  
D5826   1207219.206     1207219.206      105283.942      148278.380    20215190.06592  28470405.33189  
D5926   1051336.089     1051336.089       78648.529      110765.957    17604791.97617  24794008.02222  
> 2019 01 10  9 51 56.8000000  0  8                     
D3704   1106467.057     1106467.057       47912.394       67478.213    18527856.51345  26094021.22512  
D3903   1202068.416     1202068.416      105730.246      148906.940    20128940.49321  28348934.32012  
D4003    873918.303      873918.303       89521.668      126079.321    14633930.91088  20609946.72109  
D4103    801578.734      801578.734       32630.344       45955.485    13422437.08732  18903719.36401  
D5627    861390.332      861390.332       71614.262      100859.130    14424095.88451  20314422.09232  
D5727    525701.551      525701.551       21333.126       30044.861     8802846.54997  12397642.65106  
D5826   1205961.890     1205961.890      105256.821      148240.185    20194135.86548  28440753.30058  
D5926   1050397.256     1050397.256       78560.336      110641.748    17589070.73223  24771866.74838  
> 2019 01 10  9 51 57.0000000  0  8                     
D3704   1105895.546     1105895.546       47786.908       67301.481    18518286.05401  26080542.51033  
D3903   1200805.760     1200805.760      105704.740      148871.018    20107796.87831  28319156.36049  
D4003    872849.550      872849.550       89442.775      125968.211    14616034.19196  20584741.58110  
D4103    801190.124      801190.124       32441.526       45689.559    13415929.29659  18894554.00934  
D5627    860535.704      860535.704       71493.835      100689.524    14409784.66273  20294266.64652  
D5727    525448.572      525448.572       21026.586       29613.140     8798609.88069  12391675.86783  
D5826   1204704.899     1204704.899      105229.605      148201.854    20173087.09913  28411108.92249  
D5926   1049459.477     1049459.477       78471.902      110517.200    17573367.15064  24749750.34961  
> 2019 01 10  9 51 57.2000000  0  8                     
D3704   1105325.535     1105325.535       47661.227       67124.478    18508740.71061  26067099.16813  
D3903   1199543.410     1199543.410      105679.149      148834.976    20086658.37294  28289385.59695  
D4003    871781.742      871781.742       89363.588      125856.687    14598153.28055  20559558.70388  
D4103    800803.771      800803.771       32252.433       45423.248    13409459.29639  18885441.87758  
D5627    859682.517      859682.517       71373.042      100519.403    14395497.56198  20274145.17195  
D5727    525199.257      525199.257       20719.605       29180.798     8794434.56280  12385795.48983  
D5826   1203448.233     1203448.233      105202.292      148163.388    20152043.78486  28381472.22290  
D5926   1048522.756     1048522.756       78383.222      110392.307    17557681.27950  24727658.89363  
> 2019 01 10  9 51 57.4000000  0  8                     
D3704   1104757.026     1104757.026       47535.349       66947.194    18499220.52250  26053691.25380  
D3903   1198281.365     1198281.365      105653.466      148798.805    20065524.99418  28259622.05356  
D4003    870714.881      870714.881       89284.100      125744.739    14580288.23562  20534398.17247  
D4103    800419.678      800419.678       32063.064       45156.547    13403027.14177  18876383.04627  
D5627    858830.775      858830.775       71251.891      100348.778    14381234.65470  20254057.77067  
D5727    524953.611      524953.611       20412.190       28747.845     8790320.68377  12380001.64029  
D5826   1202191.894     1202191.894      105174.896      148124.803    20131005.94076  28351843.22732  
D5926   1047587.096     1047587.096       78294.306      110267.080    17542013.16707  24705592.44844  
> 2019 01 10  9 51 57.6000000  0  8                     
D3704   1104190.022     1104190.022       47409.279       66769.642    18489725.52894  26040318.82263  
D3903   1197019.628     1197019.628      105627.702      148762.521    20044396.75928  28229865.75461  
D4003    869648.971      869648.971       89204.321      125632.380    14562439.11645  20509260.07038  
D4103    800037.848      800037.848       31873.421       44889.460    13396632.88759  18867377.59269  
D5627    857980.481      857980.481       71130.371      100177.635    14366996.01349  20234004.54489  
D5727    524711.639      524711.639       20104.348       28314.290     8786268.32996  12374294.44080  
D5826   1200935.883     1200935.883      105147.408      148086.091    20109973.58489  28322221.96119  
D5926   1046652.499     1046652.499       78205.143      110141.506    17526362.86167  24683551.08208  
> 2019 01 10  9 51 57.8000000  0  8                     
D3704   1103624.525     1103624.525       47283.007       66591.805    18480255.76909  26026981.92977  
D3903   1195758.199     1195758.199      105601.853      148726.116    20023273.68545  28200116.72434  
D4003    868584.016      868584.016       89124.244      125519.602    14544605.98250  20484144.48133  
D4103    799658.285      799658.285       31683.506       44621.990    13390276.58849  18858425.59375  
D5627    857131.642      857131.642       71008.492      100005.984    14352781.71111  20213985.59712  
D5727    524473.346      524473.346       19796.080       27880.136     8782277.58657  12368674.01137  
D5826   1199680.200     1199680.200      105119.829      148047.250    20088946.73544  28292608.45011  
D5926   1045718.968     1045718.968       78115.747      110015.603    17510730.41183  24661534.86288  
> 2019 01 10  9 51 58.0000000  0  8                     
D3704   1103060.537     1103060.537       47156.540       66413.693    18470811.28217  26013680.63046  
D3903   1194497.079     1194497.079      105575.917      148689.588    20002155.79001  28170374.98713  
D4003    867520.019      867520.019       89043.867      125406.402    14526788.89347  20459051.48941  
D4103    799280.992      799280.992       31493.321       44354.139    13383958.29890  18849527.12614  
D5627    856284.260      856284.260       70886.248       99833.820    14338591.82049  20194001.03006  
D5727    524238.738      524238.738       19487.397       27445.397     8778348.53768  12363140.47040  
D5826   1198424.848     1198424.848      105092.160      148008.281    20067925.41065  28263002.71977  
D5926   1044786.507     1044786.507       78026.098      109889.345    17495115.86605  24639543.85916  
> 2019 01 10  9 51 58.2000000  0  8                     
D3704   1102498.060     1102498.060       47029.880       66235.310    18461392.10735  26000414.97987  
D3903   1193236.269     1193236.269      105549.900      148652.946    19981043.09037  28140640.56752  
D4003    866456.984      866456.984       88963.190      125292.780    14508987.90932  20433981.17906  
D4103    798905.972      798905.972       31302.864       44085.906    13377678.07298  18840682.26614  
D5627    855438.340      855438.340       70763.634       99661.134    14324426.41471  20174050.94661  
D5727    524007.819      524007.819       19178.301       27010.077     8774481.26620  12357693.93466  
D5826   1197169.826     1197169.826      105064.398      147969.182    20046909.62883  28233404.79598  
D5926   1043855.117     1043855.117       77936.210      109762.750    17479519.27309  24617578.13959  
> 2019 01 10  9 51 58.4000000  0  8                     
D3704   1101937.098     1101937.098       46903.025       66056.651    18451998.28376  25987185.03310  
D3903   1191975.771     1191975.771      105523.783      148616.164    19959935.60391  28110913.48996  
D4003    865394.915      865394.915       88882.206      125178.725    14491203.09022  20408933.63503  
D4103    798533.228      798533.228       31112.139       43817.295    13371435.96474  18831891.08978  
D5627    854593.887      854593.887       70640.658       99487.939    14310285.56704  20154135.44999  
D5727    523780.595      523780.595       18868.799       26574.186     8770675.85388  12352334.51930  
D5826   1195915.137     1195915.137      105036.544      147929.953    20025899.40838  28203814.70463  
D5926   1042924.803     1042924.803       77846.077      109635.810    17463940.68175  24595637.77291  
> 2019 01 10  9 51 58.6000000  0  8                     
D3704   1101377.652     1101377.652       46775.971       65877.712    18442629.85049  25973990.84521  
D3903   1190715.585     1190715.585      105497.584      148579.267    19938833.34822  28081193.77926  
D4003    864333.814      864333.814       88800.925      125064.251    14473434.49664  20383908.94248  
D4103    798162.764      798162.764       30921.144       43548.305    13365232.02788  18823153.67273  
D5627    853750.905      853750.905       70517.314       99314.225    14296169.35088  20134254.64357  
D5727    523557.069      523557.069       18558.897       26137.729     8766932.38130  12347062.33781  
D5826   1194660.781     1194660.781      105008.598      147890.595    20004894.76775  28174232.47172  
D5926   1041995.567     1041995.567       77755.695      109508.519    17448380.14096  24573722.82801  
> 2019 01 10  9 51 58.8000000  0  8                     
D3704   1100819.724     1100819.724       46648.725       65698.503    18433286.84666  25960832.47129  
D3903   1189455.713     1189455.713      105471.298      148542.246    19917736.34086  28051481.46014  
D4003    863273.686      863273.686       88719.340      124949.349    14455682.18922  20358907.18681  
D4103    797794.583      797794.583       30729.883       43278.939    13359066.31594  18814470.09038  
D5627    852909.398      852909.398       70393.597       99139.987    14282077.83979  20114408.63094  
D5727    523337.247      523337.247       18248.601       25700.719     8763250.92788  12341877.50202  
D5826   1193406.759     1193406.759      104980.553      147851.097    19983895.72545  28144658.12330  
D5926   1041067.411     1041067.411       77665.073      109380.889    17432837.69979  24551833.37401  
> 2019 01 10  9 51 59.0000000  0  8                     
D3704   1100263.318     1100263.318       46521.281       65519.015    18423969.31129  25947709.96630  
D3903   1188196.155     1188196.155      105444.922      148505.100    19896644.59950  28021776.55746  
D4003    862214.534      862214.534       88637.445      124834.011    14437946.22886  20333928.45379  
D4103    797428.688      797428.688       30538.355       43009.198    13352938.88219  18805840.41774  
D5627    852069.371      852069.371       70269.512       98965.229    14268011.10752  20094597.51597  
D5727    523121.134      523121.134       17937.919       25263.165     8759631.57185  12336780.12210  
D5826   1192153.073     1192153.073      104952.420      147811.476    19962902.30013  28115091.68564  
D5926   1040140.340     1040140.340       77574.199      109252.906    17417313.40739  24529969.48013  
> 2019 01 10  9 51 59.2000000  0  8                     
D3704   1099708.435     1099708.435       46393.641       65339.251    18414677.28343  25934623.38523  
D3903   1186936.912     1186936.912      105418.459      148467.829    19875558.14186  27992079.09621  
D4003    861156.362      861156.362       88555.248      124718.247    14420226.67675  20308972.82961  
D4103    797065.082      797065.082       30346.565       42739.087    13346849.77969  18797264.72956  
D5627    851230.828      851230.828       70145.061       98789.956    14253969.22798  20074821.40276  
D5727    522908.734      522908.734       17626.853       24825.070     8756074.39021  12331770.30654  
D5826   1190899.723     1190899.723      104924.194      147771.724    19941914.51044  28085533.18503  
D5926   1039214.355     1039214.355       77483.083      109124.581    17401807.31308  24508131.21584  
> 2019 01 10  9 51 59.4000000  0  8                     
D3704   1099155.077     1099155.077       46265.812       65159.221    18405410.80210  25921572.78303  
D3903   1185677.987     1185677.987      105391.906      148430.433    19854476.98575  27962389.10144  
D4003    860099.173      860099.173       88472.744      124602.051    14402523.59428  20284040.40071  
D4103    796703.768      796703.768       30154.510       42468.602    13340799.06124  18788743.10019  
D5627    850393.774      850393.774       70020.234       98614.155    14239952.27520  20055080.39555  
D5727    522700.051      522700.051       17315.410       24386.444     8752579.45881  12326848.16211  
D5826   1189646.711     1189646.711      104895.875      147731.839    19920932.37513  28055982.64785  
D5926   1038289.460     1038289.460       77391.720      108995.908    17386319.46625  24486318.65067  
> 2019 01 10  9 51 59.6000000  0  8                     
D3704   1098603.248     1098603.248       46137.783       64978.909    18396169.90623  25908558.21455  
D3903   1184419.379     1184419.379      105365.263      148392.910    19833401.14903  27932706.59833  
D4003    859042.972      859042.972       88389.925      124485.412    14384837.04306  20259131.25387  
D4103    796344.749      796344.749       29962.194       42197.751    13334786.77942  18780275.60369  
D5627    849558.213      849558.213       69895.041       98437.837    14225960.32343  20035374.59893  
D5727    522495.090      522495.090       17003.599       23947.299     8749146.85226  12322013.79393  
D5826   1188394.038     1188394.038      104867.454      147691.813    19899955.91300  28026440.10058  
D5926   1037365.658     1037365.658       77300.109      108866.886    17370849.91642  24464531.85440  
> 2019 01 10  9 51 59.8000000  0  8                     
D3704   1098052.948     1098052.948       46009.559       64798.322    18386954.63477  25895579.73463  
D3903   1183161.089     1183161.089      105338.530      148355.261    19812330.64964  27903031.61214  
D4003    857987.762      857987.762       88306.807      124368.352    14367167.08504  20234245.47634  
D4103    795988.029      795988.029       29769.615       41926.529    13328812.98657  18771862.31376  
D5627    848724.149      848724.149       69769.475       98260.994    14211993.44700  20015704.11759  
D5727    522293.856      522293.856       16691.424       23507.643     8745776.64397  12317267.30535  
D5826   1187141.704     1187141.704      104838.946      147651.662    19878985.14298  27996905.56989  
D5926   1036442.951     1036442.951       77208.245      108737.508    17355398.71321  24442770.89689  
> 2019 01 10  9 52  0.0000000  0  8                     
D3704   1097504.181     1097504.181       45881.143       64617.467    18377765.02666  25882637.39811  
D3903   1181903.120     1181903.120      105311.707      148317.484    19791265.50559  27873364.16823  
D4003    856933.546      856933.546       88223.367      124250.838    14349513.78227  20209383.15551  
D4103    795633.611      795633.611       29576.776       41654.942    13322877.73479  18763503.30377  
D5627    847891.588      847891.588       69643.532       98083.620    14198051.72046  19996069.05651  
D5727    522096.352      522096.352       16378.890       23067.480     8742468.90609  12312608.79802  
D5826   1185889.712     1185889.712      104810.348      147611.387    19858020.08404  27967379.08251  
D5926   1035521.343     1035521.343       77116.136      108607.785    17339965.90642  24421035.84828  
> 2019 01 10  9 52  0.2000000  0  8                     
D3704   1096956.950     1096956.950       45752.533       64436.336    18368601.12076  25869731.25971  
D3903   1180645.471     1180645.471      105284.788      148279.572    19770205.73493  27843704.29202  
D4003    855880.329      855880.329       88139.615      124132.884    14331877.19717  20184544.37929  
D4103    795281.497      795281.497       29383.679       41382.990    13316981.07592  18755198.64676  
D5627    847060.532      847060.532       69517.220       97905.726    14184135.21851  19976469.52090  
D5727    521902.583      521902.583       16066.005       22626.823     8739223.70959  12308038.37187  
D5826   1184638.062     1184638.062      104781.649      147570.968    19837060.75518  27937860.66517  
D5926   1034600.836     1034600.836       77023.773      108477.704    17324551.54588  24399326.77876  
> 2019 01 10  9 52  0.4000000  0  8                     
D3704   1096411.255     1096411.255       45623.730       64254.934    18359462.95592  25856861.37418  
D3903   1179388.144     1179388.144      105257.784      148241.540    19749151.35588  27814052.00917  
D4003    854828.114      854828.114       88055.555      124014.496    14314257.39239  20159729.23590  
D4103    794931.692      794931.692       29190.326       41110.678    13311123.06158  18746948.41542  
D5627    846230.988      846230.988       69390.528       97727.298    14170244.01598  19956905.61613  
D5727    521712.554      521712.554       15752.773       22185.679     8736041.12415  12303556.12505  
D5826   1183386.755     1183386.755      104752.854      147530.414    19816107.17554  27908350.34483  
D5926   1033681.435     1033681.435       76931.164      108347.277    17309155.68162  24377643.75878  
> 2019 01 10  9 52  0.6000000  0  8                     
D3704   1095867.100     1095867.100       45494.726       64073.250    18350350.57094  25844027.79612  
D3903   1178131.141     1178131.141      105230.688      148203.380    19728102.38663  27784407.34531  
D4003    853776.905      853776.905       87971.179      123895.664    14296654.43079  20134937.81388  
D4103    794584.197      794584.197       28996.716       40838.005    13305303.74313  18738752.68206  
D5627    845402.959      845402.959       69263.466       97548.348    14156378.18790  19937377.44789  
D5727    521526.267      521526.267       15439.205       21744.059     8732921.21825  12299162.15399  
D5826   1182135.793     1182135.793      104723.957      147489.716    19795159.36428  27878848.14850  
D5926   1032763.140     1032763.140       76838.305      108216.497    17293778.36375  24355986.85891  
> 2019 01 10  9 52  0.8000000  0  8                     
D3704   1095324.487     1095324.487       45365.534       63891.300    18341264.00464  25831230.58023  
D3903   1176874.461     1176874.461      105203.501      148165.090    19707058.84546  27754770.32618  
D4003    852726.705      852726.705       87886.487      123776.387    14279068.37548  20110170.20212  
D4103    794239.016      794239.016       28802.851       40564.971    13299523.17167  18730611.51866  
D5627    844576.450      844576.450       69136.027       97368.867    14142537.80940  19917885.12200  
D5727    521343.728      521343.728       15125.303       21301.970     8729864.05908  12294856.55332  
D5826   1180885.176     1180885.176      104694.975      147448.899    19774217.34074  27849354.10339  
D5926   1031845.956     1031845.956       76745.194      108085.363    17278419.64247  24334356.14985  
> 2019 01 10  9 52  1.0000000  0  8                     
D3704   1094783.418     1094783.418       45236.149       63709.078    18332203.29574  25818469.78106  
D3903   1175618.107     1175618.107      105176.216      148126.662    19686020.75074  27725140.97764  
D4003    851677.519      851677.519       87801.477      123656.662    14261499.28983  20085426.48986  
D4103    793896.152      793896.152       28608.731       40291.580    13293781.39806  18722524.99687  
D5627    843751.465      843751.465       69008.207       97188.850    14128722.95579  19898428.74452  
D5727    521164.940      521164.940       14811.074       20859.421     8726869.71257  12290639.41592  
D5826   1179634.906     1179634.906      104665.885      147407.929    19753281.12416  27819868.23662  
D5926   1030929.886     1030929.886       76651.827      107953.868    17263079.56812  24312751.70251  
> 2019 01 10  9 52  1.2000000  0  8                     
D3704   1094243.896     1094243.896       45106.567       63526.579    18323168.48296  25805745.45310  
D3903   1174362.079     1174362.079      105148.850      148088.121    19664988.12098  27695519.32576  
D4003    850629.350      850629.350       87716.144      123536.481    14243947.23746  20060706.76670  
D4103    793555.609      793555.609       28414.359       40017.833    13288078.47291  18714493.18794  
D5627    842928.009      842928.009       68880.010       97008.301    14114933.70256  19879008.42174  
D5727    520989.907      520989.907       14496.524       20416.420     8723938.24341  12286510.83285  
D5826   1178384.985     1178384.985      104636.703      147366.831    19732350.73404  27790390.57562  
D5926   1030014.933     1030014.933       76558.211      107822.023    17247758.19119  24291173.58799  
> 2019 01 10  9 52  1.4000000  0  8                     
D3704   1093705.922     1093705.922       44976.795       63343.813    18314159.60501  25793057.65087  
D3903   1173106.379     1173106.379      105121.386      148049.441    19643960.97461  27665905.39651  
D4003    849582.202      849582.202       87630.496      123415.857    14226412.28228  20036011.12265  
D4103    793217.388      793217.388       28219.737       39743.733    13282414.44657  18706516.16280  
D5627    842106.086      842106.086       68751.438       96827.224    14101170.12534  19859624.26020  
D5727    520818.633      520818.633       14181.662       19972.978     8721069.71499  12282470.89343  
D5826   1177135.412     1177135.412      104607.423      147325.594    19711426.18983  27760921.14783  
D5926   1029101.099     1029101.099       76464.343      107689.821    17232455.56225  24269621.87751  
> 2019 01 10  9 52  1.6000000  0  8                     
D3704   1093169.500     1093169.500       44846.829       63160.774    18305176.70050  25780406.42879  
D3903   1171851.007     1171851.007      105093.828      148010.631    19622939.33025  27636299.21611  
D4003    848536.079      848536.079       87544.526      123294.780    14208894.48838  20011339.64798  
D4103    792881.493      792881.493       28024.866       39469.283    13276789.36914  18698593.99199  
D5627    841285.701      841285.701       68622.482       96645.608    14087432.29989  19840276.36658  
D5727    520651.121      520651.121       13866.492       19529.103     8718264.18943  12278519.68512  
D5826   1175886.189     1175886.189      104578.046      147284.220    19690507.51112  27731459.98080  
D5926   1028188.388     1028188.388       76370.216      107557.256    17217171.73197  24248096.64244  
> 2019 01 10  9 52  1.8000000  0  8                     
D3704   1092634.631     1092634.631       44716.667       62977.458    18296219.80804  25767791.84121  
D3903   1170595.965     1170595.965      105066.171      147971.679    19601923.20654  27606700.81080  
D4003    847490.984      847490.984       87458.234      123173.250    14191393.92016  19986692.43337  
D4103    792547.927      792547.927       27829.744       39194.481    13271203.29043  18690726.74568  
D5627    840466.859      840466.859       68493.151       96463.462    14073720.30216  19820964.84786  
D5727    520487.375      520487.375       13551.021       19084.805     8715521.72755  12274657.29359  
D5826   1174637.318     1174637.318      104548.570      147242.707    19669594.71754  27702007.10219  
D5926   1027276.802     1027276.802       76275.839      107424.339    17201906.75120  24226597.95438  
> 2019 01 10  9 52  2.0000000  0  8                     
D3704   1092101.317     1092101.317       44586.317       62793.876    18287288.96623  25755213.94248  
D3903   1169341.254     1169341.254      105038.432      147932.613    19580912.62228  27577110.20708  
D4003    846446.923      846446.923       87371.613      123051.255    14173910.64222  19962069.56982  
D4103    792216.693      792216.693       27634.376       38919.330    13265656.26003  18682914.49370  
D5627    839649.564      839649.564       68363.439       96280.779    14060034.20821  19801689.81117  
D5727    520327.399      520327.399       13235.257       18640.093     8712842.38889  12270883.80268  
D5826   1173388.800     1173388.800      104518.995      147201.055    19648687.82881  27672562.53978  
D5926   1026366.345     1026366.345       76181.207      107291.063    17186660.67086  24205125.88505  
> 2019 01 10  9 52  2.2000000  0  8                     
D3704   1091569.562     1091569.562       44455.771       62610.019    18278384.21358  25742672.78686  
D3903   1168086.875     1168086.875      105010.593      147893.405    19559907.59622  27547527.43133  
D4003    845403.897      845403.897       87284.667      122928.804    14156444.71947  19937471.14873  
D4103    791887.794      791887.794       27438.764       38643.836    13260148.32724  18675157.30550  
D5627    838833.820      838833.820       68233.341       96097.554    14046374.09428  19782451.36385  
D5727    520171.197      520171.197       12919.203       18194.973     8710226.23168  12267199.29441  
D5826   1172140.635     1172140.635      104489.322      147159.264    19627786.86475  27643126.32146  
D5926   1025457.020     1025457.020       76086.315      107157.420    17171433.54196  24183680.50631  
> 2019 01 10  9 52  2.4000000  0  8                     
D3704   1091039.367     1091039.367       44325.034       62425.894    18269505.58861  25730168.42858  
D3903   1166832.828     1166832.828      104982.653      147854.055    19538908.14724  27517952.51015  
D4003    844361.912      844361.912       87197.399      122805.899    14138996.21707  19912897.26189  
D4103    791561.233      791561.233       27242.906       38367.997    13254679.54111  18667455.25013  
D5627    838019.632      838019.632       68102.865       95913.796    14032740.03676  19763249.61353  
D5727    520018.771      520018.771       12602.869       17749.459     8707673.31283  12263603.84895  
D5826   1170892.826     1170892.826      104459.542      147117.323    19606891.84519  27613698.47520  
D5926   1024548.830     1024548.830       75991.172      107023.423    17156225.41572  24162261.89027  
> 2019 01 10  9 52  2.6000000  0  8                     
D3704   1090510.735     1090510.735       44194.103       62241.496    18260653.12976  25717700.92179  
D3903   1165579.116     1165579.116      104954.624      147814.581    19517914.29435  27488385.47034  
D4003    843320.971      843320.971       87109.805      122682.534    14121565.20040  19888348.00137  
D4103    791237.013      791237.013       27046.804       38091.814    13249249.95041  18659808.39629  
D5627    837207.005      837207.005       67972.002       95729.493    14019132.11219  19744084.66797  
D5727    519870.124      519870.124       12286.260       17303.557     8705183.68797  12260097.54462  
D5826   1169645.372     1169645.372      104429.675      147075.259    19586002.79018  27584279.02920  
D5926   1023641.778     1023641.778       75895.772      106889.065    17141036.34340  24140870.10913  
> 2019 01 10  9 52  2.8000000  0  8                     
D3704   1089983.667     1089983.667       44062.983       62056.830    18251826.87546  25705270.32062  
D3903   1164325.740     1164325.740      104926.500      147774.971    19496926.05657  27458826.33863  
D4003    842281.079      842281.079       87021.875      122558.697    14104151.73510  19863823.45960  
D4103    790915.136      790915.136       26850.459       37815.288    13243859.60363  18652216.81228  
D5627    836395.943      836395.943       67840.763       95544.660    14005550.39727  19724956.63520  
D5727    519725.261      519725.261       11969.383       16857.278     8702757.41138  12256680.45787  
D5826   1168398.276     1168398.276      104399.701      147033.045    19565119.71966  27554868.01155  
D5926   1022735.866     1022735.866       75800.114      106754.344    17125866.37638  24119505.23526  
> 2019 01 10  9 52  3.0000000  0  8                     
D3704   1089458.167     1089458.167       43931.671       61871.895    18243026.86410  25692876.67912  
D3903   1163072.699     1163072.699      104898.280      147735.227    19475943.45300  27429275.14198  
D4003    841242.238      841242.238       86933.627      122434.410    14086755.88713  19839323.72949  
D4103    790595.606      790595.606       26653.877       37538.428    13238508.54902  18644680.56606  
D5627    835586.451      835586.451       67709.132       95359.275    13991994.96879  19705865.62337  
D5727    519584.184      519584.184       11652.245       16410.631     8700394.53603  12253352.66330  
D5826   1167151.539     1167151.539      104369.620      146990.681    19544242.65375  27525465.45060  
D5926   1021831.099     1021831.099       75704.195      106619.254    17110715.56617  24098167.34120  
> 2019 01 10  9 52  3.2000000  0  8                     
D3704   1088934.236     1088934.236       43800.162       61686.682    18234253.13398  25680520.05124  
D3903   1161819.997     1161819.997      104869.964      147695.348    19454966.50284  27399731.90738  
D4003    840204.454      840204.454       86845.041      122309.649    14069377.72261  19814848.90416  
D4103    790278.425      790278.425       26457.053       37261.228    13233196.83454  18637199.72514  
D5627    834778.533      834778.533       67577.115       95173.347    13978465.90375  19686811.74094  
D5727    519446.897      519446.897       11334.851       15963.625     8698095.11355  12250114.23363  
D5826   1165905.161     1165905.161      104339.444      146948.182    19523371.61271  27496071.37487  
D5926   1020927.479     1020927.479       75608.021      106483.807    17095583.96445  24076856.49973  
> 2019 01 10  9 52  3.4000000  0  8                     
D3704   1088411.878     1088411.878       43668.466       61501.207    18225505.72344  25668200.49099  
D3903   1160567.633     1160567.633      104841.552      147655.333    19433995.22534  27370196.66199  
D4003    839167.729      839167.729       86756.117      122184.412    14052017.30797  19790399.07716  
D4103    789963.596      789963.596       26259.992       36983.694    13227924.50787  18629774.35670  
D5627    833972.194      833972.194       67444.712       94986.876    13964963.27930  19667795.09654  
D5727    519313.402      519313.402       11017.210       15516.270     8695859.19425  12246965.23970  
D5826   1164659.145     1164659.145      104309.167      146905.541    19502506.61676  27466685.81284  
D5926   1020025.009     1020025.009       75511.588      106347.994    17080471.62292  24055572.78368  
> 2019 01 10  9 52  3.6000000  0  8                     
D3704   1087891.093     1087891.093       43536.581       61315.463    18216784.67074  25655918.05222  
D3903   1159315.609     1159315.609      104813.042      147615.181    19413029.63987  27340669.43304  
D4003    838132.069      838132.069       86666.865      122058.712    14034674.70994  19765974.34248  
D4103    789651.123      789651.123       26062.697       36705.830    13222691.61642  18622404.52750  
D5627    833167.439      833167.439       67311.927       94799.865    13951487.17271  19648815.79902  
D5727    519183.702      519183.702       10699.327       15068.574     8693686.82706  12243905.75047  
D5826   1163413.490     1163413.490      104278.788      146862.755    19481647.68626  27437308.79320  
D5926   1019123.692     1019123.692       75414.892      106211.809    17065378.59346  24034316.26608  
> 2019 01 10  9 52  3.8000000  0  8                     
D3704   1087371.884     1087371.884       43404.500       61129.446    18208090.01405  25643672.78872  
D3903   1158063.926     1158063.926      104784.435      147574.892    19392069.76582  27311150.24787  
D4003    837097.476      837097.476       86577.277      121932.539    14017349.99543  19741574.79437  
D4103    789341.007      789341.007       25865.164       36427.632    13217498.20730  18615090.30391  
D5627    832364.273      832364.273       67178.754       94612.309    13938037.66140  19629873.95739  
D5727    519057.800      519057.800       10381.209       14620.548     8691578.05961  12240935.83296  
D5826   1162168.200     1162168.200      104248.306      146819.826    19460794.84165  27407940.34472  
D5926   1018223.532     1018223.532       75317.939      106075.265    17050304.92806  24013087.02020  
> 2019 01 10  9 52  4.0000000  0  8                     
D3704   1086854.255     1086854.255       43272.232       60943.164    18199421.79159  25631464.75429  
D3903   1156812.586     1156812.586      104755.731      147534.466    19371115.62270  27281639.13396  
D4003    836063.956      836063.956       86487.347      121805.885    14000043.23166  19717200.52745  
D4103    789033.252      789033.252       25667.400       36149.107    13212344.32738  18607831.75190  
D5627    831562.699      831562.699       67045.189       94424.200    13924614.82293  19610969.68090  
D5727    518935.700      518935.700       10062.864       14172.201     8689532.93815  12238055.55234  
D5826   1160923.273     1160923.273      104217.716      146776.743    19439948.10342  27378580.49625  
D5926   1017324.531     1017324.531       75220.726      105938.353    17035250.67881  23991885.11936  
> 2019 01 10  9 52  4.2000000  0  8                     
D3704   1086338.206     1086338.206       43139.774       60756.614    18190780.04146  25619294.00262  
D3903   1155561.588     1155561.588      104726.922      147493.893    19350167.23006  27252136.11883  
D4003    835031.512      835031.512       86397.085      121678.763    13982754.48611  19692851.63682  
D4103    788727.860      788727.860       25469.402       35870.254    13207230.02320  18600628.93706  
D5627    830762.722      830762.722       66911.239       94235.549    13911218.73503  19592103.07901  
D5727    518817.403      518817.403        9744.299       13723.544     8687551.50758  12235264.97184  
D5826   1159678.713     1159678.713      104187.034      146733.532    19419107.49222  27349229.27689  
D5926   1016426.693     1016426.693       75123.246      105801.066    17020215.89791  23970710.63710  
> 2019 01 10  9 52  4.4000000  0  8                     
D3704   1085823.740     1085823.740       43007.123       60569.792    18182164.80174  25607160.58731  
D3903   1154310.936     1154310.936      104698.021      147453.189    19329224.60761  27222641.23024  
D4003    834000.147      834000.147       86306.478      121551.155    13965483.82651  19668528.21781  
D4103    788424.835      788424.835       25271.174       35591.076    13202155.34105  18593481.92455  
D5627    829964.348      829964.348       66776.895       94046.344    13897849.47552  19573274.26135  
D5727    518702.912      518702.912        9425.518       13274.584     8685633.81144  12232564.15276  
D5826   1158434.520     1158434.520      104156.237      146690.159    19398273.02864  27319886.71564  
D5926   1015530.021     1015530.021       75025.510      105663.417    17005200.63773  23949563.64716  
> 2019 01 10  9 52  4.6000000  0  8                     
D3704   1085310.860     1085310.860       42875.958       60385.064    18173576.11655  25595064.57052  
D3903   1153060.629     1153060.629      104669.021      147412.347    19308287.77506  27193154.49595  
D4003    832969.867      832969.867       86215.535      121423.074    13948231.32087  19644230.36625  
D4103    788124.179      788124.179       25072.718       35311.577    13197120.32692  18586390.77915  
D5627    829167.581      829167.581       66642.165       93856.595    13884507.12246  19554483.33780  
D5727    518592.229      518592.229        9106.530       12825.332     8683779.89188  12229953.15450  
D5826   1157190.695     1157190.695      104125.348      146646.656    19377444.73354  27290552.84186  
D5926   1014634.517     1014634.517       74927.506      105525.392    16990204.95068  23928444.22337  
> 2019 01 10  9 52  4.8000000  0  8                     
D3704   1084799.567     1084799.567       42741.255       60195.353    18165014.00401  25583005.97776  
D3903   1151810.669     1151810.669      104639.922      147371.365    19287356.75221  27163675.94384  
D4003    831940.675      831940.675       86124.245      121294.505    13930997.03743  19619958.17822  
D4103    787825.894      787825.894       24874.032       35031.755    13192125.02650  18579355.56521  
D5627    828372.425      828372.425       66507.044       93666.295    13871191.75394  19535730.41839  
D5727    518485.358      518485.358        8787.342       12375.798     8681989.78972  12227432.03452  
D5826   1155947.240     1155947.240      104094.342      146602.988    19356622.62765  27261227.68475  
D5926   1013740.186     1013740.186       74829.248      105387.009    16975228.88936  23907352.43980  
> 2019 01 10  9 52  5.0000000  0  8                     
D3704   1084289.865     1084289.865       42608.034       60007.729    18156478.52360  25570984.89279  
D3903   1150561.058     1150561.058      104610.724      147330.242    19266431.55895  27134205.60195  
D4003    830912.576      830912.576       86032.617      121165.459    13913781.04475  19595711.75028  
D4103    787529.984      787529.984       24675.122       34751.616    13187169.48521  18572376.34670  
D5627    827578.886      827578.886       66371.527       93475.437    13857903.44824  19517015.61336  
D5727    518382.301      518382.301        8467.960       11925.991     8680263.54436  12225000.84834  
D5826   1154704.156     1154704.156      104063.238      146559.182    19335806.73196  27231911.27390  
D5926   1012847.030     1012847.030       74730.714      105248.236    16960272.50638  23886288.37055  
> 2019 01 10  9 52  5.2000000  0  8                     
D3704   1083781.755     1083781.755       42474.624       59819.839    18147969.70547  25559001.35811  
D3903   1149311.795     1149311.795      104581.425      147288.979    19245512.21527  27104743.49840  
D4003    829885.572      829885.572       85940.645      121035.928    13896583.41161  19571491.17929  
D4103    787236.450      787236.450       24475.986       34471.159    13182253.74816  18565453.18715  
D5627    826786.967      826786.967       66235.622       93284.033    13844642.28382  19498339.03319  
D5727    518283.059      518283.059        8148.391       11475.922     8678601.19386  12222659.64952  
D5826   1153461.443     1153461.443      104032.029      146515.228    19314997.06746  27202603.63884  
D5926   1011955.052     1011955.052       74631.928      105109.109    16945335.85464  23865252.09010  
> 2019 01 10  9 52  5.4000000  0  8                     
D3704   1083275.239     1083275.239       42341.027       59631.685    18139487.58750  25547055.42702  
D3903   1148062.883     1148062.883      104552.025      147247.574    19224598.74120  27075289.66142  
D4003    828859.670      828859.670       85848.326      120905.909    13879404.20706  19547296.56253  
D4103    786945.297      786945.297       24276.626       34190.388    13177377.86017  18558586.14968  
D5627    825996.674      825996.674       66099.319       93092.069    13831408.33921  19479700.78849  
D5727    518187.635      518187.635        7828.643       11025.599     8677002.77486  12220408.48970  
D5826   1152219.105     1152219.105      104000.713      146471.124    19294193.65525  27173304.80928  
D5926   1011064.255     1011064.255       74532.868      104969.597    16930418.98696  23844243.67286  
> 2019 01 10  9 52  5.6000000  0  8                     
D3704   1082770.320     1082770.320       42207.241       59443.266    18131032.20748  25535147.15276  
D3903   1146814.323     1146814.323      104522.519      147206.018    19203691.15688  27045844.11934  
D4003    827834.872      827834.872       85755.660      120775.402    13862243.50044  19523127.99763  
D4103    786656.526      786656.526       24077.044       33909.303    13172541.86576  18551775.29700  
D5627    825208.011      825208.011       65962.623       92899.551    13818201.69312  19461100.99012  
D5727    518096.032      518096.032        7508.722       10575.033     8675468.32264  12218247.41854  
D5826   1150977.140     1150977.140      103969.286      146426.863    19273396.51645  27144014.81501  
D5926   1010174.644     1010174.644       74433.548      104829.717    16915521.95641  23823263.19359  
> 2019 01 10  9 52  5.8000000  0  8                     
D3704   1082267.000     1082267.000       42073.264       59254.577    18122603.60313  25523276.58848  
D3903   1145566.116     1145566.116      104492.924      147164.337    19182789.48256  27016406.90074  
D4003    826811.183      826811.183       85662.641      120644.396    13845101.36132  19498985.58257  
D4103    786370.140      786370.140       23877.244       33627.911    13167745.80917  18545020.69140  
D5627    824420.983      824420.983       65825.536       92706.482    13805022.42441  19442539.74912  
D5727    518008.250      518008.250        7188.635       10124.233     8673997.87106  12216176.48374  
D5826   1149735.552     1149735.552      103937.764      146382.469    19252605.67241  27114733.68604  
D5926   1009286.220     1009286.220       74333.957      104689.457    16900644.81612  23802310.72708  
> 2019 01 10  9 52  6.0000000  0  8                     
D3704   1081765.282     1081765.282       41939.101       59065.626    18114201.81220  25511443.78731  
D3903   1144318.263     1144318.263      104463.220      147122.504    19161893.73848  26986978.03408  
D4003    825788.607      825788.607       85569.276      120512.905    13827977.85960  19474869.41581  
D4103    786086.142      786086.142       23677.223       33346.208    13162989.73431  18538322.39474  
D5627    823635.594      823635.594       65688.054       92512.857    13791870.61203  19424017.17670  
D5727    517924.292      517924.292        6868.389        9673.209     8672591.45260  12214195.73105  
D5826   1148494.341     1148494.341      103906.124      146337.907    19231821.14436  27085461.45231  
D5926   1008398.987     1008398.987       74234.103      104548.827    16885787.61936  23781386.34838  
> 2019 01 10  9 52  6.2000000  0  8                     
D3704   1081265.167     1081265.167       41804.748       58876.408    18105826.87232  25499648.80225  
D3903   1143070.765     1143070.765      104433.415      147080.527    19141003.94504  26957557.54810  
D4003    824767.148      824767.148       85475.555      120380.912    13810873.06538  19450779.59606  
D4103    785804.534      785804.534       23476.984       33064.199    13158273.68481  18531680.46844  
D5627    822851.851      822851.851       65550.172       92318.668    13778746.33508  19405533.38426  
D5727    517844.161      517844.161        6547.991        9221.972     8671249.09835  12212305.20424  
D5826   1147253.509     1147253.509      103874.381      146293.202    19211042.95380  27056198.14409  
D5926   1007512.948     1007512.948       74133.979      104407.815    16870950.41948  23760490.13262  
> 2019 01 10  9 52  6.4000000  0  8                     
D3704   1080766.657     1080766.657       41670.209       58686.928    18097478.82110  25487891.68629  
D3903   1141823.624     1141823.624      104403.501      147038.397    19120120.12267  26928145.47157  
D4003    823746.810      823746.810       85381.487      120248.428    13793787.04910  19426716.22253  
D4103    785525.318      785525.318       23276.530       32781.887    13153597.70398  18525094.97353  
D5627    822069.756      822069.756       65411.897       92123.927    13765649.67284  19387088.48346  
D5727    517767.857      517767.857        6227.449        8770.531     8669970.83797  12210504.94510  
D5826   1146013.056     1146013.056      103842.532      146248.346    19190271.12221  27026943.79164  
D5926   1006628.107     1006628.107       74033.595      104266.438    16856133.27002  23739622.15519  
> 2019 01 10  9 52  6.6000000  0  8                     
D3704   1080269.756     1080269.756       41535.480       58497.180    18089157.69607  25476172.49228  
D3903   1140576.841     1140576.841      104373.491      146996.131    19099242.29198  26898741.83352  
D4003    822727.598      822727.598       85287.064      120115.447    13776719.88141  19402679.39474  
D4103    785248.499      785248.499       23075.864       32499.274    13148961.83484  18518565.97058  
D5627    821289.315      821289.315       65273.222       91928.621    13752580.70466  19368682.58604  
D5727    517695.382      517695.382        5906.769        8318.896     8668756.69973  12208794.99344  
D5826   1144772.984     1144772.984      103810.580      146203.346    19169505.67124  26997698.42542  
D5926   1005744.466     1005744.466       73932.934      104124.671    16841336.22453  23718782.49152  
> 2019 01 10  9 52  6.8000000  0  8                     
D3704   1079774.465     1079774.465       41400.564       58307.169    18080863.53475  25464491.27305  
D3903   1139330.417     1139330.417      104343.377      146953.720    19078370.47354  26869346.66294  
D4003    821709.516      821709.516       85192.286      119981.964    13759671.63327  19378669.21259  
D4103    784974.077      784974.077       22874.983       32216.360    13144366.12009  18512093.51972  
D5627    820510.533      820510.533       65134.152       91732.760    13739539.51007  19350315.80402  
D5727    517626.738      517626.738        5585.958        7867.077     8667606.71049  12207175.38709  
D5826   1143533.295     1143533.295      103778.507      146158.176    19148746.62245  26968462.07584  
D5926   1004862.030     1004862.030       73832.009      103982.531    16826559.33676  23697971.21730  
> 2019 01 10  9 52  7.0000000  0  8                     
D3704   1079280.787     1079280.787       41265.466       58116.901    18072596.37459  25452848.08135  
D3903   1138084.353     1138084.353      104313.159      146911.162    19057504.68808  26839959.98899  
D4003    820692.569      820692.569       85097.146      119847.973    13742642.37587  19354685.77638  
D4103    784702.056      784702.056       22673.890       31933.149    13139810.60211  18505677.68067  
D5627    819733.414      819733.414       64994.684       91536.338    13726526.16872  19331988.24957  
D5727    517561.927      517561.927        5265.024        7415.083     8666520.89570  12205646.16187  
D5826   1142293.989     1142293.989      103746.331      146112.861    19127993.99772  26939234.77368  
D5926   1003980.800     1003980.800       73730.810      103840.006    16811802.66051  23677188.40833  
> 2019 01 10  9 52  7.2000000  0  8                     
