     3.02           OBSERVATION DATA    M: Mixed            RINEX VERSION / TYPE
BUPT PLAN 6.0                           20210405 120000 UTC PGM / RUN BY / DATE 
                                                            MARKER NAME         
                                                            MARKER NUMBER       
                                                            MARKER TYPE         
                                                            OBSERVER / AGENCY   
                                                            REC # / TYPE / VERS 
                                                            ANT # / TYPE        
 -2191672.7436  4417449.0579  4099773.9035                  APPROX POSITION XYZ 
        0.0000        0.0000        0.0000                  ANTENNA: DELTA H/E/N
D    6 C5D C7D D5D D7D L5D L7D                              SYS / # / OBS TYPES 
     0.200                                                  INTERVAL
  2019     1    10     9    51   54.0000000     GPS         TIME OF FIRST OBS   
  2019     1    10     9    54   44.0000000     GPS         TIME OF LAST OBS   
                                                            END OF HEADER       
> 2019 01 10  9 51 54.0000000  0  8                     
D3704   1094433.230     1094433.230       53292.751       75055.727    18325994.23140  25809798.64861  
D3903   1195278.673     1195278.673      108632.615      152994.539    20014642.87058  28188034.87948  
D4003    905462.814      905462.814       93512.979      131700.550    15161700.19116  21353312.81903  
D4103    819793.103      819793.103       37318.381       52557.958    13727167.94342  19332965.60956  
D5627    876752.136      876752.136       73962.615      104166.471    14680942.25378  20676229.42913  
D5727    478540.353      478540.353       24137.162       33993.972     8012918.77586  11285208.31580  
D5826   1183899.416     1183899.416      107569.130      151496.763    19824098.14093  27919678.05903  
D5926   1038359.359     1038359.359       80884.260      113914.685    17387041.89161  24487409.59635  
> 2019 01 10  9 51 54.2000000  0  8                     
D3704   1093797.441     1093797.441       53170.131       74883.033    18315347.99840  25794804.85033  
D3903   1193981.327     1193981.327      108611.589      152964.927    19992918.91773  28157439.59131  
D4003    904346.343      904346.343       93442.149      131600.795    15143004.98182  21326983.11185  
D4103    819348.489      819348.489       37131.579       52294.873    13719722.91005  19322480.27372  
D5627    875869.455      875869.455       73843.064      103998.100    14666161.83421  20655413.18085  
D5727    478254.000      478254.000       23811.022       33534.646     8008123.81471  11278455.25299  
D5826   1182614.792     1182614.792      107544.471      151462.034    19802587.22406  27889382.80361  
D5926   1037393.824     1037393.824       80795.991      113790.369    17370874.07410  24464639.38324  
> 2019 01 10  9 51 54.4000000  0  8                     
D3704   1093163.118     1093163.118       53047.297       74710.037    18304726.31051  25779845.62058  
D3903   1192684.233     1192684.233      108590.491      152935.213    19971199.17717  28126850.23557  
D4003    903230.720      903230.720       93371.040      131500.649    15124323.96533  21300673.39340  
D4103    818906.107      818906.107       36944.468       52031.353    13712315.26727  19312047.59754  
D5627    874988.204      874988.204       73723.135      103829.196    14651405.36160  20634630.65867  
D5727    477971.546      477971.546       23484.321       33074.532     8003394.13689  11271794.13303  
D5826   1181330.464     1181330.464      107519.727      151427.186    19781081.24730  27859094.50565  
D5926   1036429.344     1036429.344       80707.468      113665.698    17354723.93536  24441894.06833  
> 2019 01 10  9 51 54.6000000  0  8                     
D3704   1092530.263     1092530.263       52924.243       74536.733    18294129.21076  25764921.01993  
D3903   1191387.391     1191387.391      108569.314      152905.388    19949483.66335  28096266.83264  
D4003    902115.948      902115.948       93299.664      131400.125    15105657.19632  21274383.74063  
D4103    818465.962      818465.962       36757.045       51767.392    13704945.07728  19301667.66859  
D5627    874108.388      874108.388       73602.837      103659.772    14636672.91071  20613881.96788  
D5727    477692.996      477692.996       23157.069       32613.640     7998729.85382  11265225.11284  
D5826   1180046.431     1180046.431      107494.893      151392.209    19759580.22759  27828813.18905  
D5926   1035465.922     1035465.922       80618.689      113540.663    17338591.52593  24419173.72277  
> 2019 01 10  9 51 54.8000000  0  8                     
D3704   1091898.880     1091898.880       52800.978       74363.130    18283556.74218  25750031.10900  
D3903   1190090.802     1190090.802      108548.077      152875.479    19927772.39078  28065689.40296  
D4003    901002.030      901002.030       93228.013      131299.213    15087004.72963  21248114.23077  
D4103    818028.058      818028.058       36569.312       51502.995    13697612.40206  19291340.57422  
D5627    873230.011      873230.011       73482.159      103489.814    14621964.55644  20593167.21396  
D5727    477418.359      477418.359       22829.265       32151.973     7994131.07563  11258748.34755  
D5826   1178762.696     1178762.696      107469.985      151357.130    19738084.18194  27798538.87775  
D5926   1034503.563     1034503.563       80529.660      113415.278    17322476.89647  24396478.41794  
> 2019 01 10  9 51 55.0000000  0  8                     
D3704   1091268.969     1091268.969       52677.498       74189.225    18273008.94779  25735175.94839  
D3903   1188794.467     1188794.467      108526.754      152845.448    19906065.37406  28035117.96705  
D4003    899888.969      899888.969       93156.080      131197.906    15068366.62037  21221864.94143  
D4103    817592.397      817592.397       36381.270       51238.164    13690317.30347  19281066.40150  
D5627    872353.077      872353.077       73361.109      103319.331    14607280.37392  20572486.50271  
D5727    477147.640      477147.640       22500.923       31689.546     7989597.91115  11252363.99041  
D5826   1177479.258     1177479.258      107444.980      151321.914    19716593.12741  27768271.59578  
D5926   1033542.268     1033542.268       80440.372      113289.528    17306380.09779  24373808.22537  
> 2019 01 10  9 51 55.2000000  0  8                     
D3704   1090640.535     1090640.535       52553.799       74015.012    18262485.87063  25720355.59867  
D3903   1187498.388     1187498.388      108505.364      152815.323    19884362.62781  28004552.54554  
D4003    898776.769      898776.769       93083.881      131096.223    15049742.92386  21195635.95053  
D4103    817158.984      817158.984       36192.923       50972.902    13683059.84314  19270845.23725  
D5627    871477.591      871477.591       73239.679      103148.313    14592620.43842  20551839.94017  
D5727    476880.846      476880.846       22172.046       31226.368     7985130.46791  11246072.19285  
D5826   1176196.120     1176196.120      107419.901      151286.594    19695107.08118  27738011.36733  
D5926   1032582.042     1032582.042       80350.834      113163.425    17290301.18082  24351163.21682  
> 2019 01 10  9 51 55.4000000  0  8                     
D3704   1090013.580     1090013.580       52429.885       73840.496    18251987.55370  25705570.12045  
D3903   1186202.564     1186202.564      108483.901      152785.095    19862664.16674  27973993.15914  
D4003    897665.433      897665.433       93011.398      130994.141    15031133.69567  21169427.33633  
D4103    816727.823      816727.823       36004.267       50707.205    13675840.08254  19260677.16804  
D5627    870603.558      870603.558       73117.875      102976.768    14577984.82545  20531227.63265  
D5727    476617.984      476617.984       21842.642       30762.446     7980728.85206  11239873.10439  
D5826   1174913.281     1174913.281      107394.729      151251.143    19673626.06045  27707758.21662  
D5926   1031622.886     1031622.886       80261.035      113036.956    17274240.19663  24328543.46418  
> 2019 01 10  9 51 55.6000000  0  8                     
D3704   1089388.106     1089388.106       52305.760       73665.681    18241514.04004  25690819.57432  
D3903   1184906.997     1184906.997      108462.364      152754.763    19840970.00560  27943439.82861  
D4003    896554.965      896554.965       92938.630      130891.657    15012538.99159  21143239.17740  
D4103    816298.917      816298.917       35815.305       50441.077    13668658.08295  19250562.28017  
D5627    869730.982      869730.982       72995.692      102804.689    14563373.61065  20510649.68671  
D5727    476359.058      476359.058       21512.717       30297.790     7976393.16845  11233766.87270  
D5826   1173630.744     1173630.744      107369.465      151215.561    19652150.08251  27677512.16800  
D5926   1030664.804     1030664.804       80170.990      112910.139    17258197.19644  24305949.03961  
> 2019 01 10  9 51 55.8000000  0  8                     
D3704   1088764.115     1088764.115       52181.419       73490.564    18231065.37265  25676104.02085  
D3903   1183611.688     1183611.688      108440.752      152724.326    19819280.15920  27912892.57481  
D4003    895445.367      895445.367       92865.587      130788.785    14993958.86767  21117071.55268  
D4103    815872.269      815872.269       35626.040       50174.522    13661513.90545  19240500.65966  
D5627    868859.868      868859.868       72873.129      102632.076    14548786.86986  20490106.20915  
D5727    476104.077      476104.077       21182.278       29832.411     7972123.52056  11227753.64350  
D5826   1172348.509     1172348.509      107344.120      151179.867    19630679.16471  27647273.24591  
D5926   1029707.799     1029707.799       80080.678      112782.946    17242172.23156  24283380.01536  
> 2019 01 10  9 51 56.0000000  0  8                     
D3704   1088141.611     1088141.611       52056.860       73315.140    18220641.59455  25661423.52061  
D3903   1182316.637     1182316.637      108419.066      152693.784    19797594.64242  27882351.41870  
D4003    894336.643      894336.643       92792.262      130685.516    14975393.38018  21090924.54142  
D4103    815447.884      815447.884       35436.469       49907.537    13654407.61092  19230492.39228  
D5627    867990.219      867990.219       72750.181      102458.920    14534224.67913  20469597.30707  
D5727    475853.045      475853.045       20851.330       29366.316     7967920.01051  11221833.56061  
D5826   1171066.578     1171066.578      107318.688      151144.048    19609213.32448  27617041.47491  
D5926   1028751.875     1028751.875       79990.113      112655.398    17226165.35347  24260836.46395  
> 2019 01 10  9 51 56.2000000  0  8                     
D3704   1087520.596     1087520.596       51932.089       73139.417    18210242.74874  25646778.13418  
D3903   1181021.846     1181021.846      108397.305      152663.137    19775913.47018  27851816.38132  
D4003    893228.797      893228.797       92718.653      130581.848    14956842.58565  21064798.22321  
D4103    815025.765      815025.765       35246.597       49640.128    13647339.26009  19220537.56351  
D5627    867122.041      867122.041       72626.856      102285.234    14519687.11467  20449123.08779  
D5727    475605.968      475605.968       20519.884       28899.518     7963782.73902  11216006.76591  
D5826   1169784.950     1169784.950      107293.168      151108.107    19587752.57930  27586816.87962  
D5926   1027797.033     1027797.033       79899.289      112527.485    17210176.61378  24238318.45805  
> 2019 01 10  9 51 56.4000000  0  8                     
D3704   1086901.073     1086901.073       51807.101       72963.387    18199868.87822  25632167.92212  
D3903   1179727.315     1179727.315      108375.469      152632.384    19754236.65750  27821287.48376  
D4003    892121.832      892121.832       92644.755      130477.772    14938306.54081  21038692.67800  
D4103    814605.915      814605.915       35056.421       49372.290    13640308.91344  19210636.25857  
D5627    866255.339      866255.339       72503.145      102111.002    14505174.25287  20428683.65892  
D5727    475362.854      475362.854       20187.945       28432.026     7959711.80545  11210273.39931  
D5826   1168503.628     1168503.628      107267.560      151072.042    19566296.94676  27556599.48478  
D5926   1026843.278     1026843.278       79808.202      112399.201    17194206.06422  24215826.07052  
> 2019 01 10  9 51 56.6000000  0  8                     
D3704   1086283.043     1086283.043       51681.900       72787.059    18189520.02600  25617592.94498  
D3903   1178433.046     1178433.046      108353.558      152601.525    19732564.21941  27790764.74726  
D4003    891015.750      891015.750       92570.576      130373.302    14919785.30270  21012607.98607  
D4103    814188.339      814188.339       34865.944       49104.029    13633316.63128  19200788.56239  
D5627    865390.116      865390.116       72379.050      101936.231    14490686.17031  20408279.12831  
D5727    475123.707      475123.707       19855.519       27963.849     7955707.30775  11204633.59876  
D5826   1167222.613     1167222.613      107241.864      151035.852    19544846.44450  27526389.31526  
D5926   1025890.613     1025890.613       79716.860      112270.558    17178253.75668  24193359.37445  
> 2019 01 10  9 51 56.8000000  0  8                     
D3704   1085666.510     1085666.510       51556.484       72610.427    18179196.23504  25603053.26330  
D3903   1177139.038     1177139.038      108331.565      152570.550    19710896.17103  27760248.19306  
D4003    889910.557      889910.557       92496.111      130268.427    14901278.92852  20986544.22802  
D4103    813773.039      813773.039       34675.167       48835.345    13626362.47373  19190994.55962  
D5627    864526.378      864526.378       72254.575      101760.925    14476222.94376  20387909.60406  
D5727    474888.533      474888.533       19522.615       27494.997     7951769.34244  11199087.50020  
D5826   1165941.904     1165941.904      107216.078      150999.537    19523401.09020  27496186.39596  
D5926   1024939.040     1024939.040       79625.258      112141.549    17162319.74315  24170918.44304  
> 2019 01 10  9 51 57.0000000  0  8                     
D3704   1085051.477     1085051.477       51430.854       72433.493    18168897.54835  25588548.93761  
D3903   1175845.294     1175845.294      108309.501      152539.477    19689232.52754  27729737.84256  
D4003    888806.255      888806.255       92421.352      130163.139    14882787.47579  20960501.48482  
D4103    813360.020      813360.020       34484.093       48566.243    13619446.50068  19181254.33462  
D5627    863664.129      863664.129       72129.715      101585.076    14461784.65015  20367575.19453  
D5727    474657.338      474657.338       19189.237       27025.479     7947898.00463  11193635.23760  
D5826   1164661.505     1164661.505      107190.204      150963.097    19501960.90167  27465990.75195  
D5926   1023988.562     1023988.562       79533.390      112012.164    17146404.07578  24148503.34975  
> 2019 01 10  9 51 57.2000000  0  8                     
D3704   1084437.945     1084437.945       51305.002       72256.248    18158624.00887  25574080.02843  
D3903   1174551.813     1174551.813      108287.362      152508.296    19667573.30417  27699233.71723  
D4003    887702.847      887702.847       92346.310      130057.452    14864311.00221  20934479.83778  
D4103    812949.285      812949.285       34292.719       48296.718    13612568.77182  19171567.97147  
D5627    862803.373      862803.373       72004.464      101408.677    14447371.36661  20347276.00836  
D5727    474430.128      474430.128       18855.397       26555.310     7944093.38801  11188276.94287  
D5826   1163381.414     1163381.414      107164.234      150926.521    19480525.89674  27435802.40836  
D5926   1023039.183     1023039.183       79441.265      111882.418    17130506.80684  24126114.16820  
> 2019 01 10  9 51 57.4000000  0  8                     
D3704   1083825.918     1083825.918       51178.942       72078.709    18148375.65960  25559646.59629  
D3903   1173258.598     1173258.598      108265.145      152477.008    19645918.51622  27668735.83859  
D4003    886600.337      886600.337       92270.976      129951.355    14845849.56579  20908479.36855  
D4103    812540.837      812540.837       34101.050       48026.778    13605729.34666  19161935.55396  
D5627    861944.115      861944.115       71878.831      101231.740    14432983.17045  20327012.15439  
D5727    474206.908      474206.908       18521.098       26084.495     7940355.58479  11183012.74591  
D5826   1162101.635     1162101.635      107138.181      150889.829    19459096.09335  27405621.39044  
D5926   1022090.907     1022090.907       79348.872      111752.296    17114627.98875  24103750.97221  
> 2019 01 10  9 51 57.6000000  0  8                     
D3704   1083215.397     1083215.397       51052.664       71900.864    18138152.54347  25545248.70166  
D3903   1171965.648     1171965.648      108242.859      152445.620    19624268.17908  27638244.22830  
D4003    885498.728      885498.728       92195.346      129844.840    14827403.22473  20882500.15912  
D4103    812134.680      812134.680       33909.084       47756.418    13598928.28447  19152357.16558  
D5627    861086.361      861086.361       71752.806      101054.250    14418620.13915  20306783.74179  
D5727    473987.683      473987.683       18186.349       25613.045     7936684.68576  11177842.77457  
D5826   1160822.167     1160822.167      107112.038      150853.009    19437671.50950  27375447.72354  
D5926   1021143.735     1021143.735       79256.226      111621.817    17098767.67406  24081413.83578  
> 2019 01 10  9 51 57.8000000  0  8                     
D3704   1082606.386     1082606.386       50926.174       71722.720    18127954.70343  25530886.40504  
D3903   1170672.965     1170672.965      108220.482      152414.105    19602622.30812  27607758.90805  
D4003    884398.025      884398.025       92119.434      129737.927    14808972.03750  20856542.29186  
D4103    811730.818      811730.818       33716.824       47485.647    13592165.64432  19142832.88950  
D5627    860230.114      860230.114       71626.396      100876.219    14404282.35037  20286590.87991  
D5727    473772.459      473772.459       17851.157       25140.972     7933080.78022  11172767.15461  
D5826   1159543.012     1159543.012      107085.804      150816.062    19416252.16326  27345281.43312  
D5926   1020197.671     1020197.671       79163.307      111490.953    17082925.91544  24059102.83310  
> 2019 01 10  9 51 58.0000000  0  8                     
D3704   1081998.887     1081998.887       50799.471       71544.274    18117782.18243  25516559.76688  
D3903   1169380.549     1169380.549      108198.034      152382.490    19580980.91886  27577279.89966  
D4003    883298.230      883298.230       92043.216      129630.585    14790556.06282  20830605.84943  
D4103    811329.254      811329.254       33524.269       47214.458    13585441.48505  19133362.80863  
D5627    859375.378      859375.378       71499.596      100697.639    14389969.88197  20266433.67839  
D5727    473561.241      473561.241       17515.530       24668.286     7929543.95600  11167786.00974  
D5826   1158264.171     1158264.171      107059.478      150778.986    19394838.07277  27315122.54471  
D5926   1019252.719     1019252.719       79070.124      111359.716    17067102.76570  24036818.03854  
> 2019 01 10  9 51 58.2000000  0  8                     
D3704   1081392.903     1081392.903       50672.551       71365.525    18107635.02337  25502268.84765  
D3903   1168088.403     1168088.403      108175.515      152350.775    19559344.02684  27546807.22505  
D4003    882199.347      882199.347       91966.703      129522.827    14772155.35966  20804690.91490  
D4103    810929.991      810929.991       33331.421       46942.858    13578755.86532  19123947.00555  
D5627    858522.160      858522.160       71372.402      100518.503    14375682.81195  20246312.24711  
D5727    473354.035      473354.035       17179.475       24194.998     7926074.29943  11162899.46155  
D5826   1156985.644     1156985.644      107033.062      150741.783    19373429.25624  27284971.08399  
D5926   1018308.881     1018308.881       78976.680      111228.113    17051298.27780  24014559.52670  
> 2019 01 10  9 51 58.4000000  0  8                     
D3704   1080788.435     1080788.435       50545.415       71186.471    18097513.26917  25488013.70778  
D3903   1166796.525     1166796.525      108152.904      152318.931    19537711.64766  27516340.90617  
D4003    881101.380      881101.380       91889.899      129414.658    14753769.98724  20778797.57167  
D4103    810533.034      810533.034       33138.283       46670.849    13572108.84355  19114585.56252  
D5627    857670.463      857670.463       71244.820      100338.821    14361421.21853  20226226.69622  
D5727    473150.845      473150.845       16843.000       23721.117     7922671.89537  11158107.62953  
D5826   1155707.434     1155707.434      107006.554      150704.450    19352025.73198  27254827.07672  
D5926   1017366.160     1017366.160       78882.970      111096.135    17035512.50482  23992327.37232  
> 2019 01 10  9 51 58.6000000  0  8                     
D3704   1080185.488     1080185.488       50418.067       71007.119    18087416.96274  25473794.40769  
D3903   1165504.918     1165504.918      108130.222      152286.986    19516083.79702  27485880.96513  
D4003    880004.332      880004.332       91812.797      129306.070    14735400.00504  20752925.90351  
D4103    810138.385      810138.385       32944.854       46398.429    13565500.47792  19105278.56153  
D5627    856820.293      856820.293       71116.842      100158.581    14347185.18009  20206177.13610  
D5727    472951.676      472951.676       16506.111       23246.654     7919336.82714  11153410.63105  
D5826   1154429.541     1154429.541      106979.954      150666.987    19330627.51836  27224690.54876  
D5926   1016424.561     1016424.561       78788.990      110963.776    17019745.49998  23970121.65036  
> 2019 01 10  9 51 58.8000000  0  8                     
D3704   1079584.063     1079584.063       50290.502       70827.461    18077346.14696  25459611.00777  
D3903   1164213.583     1164213.583      108107.460      152254.929    19494460.49064  27455427.42407  
D4003    878908.206      878908.206       91735.395      129197.060    14717045.47276  20727075.99450  
D4103    809746.048      809746.048       32751.136       46125.605    13558930.82642  19096026.08422  
D5627    855971.653      855971.653       70988.475       99977.793    14332974.77518  20186163.67739  
D5727    472756.533      472756.533       16168.818       22771.623     7916069.17656  11148808.58133  
D5826   1153151.966     1153151.966      106953.262      150629.394    19309234.63381  27194561.52610  
D5926   1015484.086     1015484.086       78694.751      110831.054    17003997.31663  23947942.43597  
> 2019 01 10  9 51 59.0000000  0  8                     
D3704   1078984.162     1078984.162       50162.723       70647.500    18067300.86470  25445463.56841  
D3903   1162922.520     1162922.520      108084.620      152222.761    19472841.74431  27424980.30524  
D4003    877813.007      877813.007       91657.688      129087.620    14698706.45038  20701247.92912  
D4103    809356.026      809356.026       32557.127       45852.368    13552399.94679  19086828.21192  
D5627    855124.548      855124.548       70859.710       99796.444    14318790.08253  20166186.43097  
D5727    472565.421      472565.421       15831.127       22296.029     7912869.02392  11144301.59346  
D5826   1151874.711     1151874.711      106926.477      150591.671    19287847.09684  27164440.03480  
D5926   1014544.737     1014544.737       78600.235      110697.941    16988268.00826  23925789.80446  
> 2019 01 10  9 51 59.2000000  0  8                     
D3704   1078385.789     1078385.789       50034.732       70467.242    18057281.15882  25431352.14998  
D3903   1161631.730     1161631.730      108061.700      152190.481    19451227.57392  27394539.63100  
D4003    876718.737      876718.737       91579.684      128977.762    14680382.99814  20675441.79219  
D4103    808968.323      808968.323       32362.833       45578.731    13545907.89657  19077685.02565  
D5627    854278.984      854278.984       70730.554       99614.545    14304631.18105  20146245.50798  
D5727    472378.345      472378.345       15493.046       21819.887     7909736.44798  11139889.77833  
D5826   1150597.776     1150597.776      106899.598      150553.817    19266464.92607  27134326.10105  
D5926   1013606.520     1013606.520       78505.456      110564.457    16972557.62850  23903663.83138  
> 2019 01 10  9 51 59.4000000  0  8                     
D3704   1077788.946     1077788.946       49906.527       70286.682    18047287.07217  25417276.81280  
D3903   1160341.214     1160341.214      108038.700      152158.089    19429617.99539  27364105.42379  
D4003    875625.401      875625.401       91501.377      128867.477    14662075.17651  20649657.66891  
D4103    808582.943      808582.943       32168.255       45304.693    13539454.73304  19068596.60610  
D5627    853434.965      853434.965       70600.998       99432.082    14290498.14985  20126341.01980  
D5727    472195.309      472195.309       15154.583       21343.208     7906671.52593  11135573.24468  
D5826   1149321.163     1149321.163      106872.620      150515.821    19245088.14014  27104219.75115  
D5926   1012669.435     1012669.435       78410.407      110430.593    16956866.23111  23881564.59242  
> 2019 01 10  9 51 59.6000000  0  8                     
D3704   1077193.636     1077193.636       49778.107       70105.821    18037318.64758  25403237.61721  
D3903   1159050.974     1159050.974      108015.619      152125.584    19408013.02472  27333677.70614  
D4003    874533.002      874533.002       91422.766      128756.764    14643783.04625  20623895.64482  
D4103    808199.888      808199.888       31973.390       45030.252    13533040.51327  19059563.03363  
D5627    852592.496      852592.496       70471.049       99249.067    14276391.06816  20106473.07807  
D5727    472016.318      472016.318       14815.746       20866.001     7903674.33342  11131352.09906  
D5826   1148044.872     1148044.872      106845.554      150477.703    19223716.75782  27074121.01151  
D5926   1011733.488     1011733.488       78315.084      110296.344    16941193.86998  23859492.16350  
> 2019 01 10  9 51 59.8000000  0  8                     
D3704   1076599.860     1076599.860       49649.472       69924.654    18027375.92786  25389234.62350  
D3903   1157761.009     1157761.009      107992.453      152092.957    19386412.67797  27303256.50064  
D4003    873441.544      873441.544       91343.849      128645.620    14625506.66834  20598155.80581  
D4103    807819.162      807819.162       31778.241       44755.412    13526665.29408  19050584.38828  
D5627    851751.581      851751.581       70340.698       99065.485    14262310.01543  20086641.79464  
D5727    471841.376      471841.376       14476.543       20388.278     7900744.94454  11127226.44579  
D5826   1146768.905     1146768.905      106818.400      150439.460    19202350.79792  27044029.90863  
D5926   1010798.681     1010798.681       78219.491      110161.713    16925540.59913  23837446.62069  
> 2019 01 10  9 52  0.0000000  0  8                     
D3704   1076007.623     1076007.623       49520.622       69743.187    18017458.95579  25375267.89193  
D3903   1156471.322     1156471.322      107969.211      152060.224    19364816.97125  27272841.83003  
D4003    872351.030      872351.030       91264.620      128534.036    14607246.10404  20572438.23816  
D4103    807440.769      807440.769       31582.813       44480.176    13520329.13207  19041660.74975  
D5627    850912.225      850912.225       70209.953       98881.348    14248255.07127  20066847.28165  
D5727    471670.487      471670.487       14136.981       19910.050     7897883.43179  11123196.38700  
D5826   1145493.263     1145493.263      106791.139      150401.067    19180990.27935  27013946.46912  
D5926   1009865.017     1009865.017       78123.631      110026.707    16909906.47274  23815428.04029  
> 2019 01 10  9 52  0.2000000  0  8                     
D3704   1075416.925     1075416.925       49391.561       69561.422    18007567.77418  25361337.48276  
D3903   1155181.913     1155181.913      107945.895      152027.386    19343225.92078  27242433.71712  
D4003    871261.465      871261.465       91185.088      128422.026    14589001.41487  20546743.02851  
D4103    807064.712      807064.712       31387.101       44204.542    13514032.08358  19032792.19739  
D5627    850074.433      850074.433       70078.809       98696.649    14234226.31547  20047089.65146  
D5727    471503.656      471503.656       13797.067       19431.328     7895089.86610  11119262.02257  
D5826   1144217.947     1144217.947      106763.790      150362.548    19159635.22107  26983870.71971  
D5926   1008932.499     1008932.499       78027.499      109891.318    16894291.54509  23793436.49876  
> 2019 01 10  9 52  0.4000000  0  8                     
D3704   1074827.770     1074827.770       49262.286       69379.355    17997702.42576  25347443.45620  
D3903   1153892.783     1153892.783      107922.485      151994.416    19321639.54280  27212032.18479  
D4003    870172.851      870172.851       91105.246      128309.579    14570772.66259  20521070.26385  
D4103    806690.994      806690.994       31191.111       43928.517    13507774.20473  19023978.81025  
D5627    849238.210      849238.210       69947.264       98511.386    14220223.82796  20027369.01668  
D5727    471340.888      471340.888       13456.812       18952.124     7892364.31680  11115423.45016  
D5826   1142942.959     1142942.959      106736.344      150323.895    19138285.64215  26953802.68725  
D5926   1008001.132     1008001.132       77931.094      109755.545    16878695.87063  23771472.07278  
> 2019 01 10  9 52  0.6000000  0  8                     
D3704   1074240.161     1074240.161       49132.795       69196.984    17987862.95329  25333585.87247  
D3903   1152603.933     1152603.933      107898.999      151961.340    19300057.85365  27181637.25604  
D4003    869085.192      869085.192       91025.088      128196.688    14552559.90926  20495420.03157  
D4103    806319.618      806319.618       30994.840       43652.096    13501555.55139  19015220.66699  
D5627    848403.560      848403.560       69815.314       98325.552    14206247.68890  20007685.49014  
D5727    471182.185      471182.185       13116.222       18472.449     7889706.85163  11111680.76514  
D5826   1141668.299     1141668.299      106708.803      150285.107    19116941.56172  26923742.39868  
D5926   1007070.917     1007070.917       77834.417      109619.388    16863119.50393  23749534.83920  
> 2019 01 10  9 52  0.8000000  0  8                     
D3704   1073654.099     1073654.099       49003.090       69014.312    17978049.39949  25319764.79171  
D3903   1151315.364     1151315.364      107875.437      151928.156    19278480.86971  27151248.95396  
D4003    867998.493      867998.493       90944.624      128083.364    14534363.21716  20469792.41939  
D4103    805950.589      805950.589       30798.292       43375.284    13495376.17917  19006517.84596  
D5627    847570.489      847570.489       69682.963       98139.153    14192297.97857  19988039.18495  
D5727    471027.552      471027.552       12775.306       17992.313     7887117.53671  11108034.06066  
D5826   1140393.968     1140393.968      106681.165      150246.183    19095602.99899  26893689.88105  
D5926   1006141.859     1006141.859       77737.461      109482.838    16847562.49967  23727624.87504  
> 2019 01 10  9 52  1.0000000  0  8                     
D3704   1073069.588     1073069.588       48873.175       68831.344    17968261.80706  25305980.27408  
D3903   1150027.076     1150027.076      107851.781      151894.839    19256908.60744  27120867.30171  
D4003    866912.756      866912.756       90863.845      127969.599    14516182.64886  20444187.51543  
D4103    805583.908      805583.908       30601.470       43098.086    13489236.14346  18997870.42515  
D5627    846739.001      846739.001       69550.212       97952.192    14178374.77744  19968430.21444  
D5727    470876.993      470876.993       12434.071       17511.730     7884596.43654  11104483.42756  
D5826   1139119.968     1139119.968      106653.431      150207.123    19074269.97325  26863645.16153  
D5926   1005213.960     1005213.960       77640.230      109345.902    16832024.91272  23705742.25755  
> 2019 01 10  9 52  1.2000000  0  8                     
D3704   1072486.630     1072486.630       48743.043       68648.071    17958500.21868  25292232.37969  
D3903   1148739.072     1148739.072      107828.048      151861.414    19235341.08337  27090492.32259  
D4003    865827.986      865827.986       90782.747      127855.383    14498018.26718  20418605.40816  
D4103    805219.580      805219.580       30404.371       42820.498    13483135.49937  18989278.48218  
D5627    845909.100      845909.100       69417.055       97764.657    14164478.16615  19948858.69217  
D5727    470730.511      470730.511       12092.525       17030.708     7882143.61402  11101028.95441  
D5826   1137846.300     1137846.300      106625.594      150167.918    19052942.50387  26833608.26740  
D5926   1004287.224     1004287.224       77542.734      109208.591    16816506.79803  23683887.06416  
> 2019 01 10  9 52  1.4000000  0  8                     
D3704   1071905.227     1071905.227       48612.704       68464.506    17948764.67701  25278521.16861  
D3903   1147451.352     1147451.352      107804.232      151827.872    19213778.31409  27060124.03996  
D4003    864744.187      864744.187       90701.338      127740.729    14479870.13521  20393046.18644  
D4103    804857.608      804857.608       30206.999       42542.527    13477074.30179  18980742.09436  
D5627    845080.793      845080.793       69283.496       97576.557    14150608.22552  19929324.73196  
D5727    470588.111      470588.111       11750.678       16549.262     7879759.13039  11097670.72746  
D5826   1136572.964     1136572.964      106597.671      150128.593    19031620.61030  26803579.22607  
D5926   1003361.655     1003361.655       77444.952      109070.879    16801008.21072  23662059.37247  
> 2019 01 10  9 52  1.6000000  0  8                     
D3704   1071325.382     1071325.382       48482.146       68280.632    17939055.22469  25264846.70090  
D3903   1146163.917     1146163.917      107780.332      151794.212    19192220.31627  27029762.47730  
D4003    863661.362      863661.362       90619.612      127625.629    14461738.31631  20367509.93951  
D4103    804497.994      804497.994       30009.354       42264.170    13471052.60533  18972261.33859  
D5627    844254.083      844254.083       69149.532       97387.887    14136765.03653  19909828.44787  
D5727    470449.795      470449.795       11408.537       16067.402     7877443.04527  11094408.83069  
D5826   1135299.963     1135299.963      106569.639      150089.113    19010304.31208  26773558.06502  
D5926   1002437.255     1002437.255       77346.898      108932.783    16785529.20604  23640259.26030  
> 2019 01 10  9 52  1.8000000  0  8                     
D3704   1070747.098     1070747.098       48351.378       68096.462    17929371.90433  25251209.03658  
D3903   1144876.767     1144876.767      107756.348      151760.434    19170667.10664  26999407.65816  
D4003    862579.514      862579.514       90537.567      127510.079    14443622.87410  20341996.75695  
D4103    804140.743      804140.743       29811.438       41985.431    13465070.46436  18963836.29144  
D5627    843428.976      843428.976       69015.158       97198.640    14122948.68031  19890369.95415  
D5727    470315.568      470315.568       11066.111       15585.140     7875195.41662  11091243.34571  
D5826   1134027.297     1134027.297      106541.514      150049.503    18988993.62881  26743544.81189  
D5926   1001514.027     1001514.027       77248.563      108794.291    16770069.83935  23618486.80563  
> 2019 01 10  9 52  2.0000000  0  8                     
D3704   1070170.377     1070170.377       48220.394       67911.989    17919714.75853  25237608.23561  
D3903   1143589.905     1143589.905      107732.274      151726.529    19149118.70200  26969059.60620  
D4003    861498.649      861498.649       90455.196      127394.071    14425523.87247  20316506.72876  
D4103    803785.857      803785.857       29613.251       41706.312    13459127.93297  18955467.02910  
D5627    842605.475      842605.475       68880.381       97008.824    14109159.23819  19870949.36534  
D5727    470185.432      470185.432       10723.407       15102.487     7873016.30074  11088174.35184  
D5826   1132754.968     1132754.968      106513.291      150009.754    18967688.58018  26713539.49440  
D5926   1000591.976     1000591.976       77149.954      108655.414    16754630.16619  23596742.08664  
> 2019 01 10  9 52  2.2000000  0  8                     
D3704   1069595.222     1069595.222       48089.200       67727.221    17910083.82985  25224044.35797  
D3903   1142303.330     1142303.330      107708.128      151692.523    19127575.11921  26938718.34519  
D4003    860418.769      860418.769       90372.514      127277.625    14407441.37558  20291039.94529  
D4103    803433.340      803433.340       29414.798       41426.817    13453225.06501  18947153.62742  
D5627    841783.587      841783.587       68745.193       96818.429    14095396.79164  19851566.79619  
D5727    470059.391      470059.391       10380.433       14619.455     7870905.75230  11085201.92605  
D5826   1131482.977     1131482.977      106484.974      149969.874    18946389.18598  26683542.14041  
D5926    999671.104      999671.104       77051.067      108516.144    16739210.24218  23575025.18172  
> 2019 01 10  9 52  2.4000000  0  8                     
D3704   1069021.635     1069021.635       47957.791       67542.148    17900479.16083  25210517.46357  
D3903   1141017.045     1141017.045      107683.885      151658.379    19106036.37523  26908383.89897  
D4003    859339.879      859339.879       90289.500      127160.710    14389375.44786  20265596.49728  
D4103    803083.195      803083.195       29216.076       41146.944    13447361.91407  18938896.16184  
D5627    840963.317      840963.317       68609.599       96627.464    14081661.42231  19832222.36169  
D5727    469937.447      469937.447       10037.200       14136.056     7868863.82427  11082326.14295  
D5826   1130211.324     1130211.324      106456.552      149929.845    18925095.46605  26653552.77788  
D5926    998751.415      998751.415       76951.900      108376.481    16723810.12313  23553336.16943  
> 2019 01 10  9 52  2.6000000  0  8                     
D3704   1068449.618     1068449.618       47826.172       67356.780    17890900.79401  25197027.61228  
D3903   1139731.050     1139731.050      107659.562      151624.124    19084502.48705  26878056.29152  
D4003    858261.982      858261.982       90206.166      127043.345    14371326.15401  20240176.47586  
D4103    802735.425      802735.425       29017.088       40866.696    13441538.53345  18930694.70746  
D5627    840144.668      840144.668       68473.593       96435.916    14067953.21200  19812916.17707  
D5727    469819.605      469819.605        9693.714       13652.302     7866890.56796  11079547.07479  
D5826   1128940.011     1128940.011      106428.024      149889.667    18903807.44032  26623571.43488  
D5926    997832.912      997832.912       76852.449      108236.417    16708429.86494  23531675.12851  
> 2019 01 10  9 52  2.8000000  0  8                     
D3704   1067879.175     1067879.175       47694.338       67171.110    17881348.77185  25183574.86394  
D3903   1138445.345     1138445.345      107635.160      151589.758    19062973.47176  26847735.54688  
D4003    857185.083      857185.083       90122.501      126925.514    14353293.55899  20214779.97253  
D4103    802390.033      802390.033       28817.837       40586.077    13435754.97620  18922549.33898  
D5627    839327.645      839327.645       68337.179       96243.797    14054272.24271  19793648.35775  
D5727    469705.867      469705.867        9349.984       13168.204     7864986.03299  11076864.79148  
D5826   1127669.040     1127669.040      106399.402      149849.357    18882525.12883  26593598.13960  
D5926    996915.598      996915.598       76752.718      108095.959    16693069.52367  23510042.13792  
> 2019 01 10  9 52  3.0000000  0  8                     
D3704   1067310.308     1067310.308       47562.294       66985.144    17871823.13683  25170159.27837  
D3903   1137159.933     1137159.933      107610.660      151555.253    19041449.34650  26817421.68919  
D4003    856109.184      856109.184       90038.515      126807.231    14335277.72807  20189407.07918  
D4103    802047.023      802047.023       28618.321       40305.086    13430011.29509  18914460.13074  
D5627    838512.255      838512.255       68200.351       96051.092    14040618.59655  19774419.01944  
D5727    469596.236      469596.236        9006.018       12683.775     7863150.26730  11074279.36053  
D5826   1126398.411     1126398.411      106370.679      149808.905    18861248.55166  26563632.92037  
D5926    995999.477      995999.477       76652.709      107955.110    16677729.15551  23488437.27678  
> 2019 01 10  9 52  3.2000000  0  8                     
D3704   1066743.019     1066743.019       47430.039       66798.879    17862323.93139  25156780.91532  
D3903   1135874.813     1135874.813      107586.080      151520.635    19019930.12849  26787114.74272  
D4003    855034.291      855034.291       89954.195      126688.478    14317278.72675  20164057.88807  
D4103    801706.397      801706.397       28418.544       40023.726    13424307.54265  18906427.15667  
D5627    837698.501      837698.501       68063.115       95857.813    14026992.35584  19755228.27804  
D5727    469490.714      469490.714        8661.826       12199.026     7861383.31715  11071790.84706  
D5826   1125128.126     1125128.126      106341.849      149768.301    18839977.72901  26533675.80560  
D5926    995084.553      995084.553       76552.419      107813.865    16662408.81678  23466860.62443  
> 2019 01 10  9 52  3.4000000  0  8                     
D3704   1066177.311     1066177.311       47297.568       66612.312    17852851.19793  25143439.83453  
D3903   1134589.988     1134589.988      107561.413      151485.895    18998415.83503  26756814.73181  
D4003    853960.406      853960.406       89869.556      126569.275    14299296.62083  20138732.49189  
D4103    801368.159      801368.159       28218.506       39742.000    13418643.77108  18898450.49035  
D5627    836886.389      836886.389       67925.466       95663.953    14013393.60303  19736076.24969  
D5727    469389.305      469389.305        8317.416       11713.970     7859685.22706  11069399.31381  
D5826   1123858.185     1123858.185      106312.923      149727.563    18818712.68115  26503726.82385  
D5926    994170.827      994170.827       76451.846      107672.221    16647108.56394  23445312.26037  
> 2019 01 10  9 52  3.6000000  0  8                     
D3704   1065613.186     1065613.186       47164.886       66425.447    17843404.97883  25130136.09568  
D3903   1133305.458     1133305.458      107536.659      151451.032    18976906.48350  26726521.68094  
D4003    852887.535      852887.535       89784.575      126449.591    14281331.47638  20113430.98367  
D4103    801032.311      801032.311       28018.211       39459.910    13413020.03236  18890530.20494  
D5627    836075.923      836075.923       67787.400       95469.505    13999822.42076  19716963.05075  
D5727    469292.011      469292.011        7972.795       11228.618     7858056.03990  11067104.82113  
D5826   1122588.591     1122588.591      106283.902      149686.690    18797453.42844  26473786.00380  
D5926    993258.305      993258.305       76350.985      107530.172    16631828.45358  23423792.26431  
> 2019 01 10  9 52  3.8000000  0  8                     
D3704   1065050.648     1065050.648       47031.995       66238.288    17833985.31644  25116869.75842  
D3903   1132021.224     1132021.224      107511.818      151416.047    18955402.09130  26696235.61464  
D4003    851815.680      851815.680       89699.268      126329.446    14263383.35974  20088153.45684  
D4103    800698.858      800698.858       27817.656       39177.456    13407436.37816  18882666.37322  
D5627    835267.109      835267.109       67648.923       95274.479    13986278.89180  19697888.79781  
D5727    469198.834      469198.834        7627.973       10742.983     7856495.79678  11064907.42694  
D5826   1121319.344     1121319.344      106254.772      149645.665    18776199.99130  26443853.37420  
D5926    992346.989      992346.989       76249.844      107387.729    16616568.54243  23402300.71613  
> 2019 01 10  9 52  4.0000000  0  8                     
D3704   1064489.698     1064489.698       46898.893       66050.831    17824592.25309  25103640.88234  
D3903   1130737.287     1130737.287      107486.883      151380.929    18933902.67595  26665956.55756  
D4003    850744.847      850744.847       89613.621      126208.824    14245452.33753  20062900.00525  
D4103    800367.801      800367.801       27616.847       38894.642    13401892.85987  18874859.06758  
D5627    834459.951      834459.951       67510.028       95078.864    13972763.09909  19678853.60768  
D5727    469109.776      469109.776        7282.959       10257.076     7855004.53713  11062807.18675  
D5826   1120050.445     1120050.445      106225.539      149604.494    18754952.39026  26413928.96397  
D5926    991436.883      991436.883       76148.419      107244.886    16601328.88734  23380837.69592  
> 2019 01 10  9 52  4.2000000  0  8                     
D3704   1063930.339     1063930.339       46765.575       65863.071    17815225.83105  25090449.52699  
D3903   1129453.649     1129453.649      107461.866      151345.696    18912408.25504  26635684.53448  
D4003    849675.038      849675.038       89527.649      126087.745    14227538.47666  20037670.72311  
D4103    800039.144      800039.144       27415.781       38611.468    13396389.52860  18867108.36000  
D5627    833654.454      833654.454       67370.720       94882.667    13959275.12574  19659857.59740  
D5727    469024.841      469024.841        6937.761        9770.910     7853582.29864  11060804.15366  
D5826   1118781.897     1118781.897      106196.197      149563.169    18733710.64593  26384012.80213  
D5926    990527.990      990527.990       76046.705      107101.634    16586109.54532  23359403.28395  
> 2019 01 10  9 52  4.4000000  0  8                     
D3704   1063372.573     1063372.573       46632.050       65675.019    17805886.09258  25077295.75191  
D3903   1128170.309     1128170.309      107436.761      151310.338    18890918.84621  26605419.57026  
D4003    848606.258      848606.258       89441.336      125966.184    14209641.84431  20012465.70504  
D4103    799712.890      799712.890       27214.462       38327.937    13390926.43519  18859414.32207  
D5627    832850.624      832850.624       67230.992       94685.879    13945815.05500  19640900.88424  
D5727    468944.029      468944.029        6592.387        9284.497     7852229.11729  11058898.37833  
D5826   1117513.699     1117513.699      106166.757      149521.707    18712474.77900  26354104.91784  
D5926    989620.313      989620.313       75944.708      106957.986    16570910.57350  23337997.56068  
> 2019 01 10  9 52  4.6000000  0  8                     
D3704   1062816.404     1062816.404       46498.311       65486.665    17796573.07992  25064179.61654  
D3903   1126887.271     1126887.271      107411.573      151274.864    18869434.46722  26575161.68989  
D4003    847538.511      847538.511       89354.674      125844.133    14191762.50794  19987285.04605  
D4103    799389.042      799389.042       27012.891       38044.051    13385503.63017  18851777.02496  
D5627    832048.465      832048.465       67090.846       94488.502    13932382.97030  19621983.58566  
D5727    468867.344      468867.344        6246.845        8797.848     7850945.02731  11057089.90898  
D5826   1116245.853     1116245.853      106137.213      149480.099    18691244.81027  26324205.34036  
D5926    988713.856      988713.856       75842.426      106813.934    16555732.02913  23316620.60677  
> 2019 01 10  9 52  4.8000000  0  8                     
D3704   1062261.833     1062261.833       46364.364       65298.019    17787286.83524  25051101.18031  
D3903   1125604.533     1125604.533      107386.283      151239.247    18847955.13582  26544910.91838  
D4003    846471.801      846471.801       89267.688      125721.625    14173900.53530  19962128.84155  
D4103    799067.604      799067.604       26811.070       37759.814    13380121.16380  18844196.53946  
D5627    831247.983      831247.983       66950.286       94290.542    13918978.95520  19603105.81937  
D5727    468794.786      468794.786        5901.146        8310.977     7849730.06123  11055378.79141  
D5826   1114978.361     1114978.361      106107.564      149438.343    18670020.76058  26294314.09906  
D5926    987808.623      987808.623       75739.851      106669.471    16540573.96962  23295272.50303  
> 2019 01 10  9 52  5.0000000  0  8                     
D3704   1061708.863     1061708.863       46230.207       65109.076    17778027.40071  25038060.50260  
D3903   1124322.098     1124322.098      107360.910      151203.512    18826480.86992  26514667.28095  
D4003    845406.132      845406.132       89180.357      125598.630    14156055.99441  19936997.18734  
D4103    798748.577      798748.577       26609.000       37475.225    13374779.08603  18836672.93591  
D5627    830449.181      830449.181       66809.306       94091.991    13905603.09341  19584267.70327  
D5727    468726.359      468726.359        5555.298        7823.896     7848584.24980  11053765.06894  
D5826   1113711.224     1113711.224      106077.811      149396.439    18648802.65090  26264431.22347  
D5926    986904.616      986904.616       75636.993      106524.609    16525436.45250  23273953.33051  
> 2019 01 10  9 52  5.2000000  0  8                     
D3704   1061157.497     1061157.497       46095.835       64919.832    17768794.81845  25025057.64271  
D3903   1123039.967     1123039.967      107335.453      151167.660    18805011.68747  26484430.80287  
D4003    844341.508      844341.508       89092.677      125475.145    14138228.95356  19911890.17962  
D4103    798431.965      798431.965       26406.683       37190.289    13369477.44654  18829206.28428  
D5627    829652.066      829652.066       66667.904       93892.844    13892255.46883  19565469.35551  
D5727    468662.063      468662.063        5209.309        7336.616     7847507.62205  11052248.78246  
D5826   1112444.443     1112444.443      106047.952      149354.387    18627590.50226  26234556.74323  
D5926    986001.840      986001.840       75533.841      106379.334    16510319.53542  23252663.17041  
> 2019 01 10  9 52  5.4000000  0  8                     
D3704   1060607.736     1060607.736       45961.254       64730.292    17759589.13053  25012092.65994  
D3903   1121758.141     1121758.141      107309.894      151131.663    18783547.60647  26454201.50951  
D4003    843277.933      843277.933       89004.655      125351.177    14120419.48138  19886807.91501  
D4103    798117.771      798117.771       26204.117       36905.002    13364216.29470  18821796.65409  
D5627    828856.643      828856.643       66526.081       93693.106    13878936.16548  19546710.89442  
D5727    468601.901      468601.901        4863.188        6849.151     7846500.20529  11050829.97039  
D5826   1111178.019     1111178.019      106017.981      149312.177    18606384.33580  26204690.68807  
D5926    985100.297      985100.297       75430.409      106233.664    16495223.27621  23231402.10415  
> 2019 01 10  9 52  5.6000000  0  8                     
D3704   1060059.585     1060059.585       45826.465       64540.459    17750410.37903  24999165.61349  
D3903   1120476.620     1120476.620      107284.256      151095.555    18762088.64505  26423979.42639  
D4003    842215.411      842215.411       88916.297      125226.737    14102627.64674  19861750.49053  
D4103    797805.998      797805.998       26001.310       36619.374    13358995.67957  18814444.11446  
D5627    828062.915      828062.915       66383.840       93492.778    13865645.26756  19527992.43857  
D5727    468545.873      468545.873        4516.943        6361.512     7845562.02503  11049508.66871  
D5826   1109911.953     1109911.953      105987.910      149269.826    18585184.17274  26174833.08791  
D5926    984199.991      984199.991       75326.679      106087.573    16480147.73279  23210170.21331  
> 2019 01 10  9 52  5.8000000  0  8                     
D3704   1059513.045     1059513.045       45691.464       64350.328    17741258.60594  24986276.56254  
D3903   1119195.406     1119195.406      107258.515      151059.302    18740634.82135  26393764.57907  
D4003    841153.947      841153.947       88827.583      125101.795    14084853.51879  19836718.00355  
D4103    797496.649      797496.649       25798.258       36333.403    13353815.64993  18807148.73407  
D5627    827270.889      827270.889       66241.173       93291.852    13852382.85937  19509314.10672  
D5727    468493.981      468493.981        4170.584        5873.711     7844693.10506  11048284.91091  
D5826   1108646.247     1108646.247      105957.732      149227.324    18563990.03438  26144983.97272  
D5926    983300.926      983300.926       75222.657      105941.073    16465092.96322  23188967.57967  
> 2019 01 10  9 52  6.0000000  0  8                     
D3704   1058968.118     1058968.118       45556.255       64159.905    17732133.85324  24973425.56621  
D3903   1117914.499     1117914.499      107232.688      151022.929    18719186.15365  26363556.99328  
D4003    840093.545      840093.545       88738.525      124976.369    14067097.16699  19811710.55191  
D4103    797189.726      797189.726       25594.966       36047.093    13348676.25426  18799910.58120  
D5627    826480.570      826480.570       66098.088       93090.335    13839149.02541  19490676.01786  
D5727    468446.227      468446.227        3824.120        5385.762     7843893.46742  11047158.72801  
D5826   1107380.903     1107380.903      105927.447      149184.672    18542801.94211  26115143.37266  
D5926    982403.105      982403.105       75118.349      105794.169    16450059.02570  23167794.28520  
> 2019 01 10  9 52  6.2000000  0  8                     
D3704   1058424.807     1058424.807       45420.837       63969.186    17723036.16286  24960612.68356  
D3903   1116633.902     1116633.902      107206.770      150986.427    18697742.66026  26333356.69482  
D4003    839034.208      839034.208       88649.113      124850.444    14049358.66108  19786728.23383  
D4103    796885.233      796885.233       25391.432       35760.443    13343577.54072  18792729.72368  
D5627    825691.962      825691.962       65954.579       92888.221    13825943.85031  19472078.29118  
D5727    468402.612      468402.612        3477.558        4897.677     7843163.13236  11046130.14856  
D5826   1106115.920     1106115.920      105897.061      149141.876    18521619.91744  26085311.31798  
D5926    981506.532      981506.532       75013.749      105646.853    16435045.97858  23146650.41206  
> 2019 01 10  9 52  6.4000000  0  8                     
D3704   1057883.115     1057883.115       45285.207       63778.170    17713965.57672  24947837.97359  
D3903   1115353.615     1115353.615      107180.759      150949.794    18676304.35959  26303163.70962  
D4003    837975.941      837975.941       88559.356      124724.033    14031638.07110  19761771.14794  
D4103    796583.172      796583.172       25187.661       35473.459    13338519.55717  18785606.22892  
D5627    824905.071      824905.071       65810.641       92685.505    13812767.41885  19453521.04607  
D5727    468363.137      468363.137        3130.909        4409.467     7842502.11841  11045199.19864  
D5826   1104851.302     1104851.302      105866.554      149098.911    18500443.98190  26055487.83906  
D5926    980611.210      980611.210       74908.856      105499.126    16420053.88031  23125536.04259  
> 2019 01 10  9 52  6.6000000  0  8                     
D3704   1057343.045     1057343.045       45149.367       63586.858    17704922.13666  24935101.49526  
D3903   1114073.639     1114073.639      107154.656      150913.032    18654871.27013  26272978.06372  
D4003    836918.749      836918.749       88469.246      124597.125    14013935.46736  19736839.39328  
D4103    796283.546      796283.546       24983.650       35186.137    13333502.35116  18778540.16388  
D5627    824119.901      824119.901       65666.279       92482.190    13799619.81595  19435004.40215  
D5727    468327.802      468327.802        2784.180        3921.146     7841910.44231  11044365.90181  
D5826   1103587.048     1103587.048      105835.945      149055.802    18479274.15721  26025672.96643  
D5926    979717.142      979717.142       74803.665      105350.979    16405082.78950  23104451.25932  
> 2019 01 10  9 52  6.8000000  0  8                     
D3704   1056804.598     1056804.598       45013.321       63395.255    17695905.88451  24922403.30746  
D3903   1112793.976     1112793.976      107128.460      150876.138    18633443.41043  26242799.78322  
D4003    835862.634      835862.634       88378.777      124469.712    13996250.92048  19711933.06928  
D4103    795986.359      795986.359       24779.407       34898.488    13328525.96994  18771531.59511  
D5627    823336.458      823336.458       65521.495       92278.282    13786501.12668  19416528.47921  
D5727    468296.609      468296.609        2437.381        3432.726     7841388.11903  11043630.27920  
D5826   1102323.160     1102323.160      105805.226      149012.540    18458110.46509  25995866.73071  
D5926    978824.332      978824.332       74698.185      105202.424    16390132.76489  23083396.14497  
> 2019 01 10  9 52  7.0000000  0  8                     
D3704   1056267.777     1056267.777       44877.064       63203.356    17686916.86203  24909743.46904  
D3903   1111514.626     1111514.626      107102.170      150839.113    18612020.79913  26212628.89439  
D4003    834807.603      834807.603       88287.958      124341.805    13978584.50136  19687052.27582  
D4103    795691.612      795691.612       24574.929       34610.507    13323590.46043  18764580.58870  
D5627    822554.747      822554.747       65376.285       92073.771    13773411.43625  19398093.39727  
D5727    468269.558      468269.558        2090.520        2944.219     7840935.16181  11042992.34940  
D5826   1101059.640     1101059.640      105774.398      148969.123    18436952.92740  25966069.16269  
D5926    977932.784      977932.784       74592.405      105053.448    16375203.86533  23062370.78244  
> 2019 01 10  9 52  7.2000000  0  8                     
