     3.02           OBSERVATION DATA    M: Mixed            RINEX VERSION / TYPE
BUPT PLAN 6.0                           20210405 120000 UTC PGM / RUN BY / DATE 
                                                            MARKER NAME         
                                                            MARKER NUMBER       
                                                            MARKER TYPE         
                                                            OBSERVER / AGENCY   
                                                            REC # / TYPE / VERS 
                                                            ANT # / TYPE        
 -2173831.7072  4381459.4593  4093731.0168                  APPROX POSITION XYZ 
        0.0000        0.0000        0.0000                  ANTENNA: DELTA H/E/N
D    6 C5D C7D D5D D7D L5D L7D                              SYS / # / OBS TYPES 
    30.000                                                  INTERVAL
  2019     1    10     9    51   54.0000000     GPS         TIME OF FIRST OBS   
  2019     1    10     9    54   44.0000000     GPS         TIME OF FIRST OBS   
                                                            END OF HEADER       
> 2019 01 10  9 51 54.0000000  0  8                     
D3704   1137279.878     1137279.878       49648.509       69923.299    19043826.16755  26820695.61844  
D3903   1226358.213     1226358.213      106078.549      149397.479    20535681.13424  28921774.22691  
D4003    878868.943      878868.943       90595.921      127592.264    14716833.59768  20726704.09075  
D4103    782520.446      782520.446       35244.245       49636.816    13103312.36848  18454274.78988  
D5627    861071.308      861071.308       73262.743      103180.795    14418758.51720  20306905.12283  
D5727    505664.199      505664.199       25575.438       36019.591     8467328.47730  11925110.22600  
D5826   1230604.122     1230604.122      105628.598      148763.782    20606778.19340  29021904.94569  
D5926   1087882.332     1087882.332       79773.465      112350.279    18216769.46940  25655896.64316  
> 2019 01 10  9 51 54.2000000  0  8                     
D3704   1136687.576     1136687.576       49525.785       69750.459    19033907.55121  26806726.57112  
D3903   1225091.422     1225091.422      106054.205      149363.193    20514468.27986  28891898.75272  
D4003    877787.346      877787.346       90521.029      127486.788    14698721.80298  20701196.04523  
D4103    782100.565      782100.565       35059.397       49376.481    13096280.95597  18444371.98381  
D5627    860196.914      860196.914       73147.293      103018.200    14404116.31289  20286283.53229  
D5727    505360.465      505360.465       25275.624       35597.342     8462241.94198  11917946.51987  
D5826   1229342.703     1229342.703      105602.606      148727.176    20585655.28234  28992156.14465  
D5926   1086930.015     1086930.015       79688.342      112230.394    18200822.44146  25633437.38269  
> 2019 01 10  9 51 54.4000000  0  8                     
D3704   1136096.741     1136096.741       49402.860       69577.335    19024013.49915  26792792.11933  
D3903   1223824.923     1223824.923      106029.779      149328.793    20493260.30229  28862030.14685  
D4003    876706.645      876706.645       90445.859      127380.920    14680625.01411  20675709.13341  
D4103    781682.893      781682.893       34874.258       49115.738    13089286.54142  18434521.28443  
D5627    859323.901      859323.901       73031.490      102855.106    14389497.23292  20265694.50931  
D5727    505060.315      505060.315       24975.295       35174.370     8457215.42019  11910867.33481  
D5826   1228081.595     1228081.595      105576.528      148690.449    20564537.57803  28962414.67663  
D5926   1085978.717     1085978.717       79602.986      112110.182    18184892.46098  25611002.13129  
> 2019 01 10  9 51 54.6000000  0  8                     
D3704   1135507.375     1135507.375       49279.741       69403.938    19014144.05094  26778892.31875  
D3903   1222558.715     1222558.715      106005.273      149294.279    20472057.21771  28832168.43212  
D4003    875626.844      875626.844       90370.403      127274.652    14662543.28684  20650243.43386  
D4103    781267.434      781267.434       34688.831       48854.588    13082329.18272  18424722.77327  
D5627    858452.273      858452.273       72915.339      102691.524    14374901.34743  20245138.15265  
D5727    504763.755      504763.755       24674.458       34750.681     8452249.01424  11903872.81487  
D5826   1226820.799     1226820.799      105550.359      148653.594    20543425.09754  28932680.56565  
D5926   1085028.439     1085028.439       79517.393      111989.635    18168979.57453  25588590.95456  
> 2019 01 10  9 51 54.8000000  0  8                     
D3704   1134919.480     1134919.480       49156.420       69230.257    19004299.24604  26765027.22499  
D3903   1221292.801     1221292.801      105980.685      149259.650    20450859.04241  28802313.63144  
D4003    874547.946      874547.946       90294.673      127167.995    14644476.67721  20624799.02548  
D4103    780854.191      780854.191       34503.117       48593.035    13075408.93757  18414976.53160  
D5627    857582.034      857582.034       72798.833      102527.440    14360328.72665  20224614.56124  
D5727    504470.791      504470.791       24373.117       34326.282     8447342.82541  11896963.10271  
D5826   1225560.316     1225560.316      105524.111      148616.626    20522317.85807  28902953.83596  
D5926   1084079.185     1084079.185       79431.570      111868.765    18153083.82885  25566203.91833  
> 2019 01 10  9 51 55.0000000  0  8                     
D3704   1134333.060     1134333.060       49032.906       69056.304    18994479.12397  26751196.89372  
D3903   1220027.181     1220027.181      105956.009      149224.897    20429665.79267  28772465.76777  
D4003    873469.954      873469.954       90218.660      127060.942    14626425.24143  20599375.98744  
D4103    780443.168      780443.168       34317.114       48331.076    13068525.86346  18405282.64037  
D5627    856713.189      856713.189       72681.978      102362.865    14345779.44107  20204123.83433  
D5727    504181.429      504181.429       24071.278       33901.183     8442496.95400  11890138.33960  
D5826   1224300.146     1224300.146      105497.775      148579.536    20501215.87682  28873234.51178  
D5926   1083130.957     1083130.957       79345.512      111747.564    18137205.27078  25543841.08853  
> 2019 01 10  9 51 55.2000000  0  8                     
D3704   1133748.116     1133748.116       48909.194       68882.072    18984683.72419  26737401.38049  
D3903   1218761.857     1218761.857      105931.263      149190.046    20408477.48500  28742624.86434  
D4003    872392.871      872392.871       90142.360      126953.483    14608389.03595  20573974.39923  
D4103    780034.369      780034.369       34130.828       48068.716    13061680.01773  18395641.18035  
D5627    855845.742      855845.742       72564.770      102197.793    14331253.56127  20183666.07134  
D5727    503895.675      503895.675       23768.943       33475.384     8437711.49927  11883398.66531  
D5826   1223040.292     1223040.292      105471.354      148542.325    20480119.17109  28843522.61745  
D5926   1082183.758     1082183.758       79259.215      111626.026    18121343.94723  25521502.53125  
> 2019 01 10  9 51 55.4000000  0  8                     
D3704   1133164.651     1133164.651       48785.282       68707.558    18974913.08616  26723640.74087  
D3903   1217496.828     1217496.828      105906.429      149155.070    20387294.13577  28712790.94420  
D4003    871316.701      871316.701       90065.786      126845.639    14590368.11749  20548594.34076  
D4103    779627.796      779627.796       33944.254       47805.951    13054871.45749  18386052.23196  
D5627    854979.696      854979.696       72447.203      102032.216    14316751.15801  20163241.37194  
D5727    503613.535      503613.535       23466.121       33048.899     8432986.55948  11876744.21823  
D5826   1221780.754     1221780.754      105444.845      148504.991    20459027.75821  28813818.17740  
D5926   1081237.592     1081237.592       79172.687      111504.163    18105499.90530  25499188.31285  
> 2019 01 10  9 51 55.6000000  0  8                     
D3704   1132582.667     1132582.667       48661.173       68532.768    18965167.24932  26709915.03042  
D3903   1216232.096     1216232.096      105881.505      149119.969    20366115.76150  28682964.03064  
D4003    870241.448      870241.448       89988.917      126737.378    14572362.54291  20523235.89210  
D4103    779223.453      779223.453       33757.396       47542.787    13048100.23967  18376515.87538  
D5627    854115.057      854115.057       72329.285      101866.145    14302272.30228  20142849.83607  
D5727    503335.015      503335.015       23162.815       32621.733     8428322.23183  11870175.13527  
D5826   1220521.533     1220521.533      105418.249      148467.534    20437941.65563  28784121.21620  
D5926   1080292.460     1080292.460       79085.923      111381.968    18089673.19217  25476898.49973  
> 2019 01 10  9 51 55.8000000  0  8                     
D3704   1132002.167     1132002.167       48536.870       68357.703    18955446.25310  26696224.30467  
D3903   1214967.663     1214967.663      105856.505      149084.759    20344942.37883  28653144.14708  
D4003    869167.114      869167.114       89911.766      126628.722    14554372.36938  20497899.13378  
D4103    778821.344      778821.344       33570.255       47279.224    13041366.42099  18367032.19052  
D5627    853251.829      853251.829       72211.007      101699.566    14287817.06514  20122491.56385  
D5727    503060.120      503060.120       22859.032       32193.896     8423718.61250  11863691.55187  
D5826   1219262.630     1219262.630      105391.559      148429.945    20416860.88080  28754431.75841  
D5926   1079348.366     1079348.366       78998.922      111259.438    18073863.85513  25454633.15852  
> 2019 01 10  9 51 56.0000000  0  8                     
D3704   1131423.152     1131423.152       48412.369       68182.360    18945750.13690  26682568.61910  
D3903   1213703.528     1213703.528      105831.421      149049.432    20323774.00440  28623331.31695  
D4003    868093.704      868093.704       89834.323      126519.653    14536397.65426  20472584.14654  
D4103    778421.471      778421.471       33382.834       47015.266    13034670.05800  18357601.25698  
D5627    852390.015      852390.015       72092.377      101532.491    14273385.51791  20102166.65570  
D5727    502788.857      502788.857       22554.774       31765.389     8419175.79658  11857293.60196  
D5826   1218004.047     1218004.047      105364.794      148392.249    20395785.45135  28724749.82889  
D5926   1078405.313     1078405.313       78911.679      111136.568    18058071.94157  25432392.35595  
> 2019 01 10  9 51 56.2000000  0  8                     
D3704   1130845.626     1130845.626       48287.669       68006.737    18936078.94009  26668948.02917  
D3903   1212439.694     1212439.694      105806.254      149013.987    20302610.65491  28593525.56379  
D4003    867021.220      867021.220       89756.596      126410.186    14518438.45518  20447291.01158  
D4103    778023.839      778023.839       33195.131       46750.912    13028011.20701  18348223.15409  
D5627    851529.620      851529.620       71973.384      101364.906    14258977.73201  20081875.21221  
D5727    502521.230      502521.230       22250.050       31336.226     8414693.87813  11850981.41800  
D5826   1216745.783     1216745.783      105337.934      148354.421    20374715.38482  28695075.45233  
D5926   1077463.303     1077463.303       78824.203      111013.369    18042297.49906  25410176.15903  
> 2019 01 10  9 51 56.4000000  0  8                     
D3704   1130269.590     1130269.590       48162.775       67830.840    18926432.70205  26655362.59034  
D3903   1211176.161     1211176.161      105781.002      148978.424    20281452.34716  28563726.91123  
D4003    865949.667      865949.667       89678.580      126300.310    14500494.82995  20422019.81030  
D4103    777628.450      777628.450       33007.147       46486.161    13021389.92414  18338897.96089  
D5627    850670.648      850670.648       71854.038      101196.822    14244593.77907  20061617.33426  
D5727    502257.246      502257.246       21944.863       30906.411     8410272.95012  11844755.13095  
D5826   1215487.841     1215487.841      105310.979      148316.459    20353650.69892  28665408.65366  
D5926   1076522.339     1076522.339       78736.488      110889.835    18026540.57523  25387984.63484  
> 2019 01 10  9 51 56.6000000  0  8                     
D3704   1129695.047     1129695.047       48037.684       67654.667    18916811.46214  26641812.35803  
D3903   1209912.930     1209912.930      105755.666      148942.741    20260299.09799  28533935.38303  
D4003    864879.046      864879.046       89600.272      126190.025    14482566.83664  20396770.62451  
D4103    777235.308      777235.308       32818.885       46221.020    13014806.26533  18329625.75615  
D5627    849813.104      849813.104       71734.328      101028.227    14230233.73084  20041393.12292  
D5727    501996.909      501996.909       21639.220       30475.954     8405913.10445  11838614.87021  
D5826   1214230.222     1214230.222      105283.942      148278.380    20332591.41145  28635749.45796  
D5926   1075582.424     1075582.424       78648.529      110765.957    18010801.21784  25365817.85062  
> 2019 01 10  9 51 56.8000000  0  8                     
D3704   1129121.999     1129121.999       47912.394       67478.213    18907215.25964  26628297.38758  
D3903   1208650.002     1208650.002      105730.246      148906.940    20239150.92432  28504151.00298  
D4003    863809.363      863809.363       89521.668      126079.321    14464654.53353  20371543.53626  
D4103    776844.417      776844.417       32630.344       45955.485    13008260.28627  18320406.61831  
D5627    848956.992      848956.992       71614.262      100859.130    14215897.65929  20021202.67952  
D5727    501740.226      501740.226       21333.126       30044.861     8401614.43191  11832560.76366  
D5826   1212972.926     1212972.926      105256.821      148240.185    20311537.54025  28606097.89035  
D5926   1074643.562     1074643.562       78560.336      110641.748    17995079.47479  25343675.87386  
> 2019 01 10  9 51 57.0000000  0  8                     
D3704   1128550.448     1128550.448       47786.908       67301.481    18897644.13388  26614817.73437  
D3903   1207387.378     1207387.378      105704.740      148871.018    20218007.84313  28474373.79501  
D4003    862740.620      862740.620       89442.775      125968.211    14446757.97918  20346338.62805  
D4103    776455.779      776455.779       32441.526       45689.559    13001752.04245  18311240.62553  
D5627    848102.316      848102.316       71493.835      100689.524    14201585.63652  20001046.10562  
D5727    501487.201      501487.201       21026.586       29613.140     8397377.02220  11826592.93765  
D5826   1211715.954     1211715.954      105229.605      148201.854    20290489.10314  28576453.97594  
D5926   1073705.754     1073705.754       78471.902      110517.200    17979375.39407  25321558.77212  
> 2019 01 10  9 51 57.2000000  0  8                     
D3704   1127980.398     1127980.398       47661.227       67124.478    18888098.12415  26601373.45373  
D3903   1206125.059     1206125.059      105679.149      148834.976    20196869.87147  28444603.78312  
D4003    861672.822      861672.822       89363.588      125856.687    14428877.23234  20321155.98261  
D4103    776069.398      776069.398       32252.433       45423.248    12995281.58919  18302127.85569  
D5627    847249.081      847249.081       71373.042      100519.403    14187297.73478  19980923.50297  
D5727    501237.840      501237.840       20719.605       29180.798     8393200.96392  11820711.51692  
D5826   1210459.308     1210459.308      105202.292      148163.388    20269446.11810  28546817.74003  
D5926   1072769.003     1072769.003       78383.222      110392.307    17963689.02378  25299466.61317  
> 2019 01 10  9 51 57.4000000  0  8                     
D3704   1127411.850     1127411.850       47535.349       66947.194    18878577.26969  26587964.60094  
D3903   1204863.046     1204863.046      105653.466      148798.805    20175737.02642  28414840.99139  
D4003    860605.971      860605.971       89284.100      125744.739    14411012.35200  20295995.68300  
D4103    775685.276      775685.276       32063.064       45156.547    12988848.98152  18293068.38633  
D5627    846397.290      846397.290       71251.891      100348.778    14173034.02654  19960834.97363  
D5727    500992.148      500992.148       20412.190       28747.845     8389086.34455  11814916.62469  
D5826   1209202.989     1209202.989      105174.896      148124.803    20248408.60323  28517189.20813  
D5926   1071833.313     1071833.313       78294.306      110267.080    17948020.41218  25277399.46496  
> 2019 01 10  9 51 57.6000000  0  8                     
D3704   1126844.807     1126844.807       47409.279       66769.642    18869081.60977  26574591.23129  
D3903   1203601.341     1203601.341      105627.702      148762.521    20154609.32522  28385085.44409  
D4003    859540.071      859540.071       89204.321      125632.380    14393163.39744  20270857.81272  
D4103    775303.419      775303.419       31873.421       44889.460    12982454.27433  18284062.29472  
D5627    845546.949      845546.949       71130.371      100177.635    14158794.58436  19940780.61981  
D5727    500750.131      500750.131       20104.348       28314.290     8385033.25042  11809208.38257  
D5826   1207946.997     1207946.997      105147.408      148086.091    20227376.57659  28487568.40568  
D5926   1070898.687     1070898.687       78205.143      110141.506    17932369.60760  25255357.39556  
> 2019 01 10  9 51 57.8000000  0  8                     
D3704   1126279.270     1126279.270       47283.007       66591.805    18859611.18354  26561253.39993  
D3903   1202339.944     1202339.944      105601.853      148726.116    20133486.78510  28355337.16546  
D4003    858475.125      858475.125       89124.244      125519.602    14375330.42809  20245742.45550  
D4103    774923.828      774923.828       31683.506       44621.990    12976097.52223  18275109.65781  
D5627    844698.061      844698.061       71008.492      100005.984    14144579.48105  19920760.54403  
D5727    500511.793      500511.793       19796.080       27880.136     8381041.76675  11803586.91055  
D5826   1206691.335     1206691.335      105119.829      148047.250    20206350.05637  28457955.35827  
D5926   1069965.127     1069965.127       78115.747      110015.603    17916736.65855  25233340.47329  
> 2019 01 10  9 51 58.0000000  0  8                     
D3704   1125715.243     1125715.243       47156.540       66413.693    18850166.03023  26547951.16210  
D3903   1201078.856     1201078.856      105575.917      148689.588    20112369.42335  28325596.17990  
D4003    857411.138      857411.138       89043.867      125406.402    14357513.50368  20220649.69543  
D4103    774546.507      774546.507       31493.321       44354.139    12969778.77966  18266210.55223  
D5627    843850.631      843850.631       70886.248       99833.820    14130388.78951  19900774.84897  
D5727    500277.139      500277.139       19487.397       27445.397     8377111.97761  11798052.32704  
D5826   1205436.002     1205436.002      105092.160      148008.281    20185329.06080  28428350.09161  
D5926   1069032.636     1069032.636       78026.098      109889.345    17901121.61354  25211348.76648  
> 2019 01 10  9 51 58.2000000  0  8                     
D3704   1125152.727     1125152.727       47029.880       66235.310    18840746.18901  26534684.57297  
D3903   1199818.078     1199818.078      105549.900      148652.946    20091257.25741  28295862.51193  
D4003    856348.113      856348.113       88963.190      125292.780    14339712.68416  20195579.61694  
D4103    774171.459      774171.459       31302.864       44085.906    12963498.10080  18257365.05431  
D5627    843004.663      843004.663       70763.634       99661.134    14116222.58282  19880823.63755  
D5727    500046.174      500046.174       19178.301       27010.077     8373243.96591  11792604.74881  
D5826   1204181.000     1204181.000      105064.398      147969.182    20164313.60821  28398752.63148  
D5926   1068101.217     1068101.217       77936.210      109762.750    17885524.52133  25189382.34379  
> 2019 01 10  9 51 58.4000000  0  8                     
D3704   1124591.726     1124591.726       46903.025       66056.651    18831351.69900  26521453.68763  
D3903   1198557.612     1198557.612      105523.783      148616.164    20070150.30464  28266136.18602  
D4003    855286.052      855286.052       88882.206      125178.725    14321928.02970  20170532.30478  
D4103    773798.687      773798.687       31112.139       43817.295    12957255.53962  18248573.24006  
D5627    842160.162      842160.162       70640.658       99487.939    14102080.93425  19860907.01298  
D5727    499818.904      499818.904       18868.799       26574.186     8369437.81341  11787244.29100  
D5826   1202926.330     1202926.330      105036.544      147929.953    20143303.71698  28369163.00379  
D5926   1067170.874     1067170.874       77846.077      109635.810    17869945.43073  25167441.27395  
> 2019 01 10  9 51 58.6000000  0  8                     
D3704   1124032.240     1124032.240       46775.971       65877.712    18821982.59930  26508258.56116  
D3903   1197297.458     1197297.458      105497.584      148579.267    20049048.58265  28236417.22696  
D4003    854224.961      854224.961       88800.925      125064.251    14304159.60077  20145507.84411  
D4103    773428.195      773428.195       30921.144       43548.305    12951051.14986  18239835.18516  
D5627    841317.131      841317.131       70517.314       99314.225    14087963.91721  19841025.07862  
D5727    499595.333      499595.333       18558.897       26137.729     8365693.60068  11781971.06710  
D5826   1201671.994     1201671.994      105008.598      147890.595    20122299.40557  28339581.23454  
D5926   1066241.608     1066241.608       77755.695      109508.519    17854384.39065  25145525.62588  
> 2019 01 10  9 51 58.8000000  0  8                     
D3704   1123474.274     1123474.274       46648.725       65698.503    18812638.92902  26495099.24863  
D3903   1196037.617     1196037.617      105471.298      148542.246    20027952.10898  28206705.65947  
D4003    853164.843      853164.843       88719.340      124949.349    14286407.45801  20120506.32034  
D4103    773059.986      773059.986       30729.883       43278.939    12944884.98503  18231150.96497  
D5627    840475.576      840475.576       70393.597       99139.987    14073871.60526  19821177.93809  
D5727    499375.465      499375.465       18248.601       25700.719     8362011.40715  11776785.18895  
D5826   1200417.992     1200417.992      104980.553      147851.097    20101300.69249  28310007.34978  
D5926   1065313.423     1065313.423       77665.073      109380.889    17838841.45018  25123635.46868  
> 2019 01 10  9 51 59.0000000  0  8                     
D3704   1122917.828     1122917.828       46521.281       65519.015    18803320.72718  26481975.80502  
D3903   1194778.091     1194778.091      105444.922      148505.100    20006860.90131  28177001.50842  
D4003    852105.701      852105.701       88637.445      124834.011    14268671.66232  20095527.81924  
D4103    772694.062      772694.062       30538.355       43009.198    12938757.09842  18222520.65454  
D5627    839635.501      839635.501       70269.512       98965.229    14059804.07214  19801365.69523  
D5727    499159.306      499159.306       17937.919       25263.165     8358391.31102  11771686.76672  
D5826   1199164.325     1199164.325      104952.420      147811.476    20080307.59638  28280441.37578  
D5926   1064386.322     1064386.322       77574.199      109252.906    17823316.65845  25101770.87156  
> 2019 01 10  9 51 59.2000000  0  8                     
D3704   1122362.905     1122362.905       46393.641       65339.251    18794028.03284  26468888.28530  
D3903   1193518.881     1193518.881      105418.459      148467.829    19985774.97737  28147304.79880  
D4003    851047.538      851047.538       88555.248      124718.247    14250952.27489  20070572.42699  
D4103    772330.428      772330.428       30346.565       42739.087    12932667.54307  18213944.32859  
D5627    838796.910      838796.910       70145.061       98789.956    14045761.39177  19781588.45415  
D5727    498946.860      498946.860       17626.853       24825.070     8354833.38933  11766675.90888  
D5826   1197910.995     1197910.995      104924.194      147771.724    20059320.13591  28250883.33882  
D5926   1063460.308     1063460.308       77483.083      109124.581    17807810.06479  25079931.90400  
> 2019 01 10  9 51 59.4000000  0  8                     
D3704   1121809.509     1121809.509       46265.812       65159.221    18784760.88502  26455836.74444  
D3903   1192259.987     1192259.987      105391.906      148430.433    19964694.35494  28117615.55566  
D4003    849990.360      849990.360       88472.744      124602.051    14233249.35710  20045640.23002  
D4103    771969.086      771969.086       30154.510       42468.602    12926616.37180  18205422.06148  
D5627    837959.808      837959.808       70020.234       98614.155    14031743.63817  19761846.31910  
D5727    498738.132      498738.132       17315.410       24386.444     8351337.71790  11761752.72223  
D5826   1196658.003     1196658.003      104895.875      147731.839    20038338.32981  28221333.26529  
D5926   1062535.384     1062535.384       77391.720      108995.908    17792321.71859  25058118.63555  
> 2019 01 10  9 51 59.6000000  0  8                     
D3704   1121257.640     1121257.640       46137.783       64978.909    18775519.32264  26442821.23727  
D3903   1191001.411     1191001.411      105365.263      148392.910    19943619.05190  28087933.80417  
D4003    848934.168      848934.168       88389.925      124485.412    14215562.97059  20020731.31515  
D4103    771610.040      771610.040       29962.194       42197.751    12920603.63719  18196953.92728  
D5627    837124.199      837124.199       69895.041       98437.837    14017750.88560  19742139.39465  
D5727    498533.125      498533.125       17003.599       23947.299     8347904.37136  11756917.31185  
D5826   1195405.349     1195405.349      104867.454      147691.813    20017362.19688  28191791.18166  
D5926   1061611.552     1061611.552       77300.109      108866.886    17776851.66938  25036331.13596  
> 2019 01 10  9 51 59.8000000  0  8                     
D3704   1120707.301     1120707.301       46009.559       64798.322    18766303.38466  26429841.81864  
D3903   1189743.153     1189743.153      105338.530      148355.261    19922549.08620  28058259.56960  
D4003    847878.967      847878.967       88306.807      124368.352    14197893.17727  19995845.76959  
D4103    771253.292      771253.292       29769.615       41926.529    12914629.39156  18188539.99967  
D5627    836290.087      836290.087       69769.475       98260.994    14003783.20839  19722467.78552  
D5727    498331.845      498331.845       16691.424       23507.643     8344533.42309  11752169.78113  
D5826   1194153.035     1194153.035      104838.946      147651.662    19996391.75607  28162257.11462  
D5926   1060688.816     1060688.816       77208.245      108737.508    17761399.96677  25014569.47511  
> 2019 01 10  9 52  0.0000000  0  8                     
D3704   1120158.495     1120158.495       45881.143       64617.467    18757113.11002  26416898.54339  
D3903   1188485.216     1188485.216      105311.707      148317.484    19901484.47583  28028592.87731  
D4003    846824.761      846824.761       88223.367      124250.838    14180240.03923  19970983.68075  
D4103    770898.846      770898.846       29576.776       41654.942    12908693.68702  18180180.35204  
D5627    835457.477      835457.477       69643.532       98083.620    13989840.68107  19702831.59665  
D5727    498134.296      498134.296       16378.890       23067.480     8341224.94528  11747510.23170  
D5826   1192901.063     1192901.063      104810.348      147611.387    19975427.02634  28132731.09088  
D5926   1059767.178     1059767.178       77116.136      108607.785    17745966.66055  24992833.72312  
> 2019 01 10  9 52  0.2000000  0  8                     
D3704   1119611.224     1119611.224       45752.533       64436.336    18747948.53756  26403991.46625  
D3903   1187227.599     1187227.599      105284.788      148279.572    19880425.23885  27998933.75272  
D4003    845771.554      845771.554       88139.615      124132.884    14162603.61886  19946145.13653  
D4103    770546.704      770546.704       29383.679       41382.990    12902796.57542  18171875.05742  
D5627    834626.374      834626.374       69517.220       97905.726    13975923.37837  19683230.93329  
D5727    497940.482      497940.482       16066.005       22626.823     8337979.00886  11742938.76348  
D5826   1191649.432     1191649.432      104781.649      147570.968    19954468.02668  28103213.13717  
D5926   1058846.643     1058846.643       77023.773      108477.704    17730551.80056  24971123.95019  
> 2019 01 10  9 52  0.4000000  0  8                     
D3704   1119065.490     1119065.490       45623.730       64254.934    18738809.70616  26391120.64194  
D3903   1185970.304     1185970.304      105257.784      148241.540    19859371.39347  27969282.22148  
D4003    844719.348      844719.348       88055.555      124014.496    14144983.97883  19921330.22516  
D4103    770196.870      770196.870       29190.326       41110.678    12896938.10837  18163624.18848  
D5627    833796.781      833796.781       69390.528       97727.298    13962031.37510  19663665.90079  
D5727    497750.406      497750.406       15752.773       22185.679     8334795.68354  11738455.47463  
D5826   1190398.145     1190398.145      104752.854      147530.414    19933514.77623  28073703.28047  
D5926   1057927.211     1057927.211       76931.164      108347.277    17715155.43684  24949440.22678  
> 2019 01 10  9 52  0.6000000  0  8                     
D3704   1118521.296     1118521.296       45494.726       64073.250    18729696.65460  26378286.12510  
D3903   1184713.333     1184713.333      105230.688      148203.380    19838322.95789  27939638.30923  
D4003    843668.149      843668.149       87971.179      123895.664    14127381.18198  19896539.03518  
D4103    769849.348      769849.348       28996.716       40838.005    12891118.33723  18155427.81757  
D5627    832968.704      832968.704       69263.466       97548.348    13948164.74629  19644136.60484  
D5727    497564.074      497564.074       15439.205       21744.059     8331675.03778  11734060.46158  
D5826   1189147.203     1189147.203      104723.957      147489.716    19912567.29417  28044201.54777  
D5926   1057008.888     1057008.888       76838.305      108216.497    17699777.61948  24927782.62345  
> 2019 01 10  9 52  0.8000000  0  8                     
D3704   1117978.644     1117978.644       45365.534       63891.300    18720609.42170  26365487.97040  
D3903   1183456.685     1183456.685      105203.501      148165.090    19817279.95041  27910002.04171  
D4003    842617.959      842617.959       87886.487      123776.387    14109795.29143  19871771.65545  
D4103    769504.139      769504.139       28802.851       40564.971    12885337.31310  18147286.01665  
D5627    832142.147      832142.147       69136.027       97368.867    13934323.56709  19624643.15126  
D5727    497381.489      497381.489       15125.303       21301.970     8328617.13878  11729753.81896  
D5826   1187896.606     1187896.606      104694.975      147448.899    19891625.59983  28014707.96629  
D5926   1056091.674     1056091.674       76745.194      108085.363    17684418.39869  24906151.21091  
> 2019 01 10  9 52  1.0000000  0  8                     
D3704   1117437.536     1117437.536       45236.149       63709.078    18711548.04619  26352726.23239  
D3903   1182200.363     1182200.363      105176.216      148126.662    19796242.38935  27880373.44477  
D4003    841568.782      841568.782       87801.477      123656.662    14092226.37056  19847028.17527  
D4103    769161.247      769161.247       28608.731       40291.580    12879595.08684  18139198.85736  
D5627    831317.114      831317.114       69008.207       97188.850    13920507.91279  19605185.64610  
D5727    497202.656      497202.656       14811.074       20859.421     8325622.05247  11725535.63964  
D5826   1186646.356     1186646.356      104665.885      147407.929    19870689.71244  27985222.56314  
D5926   1055175.575     1055175.575       76651.827      107953.868    17669077.82481  24884546.06004  
> 2019 01 10  9 52  1.2000000  0  8                     
D3704   1116897.974     1116897.974       45106.567       63526.579    18702512.56679  26340000.96558  
D3903   1180944.367     1180944.367      105148.850      148088.121    19775210.29326  27850752.54449  
D4003    840520.623      840520.623       87716.144      123536.481    14074674.48297  19822308.68418  
D4103    768820.675      768820.675       28414.359       40017.833    12873891.70906  18131166.41097  
D5627    830493.610      830493.610       68880.010       97008.301    13906717.85888  19585764.19568  
D5727    497027.577      497027.577       14496.524       20416.420     8322689.84353  11721406.01470  
D5826   1185396.453     1185396.453      104636.703      147366.831    19849759.65150  27955745.36576  
D5926   1054260.592     1054260.592       76558.211      107822.023    17653755.94833  24862967.24198  
> 2019 01 10  9 52  1.4000000  0  8                     
D3704   1116359.961     1116359.961       44976.795       63343.813    18693503.02219  26327312.22448  
D3903   1179688.699     1179688.699      105121.386      148049.441    19754183.68055  27821139.36684  
D4003    839473.485      839473.485       87630.496      123415.857    14057139.69258  19797613.27222  
D4103    768482.426      768482.426       28219.737       39743.733    12868227.23011  18123188.74838  
D5627    829671.639      829671.639       68751.438       96827.224    13892953.48100  19566378.90651  
D5727    496856.257      496856.257       14181.662       19972.978     8319820.57536  11717365.03343  
D5826   1184146.900     1184146.900      104607.423      147325.594    19828835.43648  27926276.40158  
D5926   1053346.729     1053346.729       76464.343      107689.821    17638452.81982  24841414.82792  
> 2019 01 10  9 52  1.6000000  0  8                     
D3704   1115823.499     1115823.499       44846.829       63160.774    18684519.45103  26314660.06350  
D3903   1178433.359     1178433.359      105093.828      148010.631    19733162.56987  27791533.93804  
D4003    838427.371      838427.371       87544.526      123294.780    14039622.06350  19772942.02966  
D4103    768146.504      768146.504       28024.866       39469.283    12862601.70009  18115265.94017  
D5627    828851.206      828851.206       68622.482       96645.608    13879214.85490  19547029.88529  
D5727    496688.700      496688.700       13866.492       19529.103     8317014.31007  11713412.78331  
D5826   1182897.698     1182897.698      104578.046      147284.220    19807917.08696  27896815.69817  
D5926   1052433.988     1052433.988       76370.216      107557.256    17623168.48996  24819888.88925  
> 2019 01 10  9 52  1.8000000  0  8                     
D3704   1115288.591     1115288.591       44716.667       62977.458    18675561.89190  26302044.53700  
D3903   1177178.349     1177178.349      105066.171      147971.679    19712146.97981  27761936.28432  
D4003    837382.287      837382.287       87458.234      123173.250    14022121.66009  19748295.04717  
D4103    767812.910      767812.910       27829.744       39194.481    12857015.16882  18107398.05648  
D5627    828032.316      828032.316       68493.151       96463.462    13865502.05654  19527717.23899  
D5727    496524.908      496524.908       13551.021       19084.805     8314271.10849  11709549.35001  
D5826   1181648.846     1181648.846      104548.570      147242.707    19787004.62256  27867363.28317  
D5926   1051522.373     1051522.373       76275.839      107424.339    17607903.00958  24798389.49756  
> 2019 01 10  9 52  2.0000000  0  8                     
D3704   1114755.239     1114755.239       44586.317       62793.876    18666630.38341  26289465.69935  
D3903   1175923.669     1175923.669      105038.432      147932.613    19691136.92922  27732346.43219  
D4003    836338.234      836338.234       87371.613      123051.255    14004638.54698  19723672.41576  
D4103    767481.648      767481.648       27634.376       38919.330    12851467.68587  18099585.16715  
D5627    827214.972      827214.972       68363.439       96280.779    13851815.16198  19508441.07474  
D5727    496364.887      496364.887       13235.257       18640.093     8311591.03015  11705774.81736  
D5826   1180400.348     1180400.348      104518.995      147201.055    19766098.06302  27837919.18437  
D5926   1050611.887     1050611.887       76181.207      107291.063    17592656.42961  24776916.72457  
> 2019 01 10  9 52  2.2000000  0  8                     
D3704   1114223.444     1114223.444       44455.771       62610.019    18657724.96406  26276923.60477  
D3903   1174669.322     1174669.322      105010.593      147893.405    19670132.43682  27702764.40803  
D4003    835295.219      835295.219       87284.667      122928.804    13987172.78907  19699074.22683  
D4103    767152.721      767152.721       27438.764       38643.836    12845959.30056  18091827.34163  
D5627    826399.180      826399.180       68233.341       96097.554    13838154.24745  19489201.49989  
D5727    496208.638      496208.638       12919.203       18194.973     8308974.13328  11702089.26738  
D5826   1179152.203     1179152.203      104489.322      147159.264    19745197.42813  27808483.42966  
D5926   1049702.533     1049702.533       76086.315      107157.420    17577428.80106  24755470.64213  
> 2019 01 10  9 52  2.4000000  0  8                     
D3704   1113693.210     1113693.210       44325.034       62425.894    18648845.67238  26264418.30751  
D3903   1173415.307     1173415.307      104982.653      147854.055    19649133.52149  27673190.23843  
D4003    834253.243      834253.243       87197.399      122805.899    13969724.45152  19674500.57216  
D4103    766826.132      766826.132       27242.906       38367.997    12840490.06192  18084124.64897  
D5627    825584.944      825584.944       68102.865       95913.796    13824519.38935  19469998.62205  
D5727    496056.166      496056.166       12602.869       17749.459     8306420.47480  11698492.78024  
D5826   1177904.413     1177904.413      104459.542      147117.323    19724302.73775  27779056.04699  
D5926   1048794.313     1048794.313       75991.172      107023.423    17562220.17515  24734051.32237  
> 2019 01 10  9 52  2.6000000  0  8                     
D3704   1113164.538     1113164.538       44194.103       62241.496    18639992.54680  26251949.86173  
D3903   1172161.627     1172161.627      104954.624      147814.581    19628140.20226  27643623.95020  
D4003    833212.312      833212.312       87109.805      122682.534    13952293.59971  19649951.54382  
D4103    766501.884      766501.884       27046.804       38091.814    12835060.01873  18076477.15786  
D5627    824772.269      824772.269       67972.002       95729.493    13810910.66421  19450832.54900  
D5727    495907.474      495907.474       12286.260       17303.557     8303930.11033  11694985.43426  
D5826   1176656.979     1176656.979      104429.675      147075.259    19703414.01191  27749637.06459  
D5926   1047887.231     1047887.231       75895.772      106889.065    17547030.60313  24712658.83748  
> 2019 01 10  9 52  2.8000000  0  8                     
D3704   1112637.432     1112637.432       44062.983       62056.830    18631165.62577  26239518.32155  
D3903   1170908.283     1170908.283      104926.500      147774.971    19607152.49813  27614065.57007  
D4003    832172.429      832172.429       87021.875      122558.697    13934880.29929  19625427.23426  
D4103    766179.979      766179.979       26850.459       37815.288    12829669.21949  18068884.93661  
D5627    823961.159      823961.159       67840.763       95544.660    13797328.14874  19431703.38876  
D5727    495762.566      495762.566       11969.383       16857.278     8301503.09415  11691567.30590  
D5826   1175409.903     1175409.903      104399.701      147033.045    19682531.27057  27720226.51054  
D5926   1046981.290     1046981.290       75800.114      106754.344    17531860.13640  24691293.25983  
> 2019 01 10  9 52  3.0000000  0  8                     
D3704   1112111.892     1112111.892       43931.671       61871.895    18622364.94765  26227123.74101  
D3903   1169655.274     1169655.274      104898.280      147735.227    19586170.42821  27584515.12499  
D4003    831133.599      831133.599       86933.627      122434.410    13917484.61620  19600927.73636  
D4103    765860.421      765860.421       26653.877       37538.428    12824317.71244  18061348.05318  
D5627    823151.619      823151.619       67709.132       95359.275    13783771.91972  19412611.24949  
D5727    495621.443      495621.443       11652.245       16410.631     8299139.47922  11688238.46974  
D5826   1174163.185     1174163.185      104369.620      146990.681    19661654.53383  27690824.41318  
D5926   1046076.494     1046076.494       75704.195      106619.254    17516708.82646  24669954.66197  
> 2019 01 10  9 52  3.2000000  0  8                     
D3704   1111587.923     1111587.923       43800.162       61686.682    18613590.55075  26214766.17407  
D3903   1168402.603     1168402.603      104869.964      147695.348    19565194.01169  27554972.64197  
D4003    830095.824      830095.824       86845.041      122309.649    13900106.61658  19576453.14326  
D4103    765543.212      765543.212       26457.053       37261.228    12819005.54553  18053866.57508  
D5627    822343.653      822343.653       67577.115       95173.347    13770242.05417  19393556.23964  
D5727    495484.110      495484.110       11334.851       15963.625     8296839.31720  11684998.99852  
D5826   1172916.827     1172916.827      104339.444      146948.182    19640783.82195  27661430.80103  
D5926   1045172.844     1045172.844       75608.021      106483.807    17501576.72498  24648643.11665  
> 2019 01 10  9 52  3.4000000  0  8                     
D3704   1111065.525     1111065.525       43668.466       61501.207    18604842.47344  26202445.67474  
D3903   1167150.272     1167150.272      104841.552      147655.333    19544223.26784  27525438.14814  
D4003    829059.109      829059.109       86756.117      122184.412    13882746.36684  19552003.54852  
D4103    765228.355      765228.355       26259.992       36983.694    12813732.76645  18046440.56949  
D5627    821537.266      821537.266       67444.712       94986.876    13756738.62921  19374538.46783  
D5727    495350.569      495350.569       11017.210       15516.270     8294602.65836  11681848.96306  
D5826   1171670.831     1171670.831      104309.167      146905.541    19619919.15516  27632045.70259  
D5926   1044270.345     1044270.345       75511.588      106347.994    17486463.88368  24627358.69674  
> 2019 01 10  9 52  3.6000000  0  8                     
D3704   1110544.701     1110544.701       43536.581       61315.463    18596120.75393  26190162.29687  
D3903   1165898.280     1165898.280      104813.042      147615.181    19523258.21601  27495911.67076  
D4003    828023.458      828023.458       86666.865      122058.712    13865403.93372  19527579.04610  
D4103    764915.854      764915.854       26062.697       36705.830    12808499.42261  18039070.10316  
D5627    820732.463      820732.463       67311.927       94799.865    13743261.72214  19355558.04294  
D5727    495220.824      495220.824       10699.327       15068.574     8292429.55166  11678788.43232  
D5826   1170425.196     1170425.196      104278.788      146862.755    19599060.55383  27602669.14653  
D5926   1043368.999     1043368.999       75414.892      106211.809    17471370.35442  24606101.47525  
> 2019 01 10  9 52  3.8000000  0  8                     
D3704   1110025.453     1110025.453       43404.500       61129.446    18587425.43043  26177916.09425  
D3903   1164646.629     1164646.629      104784.435      147574.892    19502298.87560  27466393.23716  
D4003    826988.875      826988.875       86577.277      121932.539    13848079.38415  19503179.73026  
D4103    764605.710      764605.710       25865.164       36427.632    12803305.56113  18031755.24247  
D5627    819929.248      819929.248       67178.754       94612.309    13729811.41036  19336615.07396  
D5727    495094.876      495094.876       10381.209       14620.548     8290320.04472  11675817.47334  
D5826   1169179.925     1169179.925      104248.306      146819.826    19578208.03838  27573301.16163  
D5926   1042468.809     1042468.809       75317.939      106075.265    17456296.18920  24584871.52543  
> 2019 01 10  9 52  4.0000000  0  8                     
D3704   1109507.784     1109507.784       43272.232       60943.164    18578756.54114  26165707.12069  
D3903   1163395.320     1163395.320      104755.731      147534.466    19481345.26613  27436882.87481  
D4003    825955.365      825955.365       86487.347      121805.885    13830772.78531  19478805.69565  
D4103    764297.927      764297.927       25667.400       36149.107    12798151.22886  18024496.05340  
D5627    819127.626      819127.626       67045.189       94424.200    13716387.77144  19317709.67013  
D5727    494972.730      494972.730       10062.864       14172.201     8288274.18379  11672936.15127  
D5826   1167935.018     1167935.018      104217.716      146776.743    19557361.62930  27543941.77672  
D5926   1041569.779     1041569.779       75220.726      105938.353    17441241.44012  24563668.92064  
> 2019 01 10  9 52  4.2000000  0  8                     
D3704   1108991.696     1108991.696       43139.774       60756.614    18570114.12417  26153535.42986  
D3903   1162144.355     1162144.355      104726.922      147493.893    19460397.40713  27407380.61123  
D4003    824922.930      824922.930       86397.085      121678.763    13813484.20472  19454457.03733  
D4103    763992.507      763992.507       25469.402       35870.254    12793036.47235  18017292.60150  
D5627    818327.601      818327.601       66911.239       94235.549    13702990.88310  19298841.94093  
D5727    494854.387      494854.387        9744.299       13723.544     8286292.01376  11670144.52935  
D5826   1166690.478     1166690.478      104187.034      146733.532    19536521.34726  27514591.02094  
D5926   1040671.911     1040671.911       75123.246      105801.066    17426206.15936  24542493.73440  
> 2019 01 10  9 52  4.4000000  0  8                     
D3704   1108477.191     1108477.191       43007.123       60569.792    18561498.21759  26141401.07537  
D3903   1160893.734     1160893.734      104698.021      147453.189    19439455.31831  27377886.47419  
D4003    823891.575      823891.575       86306.478      121551.155    13796213.71007  19430133.85064  
D4103    763689.454      763689.454       25271.174       35591.076    12787961.33789  18010144.95198  
D5627    817529.179      817529.179       66776.895       94046.344    13689620.82317  19280011.99598  
D5727    494739.851      494739.851        9425.518       13274.584     8284373.57818  11667442.66887  
D5826   1165446.304     1165446.304      104156.237      146690.159    19515687.21283  27485248.92325  
D5926   1039775.210     1039775.210       75025.510      105663.417    17411190.39930  24521346.04044  
> 2019 01 10  9 52  4.6000000  0  8                     
D3704   1107964.271     1107964.271       42875.958       60385.064    18552908.86566  26129304.11956  
D3903   1159643.459     1159643.459      104669.021      147412.347    19418519.01939  27348400.49145  
D4003    822861.305      822861.305       86215.535      121423.074    13778961.36942  19405836.23143  
D4103    763388.770      763388.770       25072.718       35311.577    12782925.87148  18003053.16959  
D5627    816732.364      816732.364       66642.165       93856.595    13676277.66970  19261219.94517  
D5727    494629.123      494629.123        9106.530       12825.332     8282518.91920  11664830.62924  
D5826   1164202.499     1164202.499      104125.348      146646.656    19494859.24688  27455915.51304  
D5926   1038879.677     1038879.677       74927.506      105525.392    17396194.21234  24500225.91260  
> 2019 01 10  9 52  4.8000000  0  8                     
D3704   1107452.940     1107452.940       42741.255       60195.353    18544346.08611  26117244.58741  
D3903   1158393.531     1158393.531      104639.922      147371.365    19397588.53017  27318922.69089  
D4003    821832.123      821832.123       86124.245      121294.505    13761727.25096  19381564.27576  
D4103    763090.457      763090.457       24874.032       35031.755    12777930.11878  17996017.31869  
D5627    815937.160      815937.160       66507.044       93666.295    13662961.50079  19242465.89852  
D5727    494522.206      494522.206        8787.342       12375.798     8280728.07763  11662308.46790  
D5826   1162959.063     1162959.063      104094.342      146602.988    19474037.47014  27426590.81949  
D5926   1037985.316     1037985.316       74829.248      105387.009    17381217.65110  24479133.42496  
> 2019 01 10  9 52  5.0000000  0  8                     
D3704   1106943.198     1106943.198       42608.034       60007.729    18535809.93879  26105222.56320  
D3903   1157143.951     1157143.951      104610.724      147330.242    19376663.87054  27289453.10055  
D4003    820804.033      820804.033       86032.617      121165.459    13744511.42328  19357318.08019  
D4103    762794.518      762794.518       24675.122       34751.616    12772974.12524  17989037.46324  
D5627    815143.572      815143.572       66371.527       93475.437    13649672.39472  19223749.96627  
D5727    494419.103      494419.103        8467.960       11925.991     8279001.09289  11659876.24039  
D5826   1161715.999     1161715.999      104063.238      146559.182    19453221.90360  27397274.87220  
D5926   1037092.131     1037092.131       74730.714      105248.236    17366260.76818  24458068.65160  
> 2019 01 10  9 52  5.2000000  0  8                     
D3704   1106435.049     1106435.049       42474.624       59819.839    18527300.45376  26093238.08926  
D3903   1155894.721     1155894.721      104581.425      147288.979    19355745.06049  27259991.74853  
D4003    819777.039      819777.039       85940.645      121035.928    13727313.95514  19333097.74161  
D4103    762500.957      762500.957       24475.986       34471.159    12768057.93595  17982113.66677  
D5627    814351.605      814351.605       66235.622       93284.033    13636410.42995  19205072.25891  
D5727    494319.815      494319.815        8148.391       11475.922     8277338.00301  11657534.00026  
D5826   1160473.306     1160473.306      104032.029      146515.228    19432412.56824  27367967.70069  
D5926   1036200.123     1036200.123       74631.928      105109.109    17351323.61647  24437031.66702  
> 2019 01 10  9 52  5.4000000  0  8                     
D3704   1105928.494     1105928.494       42341.027       59631.685    18518817.66886  26081291.21889  
D3903   1154645.841     1154645.841      104552.025      147247.574    19334832.12005  27230538.66309  
D4003    818751.146      818751.146       85848.326      120905.909    13710134.91562  19308903.35725  
D4103    762209.776      762209.776       24276.626       34190.388    12763181.59575  17975245.99242  
D5627    813561.264      813561.264       66099.319       93092.069    13623175.68499  19186432.88703  
D5727    494224.346      494224.346        7828.643       11025.599     8275738.84465  11655281.79914  
D5826   1159230.987     1159230.987      104000.713      146471.124    19411609.48516  27338669.33468  
D5926   1035309.298     1035309.298       74532.868      104969.597    17336406.24880  24416022.54562  
> 2019 01 10  9 52  5.6000000  0  8                     
D3704   1105423.535     1105423.535       42207.241       59443.266    18510361.62189  26069382.00533  
D3903   1153397.313     1153397.313      104522.519      147206.018    19313925.06934  27201093.87255  
D4003    817726.358      817726.358       85755.660      120775.402    13692974.37403  19284735.02478  
D4103    761920.977      761920.977       24077.044       33909.303    12758345.14914  17968434.50288  
D5627    812772.553      812772.553       65962.623       92899.551    13609968.23859  19167831.96151  
D5727    494132.697      494132.697        7508.722       10575.033     8274203.65308  11653119.68671  
D5826   1157989.043     1157989.043      103969.286      146426.863    19390812.67551  27309379.80396  
D5926   1034419.656     1034419.656       74433.548      104829.717    17321508.71824  24395041.36215  
> 2019 01 10  9 52  5.8000000  0  8                     
D3704   1104920.176     1104920.176       42073.264       59254.577    18501932.35059  26057510.50173  
D3903   1152149.137     1152149.137      104492.924      147164.337    19293023.92864  27171657.40548  
D4003    816702.678      816702.678       85662.641      120644.396    13675832.39995  19260592.84216  
D4103    761634.563      761634.563       23877.244       33627.911    12753548.64037  17961679.26044  
D5627    811985.477      811985.477       65825.536       92706.482    13596788.16956  19149269.59339  
D5727    494044.869      494044.869        7188.635       10124.233     8272732.46217  11651047.71066  
D5826   1156747.474     1156747.474      103937.764      146382.469    19370022.16060  27280099.13854  
D5926   1033531.203     1033531.203       74333.957      104689.457    17306631.07792  24374088.19141  
> 2019 01 10  9 52  6.0000000  0  8                     
D3704   1104418.419     1104418.419       41939.101       59065.626    18493529.89269  26045676.76122  
D3903   1150901.316     1150901.316      104463.220      147122.504    19272128.71818  27142229.29035  
D4003    815680.112      815680.112       85569.276      120512.905    13658709.06329  19236476.90786  
D4103    761350.537      761350.537       23677.223       33346.208    12748792.11335  17954980.32697  
D5627    811200.040      811200.040       65688.054       92512.857    13583635.55689  19130745.89387  
D5727    493960.866      493960.866        6868.389        9673.209     8271325.30439  11649065.91674  
D5826   1155506.283     1155506.283      103906.124      146337.907    19349237.96168  27250827.36834  
D5926   1032643.941     1032643.941       74234.103      104548.827    17291773.38111  24353163.10845  
> 2019 01 10  9 52  6.2000000  0  8                     
D3704   1103918.264     1103918.264       41804.748       58876.408    18485154.28582  26033880.83680  
D3903   1149653.851     1149653.851      104433.415      147080.527    19251239.45836  27112809.55589  
D4003    814658.663      814658.663       85475.555      120380.912    13641604.43414  19212387.32059  
D4103    761068.901      761068.901       23476.984       33064.199    12744075.61170  17948337.76389  
D5627    810416.248      810416.248       65550.172       92318.668    13570510.47967  19112260.97435  
D5727    493880.689      493880.689        6547.991        9221.972     8269982.21083  11647174.34872  
D5826   1154265.470     1154265.470      103874.381      146293.202    19328460.10025  27221564.52366  
D5926   1031757.873     1031757.873       74133.979      104407.815    17276935.68116  24332266.18840  
> 2019 01 10  9 52  6.4000000  0  8                     
D3704   1103419.716     1103419.716       41670.209       58686.928    18476805.56760  26022122.78146  
D3903   1148406.742     1148406.742      104403.501      147038.397    19230356.16960  27083398.23089  
D4003    813638.335      813638.335       85381.487      120248.428    13624518.58294  19188324.17955  
D4103    760789.657      760789.657       23276.530       32781.887    12739399.17875  17941751.63222  
D5627    809634.105      809634.105       65411.897       92123.927    13557413.01717  19093814.94649  
D5727    493804.339      493804.339        6227.449        8770.531     8268703.21115  11645373.04838  
D5826   1153025.037     1153025.037      103842.532      146248.346    19307688.59780  27192310.63475  
D5926   1030873.002     1030873.002       74033.595      104266.438    17262118.03160  24311397.50666  
> 2019 01 10  9 52  6.6000000  0  8                     
D3704   1102922.775     1102922.775       41535.480       58497.180    18468483.77556  26010402.64805  
D3903   1147159.990     1147159.990      104373.491      146996.131    19209478.87252  27053995.34436  
D4003    812619.133      812619.133       85287.064      120115.447    13607451.58034  19164287.58427  
D4103    760512.810      760512.810       23075.864       32499.274    12734762.85750  17935221.99254  
D5627    808853.616      808853.616       65273.222       91928.621    13544343.24875  19075407.92204  
D5727    493731.818      493731.818        5906.769        8318.896     8267488.33363  11643662.05553  
D5826   1151784.985     1151784.985      103810.580      146203.346    19286923.47594  27163065.73205  
D5926   1029989.332     1029989.332       73932.934      104124.671    17247320.48599  24290557.13864  
> 2019 01 10  9 52  6.8000000  0  8                     
D3704   1102427.445     1102427.445       41400.564       58307.169    18460188.94722  25998720.48940  
D3903   1145913.598     1145913.598      104343.377      146953.720    19188607.58769  27024600.92530  
D4003    811601.060      811601.060       85192.286      119981.964    13590403.49730  19140277.63465  
D4103    760238.360      760238.360       22874.983       32216.360    12730166.69066  17928748.90497  
D5627    808074.786      808074.786       65134.152       91732.760    13531301.25394  19057040.01302  
D5727    493663.129      493663.129        5585.958        7867.077     8266337.60512  11642041.40801  
D5826   1150545.315     1150545.315      103778.507      146158.176    19266164.75628  27133829.84600  
D5926   1029106.866     1029106.866       73832.009      103982.531    17232543.09808  24269745.16005  
> 2019 01 10  9 52  7.0000000  0  8                     
D3704   1101933.727     1101933.727       41265.466       58116.901    18451921.12002  25987076.35827  
D3903   1144667.566     1144667.566      104313.159      146911.162    19167742.33583  26995215.00286  
D4003    810584.122      810584.122       85097.146      119847.973    13573374.40502  19116294.43097  
D4103    759966.311      759966.311       22673.890       31933.149    12725610.72061  17922332.42923  
D5627    807297.619      807297.619       64994.684       91536.338    13518287.11238  19038711.33157  
D5727    493598.272      493598.272        5265.024        7415.083     8265251.05106  11640511.14163  
D5826   1149306.029     1149306.029      103746.331      146112.861    19245412.46067  27104603.00735  
D5926   1028225.607     1028225.607       73730.810      103840.006    17217785.92168  24248961.64667  
> 2019 01 10  9 52  7.2000000  0  8                     
