     3.02           OBSERVATION DATA    M: Mixed            RINEX VERSION / TYPE
BUPT PLAN 6.0                           20210227 042630 UTC PGM / RUN BY / DATE 
                                                            MARKER NAME         
                                                            MARKER NUMBER       
                                                            MARKER TYPE         
                                                            OBSERVER / AGENCY   
                                                            REC # / TYPE / VERS 
                                                            ANT # / TYPE        
        0.0000        0.0000        0.0000                  APPROX POSITION XYZ 
        0.0000        0.0000        0.0000                  ANTENNA: DELTA H/E/N
G    3 C1C L1C D1C                                          SYS / # / OBS TYPES 
  2019     1    10     9    50   24.0680349     GPS         TIME OF FIRST OBS   
  2019     1    10     9    51   27.9433589     GPS         TIME OF LAST OBS    
G                                                           SYS / PHASE SHIFT   
  0                                                         GLONASS SLOT / FRQ #
 C1C    0.000 C1P    0.000 C2C    0.000 C2P    0.000        GLONASS COD/PHS/BIS 
                                                            END OF HEADER       
> 2019  1 10  9 50 24.0680349  0  6                     
G 9  20682137.711      -18607.137        3102.219  
G16  17083370.907       -3155.669         525.660  
G23  18927233.918      -11771.977        1960.681  
G26  17360360.824        6701.176       -1120.783  
G27  19494844.871      -21370.393        3560.369  
G31  18786792.523       11726.319       -1955.874  
> 2019  1 10  9 50 24.1930356  0  6                     
G 9  20682064.027      -18994.796        3101.908  
G16  17083359.503       -3221.246         523.720  
G23  18927187.030      -12017.065        1962.401  
G26  17360387.909        6840.979       -1120.367  
G27  19494760.024      -21815.557        3560.924  
G31  18786838.458       11970.800       -1951.008  
> 2019  1 10  9 50 24.3180363  0  6                     
G 9  20681990.004      -19382.447        3100.103  
G16  17083346.750       -3286.812         522.957  
G23  18927140.557      -12262.141        1959.721  
G26  17360414.420        6980.790       -1120.904  
G27  19494674.872      -22260.728        3561.038  
G31  18786885.746       12215.278       -1956.285  
> 2019  1 10  9 50 24.4430368  0  6                     
G 9  20681916.821      -19770.090        3103.169  
G16  17083333.933       -3352.368         527.428  
G23  18927094.587      -12507.211        1959.939  
G26  17360441.050        7120.600       -1121.911  
G27  19494590.357      -22705.884        3561.363  
G31  18786932.302       12459.762       -1955.957  
> 2019  1 10  9 50 24.5680375  0  6                     
G 9  20681842.228      -20157.739        3099.668  
G16  17083322.057       -3417.914         527.627  
G23  18927047.279      -12752.283        1958.598  
G26  17360467.541        7260.421       -1119.870  
G27  19494506.028      -23151.040        3560.859  
G31  18786978.801       12704.247       -1952.193  
> 2019  1 10  9 50 24.6930382  0  6                     
G 9  20681769.588      -20545.372        3101.636  
G16  17083309.474       -3483.458         525.592  
G23  18927000.941      -12997.331        1960.247  
G26  17360493.373        7400.256       -1116.853  
G27  19494420.204      -23596.200        3560.265  
G31  18787025.018       12948.739       -1956.548  
> 2019  1 10  9 50 24.8180387  0  6                     
G 9  20681695.873      -20933.006        3100.998  
G16  17083297.334       -3548.990         523.702  
G23  18926954.156      -13242.387        1963.480  
G26  17360520.372        7540.083       -1119.639  
G27  19494336.015      -24041.343        3563.602  
G31  18787071.223       13193.233       -1958.379  
> 2019  1 10  9 50 24.9430394  0  6                     
G 9  20681621.102      -21320.640        3102.327  
G16  17083284.501       -3614.521         522.291  
G23  18926907.401      -13487.422        1961.259  
G26  17360547.356        7679.927       -1119.134  
G27  19494250.617      -24486.485        3559.771  
G31  18787118.089       13437.731       -1954.790  
> 2019  1 10  9 50 25.0680401  0  6                     
G 9  20681548.171      -21708.263        3098.871  
G16  17083272.067       -3680.038         523.649  
G23  18926860.829      -13732.458        1961.081  
G26  17360574.995        7819.771       -1117.396  
G27  19494166.247      -24931.625        3561.422  
G31  18787164.383       13682.232       -1956.916  
> 2019  1 10  9 50 25.1930406  0  6                     
G 9  20681473.993      -22095.871        3099.973  
G16  17083259.671       -3745.551         522.052  
G23  18926813.714      -13977.478        1958.562  
G26  17360601.436        7959.618       -1118.047  
G27  19494081.901      -25376.753        3561.344  
G31  18787211.184       13926.734       -1956.954  
> 2019  1 10  9 50 25.3180413  0  6                     
G 9  20681400.182      -22483.482        3105.803  
G16  17083246.826       -3811.045         525.711  
G23  18926767.229      -14222.495        1959.159  
G26  17360627.943        8099.476       -1118.349  
G27  19493997.644      -25821.889        3559.282  
G31  18787257.602       14171.242       -1957.981  
> 2019  1 10  9 50 25.4430420  0  6                     
G 9  20681326.958      -22871.093        3102.625  
G16  17083234.565       -3876.544         523.690  
G23  18926720.539      -14467.501        1959.852  
G26  17360654.000        8239.330       -1119.418  
G27  19493912.680      -26267.020        3561.666  
G31  18787304.199       14415.758       -1955.510  
> 2019  1 10  9 50 25.5680425  0  6                     
G 9  20681252.665      -23258.696        3100.919  
G16  17083221.742       -3942.026         522.454  
G23  18926674.421      -14712.507        1958.804  
G26  17360680.735        8379.207       -1117.195  
G27  19493828.330      -26712.130        3564.485  
G31  18787350.588       14660.276       -1957.144  
> 2019  1 10  9 50 25.6930432  0  6                     
G 9  20681179.260      -23646.293        3101.440  
G16  17083209.247       -4007.504         523.678  
G23  18926627.541      -14957.501        1958.108  
G26  17360707.092        8519.076       -1118.851  
G27  19493743.124      -27157.250        3562.676  
G31  18787397.589       14904.795       -1958.013  
> 2019  1 10  9 50 25.8180439  0  6                     
G 9  20681105.278      -24033.893        3099.005  
G16  17083196.540       -4072.978         524.660  
G23  18926580.780      -15202.481        1960.800  
G26  17360734.012        8658.955       -1117.018  
G27  19493658.571      -27602.366        3558.925  
G31  18787444.045       15149.322       -1959.244  
> 2019  1 10  9 50 25.9430444  0  6                     
G 9  20681031.597      -24421.480        3102.599  
G16  17083184.163       -4138.430         526.756  
G23  18926534.326      -15447.458        1961.835  
G26  17360760.683        8798.838       -1122.471  
G27  19493574.755      -28047.472        3561.371  
G31  18787490.543       15393.850       -1956.148  
> 2019  1 10  9 50 26.0680451  0  6                     
G 9  20680958.354      -24809.066        3101.619  
G16  17083171.891       -4203.899         522.380  
G23  18926487.862      -15692.424        1961.013  
G26  17360787.572        8938.725       -1117.792  
G27  19493489.408      -28492.572        3561.115  
G31  18787537.115       15638.385       -1958.049  
> 2019  1 10  9 50 26.1930459  0  6                     
G 9  20680884.503      -25196.644        3101.419  
G16  17083159.203       -4269.339         522.664  
G23  18926441.698      -15937.378        1957.309  
G26  17360813.619        9078.616       -1119.911  
G27  19493404.823      -28937.678        3559.556  
G31  18787583.929       15882.926       -1955.635  
> 2019  1 10  9 50 26.3180463  0  6                     
G 9  20680810.525      -25584.216        3099.392  
G16  17083146.794       -4334.777         523.873  
G23  18926394.855      -16182.338        1959.907  
G26  17360839.684        9218.515       -1120.498  
G27  19493320.306      -29382.771        3562.693  
G31  18787630.144       16127.469       -1956.880  
> 2019  1 10  9 50 26.4430470  0  6                     
G 9  20680736.241      -25971.786        3100.325  
G16  17083134.855       -4400.207         523.197  
G23  18926347.457      -16427.283        1961.413  
G26  17360866.922        9358.429       -1117.969  
G27  19493235.653      -29827.863        3560.213  
G31  18787677.070       16372.010       -1956.831  
> 2019  1 10  9 50 26.5680478  0  6                     
G 9  20680663.311      -26359.349        3100.021  
G16  17083122.506       -4465.627         528.473  
G23  18926300.947      -16672.223        1959.485  
G26  17360893.624        9498.338       -1120.023  
G27  19493151.093      -30272.944        3561.040  
G31  18787722.984       16616.558       -1956.999  
> 2019  1 10  9 50 26.6930482  0  6                     
G 9  20680589.836      -26746.913        3096.647  
G16  17083109.755       -4531.047         522.354  
G23  18926254.264      -16917.151        1958.018  
G26  17360919.581        9638.257       -1117.519  
G27  19493065.692      -30718.024        3559.081  
G31  18787770.340       16861.111       -1953.799  
> 2019  1 10  9 50 26.8180490  0  6                     
G 9  20680515.985      -27134.460        3100.329  
G16  17083097.375       -4596.456         524.464  
G23  18926208.035      -17162.065        1959.866  
G26  17360946.712        9778.179       -1118.524  
G27  19492981.044      -31163.098        3560.072  
G31  18787816.558       17105.660       -1955.132  
> 2019  1 10  9 50 26.9430497  0  6                     
G 9  20680441.363      -27522.009        3099.312  
G16  17083085.351       -4661.857         523.268  
G23  18926161.494      -17406.980        1959.703  
G26  17360973.803        9918.109       -1119.691  
G27  19492896.329      -31608.171        3559.626  
G31  18787863.001       17350.223       -1955.871  
> 2019  1 10  9 50 27.0680501  0  6                     
G 9  20680367.806      -27909.553        3099.156  
G16  17083072.592       -4727.254         521.778  
G23  18926114.936      -17651.888        1957.763  
G26  17361000.346       10058.044       -1119.078  
G27  19492811.953      -32053.237        3561.989  
G31  18787909.274       17594.788       -1956.084  
> 2019  1 10  9 50 27.1930509  0  6                     
G 9  20680294.316      -28297.089        3100.871  
G16  17083059.853       -4792.632         521.187  
G23  18926068.219      -17896.781        1957.438  
G26  17361027.156       10197.980       -1122.195  
G27  19492726.890      -32498.302        3559.224  
G31  18787955.843       17839.352       -1953.650  
> 2019  1 10  9 50 27.3180516  0  6                     
G 9  20680221.298      -28684.624        3099.979  
G16  17083047.770       -4858.011         519.430  
G23  18926021.134      -18141.670        1960.013  
G26  17361053.727       10337.926       -1118.611  
G27  19492641.651      -32943.358        3561.559  
G31  18788002.329       18083.932       -1956.796  
> 2019  1 10  9 50 27.4430521  0  6                     
G 9  20680147.843      -29072.154        3104.575  
G16  17083035.150       -4923.372         523.542  
G23  18925975.250      -18386.551        1960.626  
G26  17361080.163       10477.877       -1123.215  
G27  19492557.274      -33388.416        3558.576  
G31  18788048.383       18328.501       -1957.422  
> 2019  1 10  9 50 27.5680528  0  6                     
G 9  20680073.288      -29459.678        3099.900  
G16  17083022.003       -4988.736         523.130  
G23  18925928.628      -18631.424        1959.521  
G26  17361106.743       10617.832       -1120.127  
G27  19492472.711      -33833.464        3561.809  
G31  18788094.475       18573.078       -1957.216  
> 2019  1 10  9 50 27.6930535  0  6                     
G 9  20679999.444      -29847.207        3097.921  
G16  17083010.206       -5054.090         521.448  
G23  18925882.457      -18876.294        1957.435  
G26  17361132.435       10757.797       -1119.020  
G27  19492387.800      -34278.506        3558.740  
G31  18788141.903       18817.672       -1956.282  
> 2019  1 10  9 50 27.8180540  0  6                     
G 9  20679925.043      -30234.720        3098.179  
G16  17082998.736       -5119.433         526.109  
G23  18925835.931      -19121.141        1958.589  
G26  17361159.204       10897.766       -1121.176  
G27  19492303.180      -34723.552        3557.464  
G31  18788188.687       19062.253       -1954.889  
> 2019  1 10  9 50 27.9430547  0  6                     
G 9  20679851.493      -30622.226        3098.626  
G16  17082986.274       -5184.766         523.781  
G23  18925788.617      -19365.998        1960.180  
G26  17361185.752       11037.735       -1123.741  
G27  19492218.917      -35168.584        3563.498  
G31  18788235.172       19306.845       -1955.258  
> 2019  1 10  9 50 28.0680554  0  6                     
G 9  20679778.283      -31009.735        3098.812  
G16  17082973.564       -5250.102         521.361  
G23  18925741.862      -19610.831        1958.963  
G26  17361213.591       11177.713       -1120.610  
G27  19492134.248      -35613.616        3558.835  
G31  18788281.624       19551.435       -1956.904  
> 2019  1 10  9 50 28.1930559  0  6                     
G 9  20679704.010      -31397.234        3098.862  
G16  17082961.135       -5315.418         522.540  
G23  18925695.386      -19855.665        1957.957  
G26  17361239.577       11317.699       -1119.569  
G27  19492049.304      -36058.644        3561.686  
G31  18788328.436       19796.042       -1955.576  
> 2019  1 10  9 50 28.3180566  0  6                     
G 9  20679631.040      -31784.728        3101.089  
G16  17082948.447       -5380.729         519.637  
G23  18925648.450      -20100.490        1959.945  
G26  17361266.385       11457.692       -1118.999  
G27  19491965.010      -36503.665        3558.250  
G31  18788374.472       20040.639       -1959.670  
> 2019  1 10  9 50 28.4430573  0  6                     
G 9  20679557.224      -32172.218        3103.225  
G16  17082935.533       -5446.040         520.612  
G23  18925601.560      -20345.306        1954.433  
G26  17361292.578       11597.686       -1119.889  
G27  19491880.348      -36948.680        3559.762  
G31  18788421.034       20285.248       -1956.649  
> 2019  1 10  9 50 28.5680578  0  6                     
G 9  20679483.897      -32559.707        3098.767  
G16  17082922.464       -5511.334         523.159  
G23  18925555.721      -20590.119        1958.445  
G26  17361319.973       11737.690       -1119.893  
G27  19491796.122      -37393.698        3558.656  
G31  18788467.732       20529.861       -1958.168  
> 2019  1 10  9 50 28.6930585  0  6                     
G 9  20679410.234      -32947.189        3099.263  
G16  17082910.763       -5576.624         520.565  
G23  18925509.283      -20834.917        1959.914  
G26  17361346.734       11877.695       -1118.655  
G27  19491711.532      -37838.707        3559.926  
G31  18788514.537       20774.475       -1958.478  
> 2019  1 10  9 50 28.8180592  0  6                     
G 9  20679336.583      -33334.659        3100.080  
G16  17082898.512       -5641.903         521.856  
G23  18925462.426      -21079.711        1956.383  
G26  17361373.238       12017.710       -1121.792  
G27  19491626.350      -38283.709        3559.677  
G31  18788560.986       21019.085       -1954.804  
> 2019  1 10  9 50 28.9430597  0  6                     
G 9  20679261.900      -33722.137        3101.860  
G16  17082886.003       -5707.180         521.186  
G23  18925416.339      -21324.495        1956.792  
G26  17361399.496       12157.729       -1118.373  
G27  19491541.762      -38728.708        3560.186  
G31  18788607.678       21263.716       -1958.156  
> 2019  1 10  9 50 29.0680604  0  6                     
G 9  20679188.415      -34109.604        3099.484  
G16  17082873.953       -5772.445         522.799  
G23  18925369.358      -21569.266        1957.829  
G26  17361426.335       12297.753       -1120.680  
G27  19491456.804      -39173.705        3560.255  
G31  18788654.047       21508.342       -1960.048  
> 2019  1 10  9 50 29.1930609  0  6                     
G 9  20679114.684      -34497.070        3099.293  
G16  17082861.956       -5837.700         523.617  
G23  18925322.658      -21814.040        1957.448  
G26  17361453.086       12437.784       -1119.305  
G27  19491371.798      -39618.698        3563.282  
G31  18788700.090       21752.972       -1955.284  
> 2019  1 10  9 50 29.3180616  0  6                     
G 9  20679040.538      -34884.521        3099.177  
G16  17082849.733       -5902.954         523.013  
G23  18925276.351      -22058.801        1958.068  
G26  17361479.849       12577.818       -1122.009  
G27  19491287.385      -40063.687        3561.845  
G31  18788747.138       21997.607       -1957.099  
> 2019  1 10  9 50 29.4430623  0  6                     
G 9  20678967.138      -35271.972        3099.985  
G16  17082836.532       -5968.194         522.904  
G23  18925229.574      -22303.551        1956.456  
G26  17361506.209       12717.856       -1121.524  
G27  19491202.858      -40508.670        3559.652  
G31  18788794.003       22242.239       -1959.470  
> 2019  1 10  9 50 29.5680628  0  6                     
G 9  20678893.200      -35659.420        3097.168  
G16  17082823.977       -6033.431         521.942  
G23  18925182.965      -22548.293        1958.898  
G26  17361533.263       12857.908       -1119.807  
G27  19491117.924      -40953.639        3561.410  
G31  18788840.519       22486.883       -1957.965  
> 2019  1 10  9 50 29.6930635  0  6                     
G 9  20678819.684      -36046.858        3099.436  
G16  17082811.504       -6098.657         521.733  
G23  18925136.192      -22793.033        1959.642  
G26  17361559.515       12997.960       -1121.781  
G27  19491033.136      -41398.615        3561.490  
G31  18788886.959       22731.531       -1956.149  
> 2019  1 10  9 50 29.8180642  0  6                     
G 9  20678745.380      -36434.299        3099.656  
G16  17082799.348       -6163.876         521.971  
G23  18925089.598      -23037.765        1956.337  
G26  17361586.024       13138.019       -1122.742  
G27  19490948.764      -41843.586        3559.960  
G31  18788933.505       22976.176       -1957.695  
> 2019  1 10  9 50 29.9430647  0  6                     
G 9  20678671.444      -36821.725        3102.942  
G16  17082786.698       -6229.085         521.013  
G23  18925043.201      -23282.486        1957.410  
G26  17361612.956       13278.083       -1122.252  
G27  19490864.041      -42288.551        3557.928  
G31  18788979.413       23220.830       -1955.443  
> 2019  1 10  9 50 30.0680654  0  6                     
G 9  20678597.811      -37209.159        3100.390  
G16  17082774.437       -6294.287         524.217  
G23  18924997.524      -23527.198        1958.984  
G26  17361639.044       13418.152       -1119.160  
G27  19490779.189      -42733.508        3558.867  
G31  18789025.811       23465.495       -1955.985  
> 2019  1 10  9 50 30.1930661  0  6                     
G 9  20678524.451      -37596.587        3098.366  
G16  17082761.267       -6359.483         522.255  
G23  18924950.382      -23771.898        1957.095  
G26  17361665.874       13558.230       -1117.924  
G27  19490694.293      -43178.462        3561.811  
G31  18789073.059       23710.153       -1957.855  
> 2019  1 10  9 50 30.3180666  0  6                     
G 9  20678450.660      -37984.002        3100.431  
G16  17082749.466       -6424.669         522.629  
G23  18924903.780      -24016.598        1957.029  
G26  17361692.554       13698.308       -1123.642  
G27  19490609.783      -43623.415        3559.915  
G31  18789119.617       23954.819       -1959.609  
> 2019  1 10  9 50 30.4430673  0  6                     
G 9  20678376.607      -38371.413        3095.348  
G16  17082737.099       -6489.852         521.529  
G23  18924856.887      -24261.285        1956.964  
G26  17361719.155       13838.397       -1119.304  
G27  19490525.109      -44068.361        3557.808  
G31  18789166.003       24199.482       -1959.601  
> 2019  1 10  9 50 30.5680680  0  6                     
G 9  20678303.591      -38758.821        3099.487  
G16  17082725.843       -6555.020         524.335  
G23  18924810.170      -24505.973        1956.420  
G26  17361745.383       13978.483       -1122.021  
G27  19490440.601      -44513.301        3559.983  
G31  18789213.354       24444.163       -1954.722  
> 2019  1 10  9 50 30.6930685  0  6                     
G 9  20678229.987      -39146.227        3099.927  
G16  17082713.038       -6620.188         519.982  
G23  18924764.251      -24750.639        1958.879  
G26  17361773.233       14118.585       -1122.630  
G27  19490356.176      -44958.239        3559.624  
G31  18789259.721       24688.835       -1955.919  
> 2019  1 10  9 50 30.8180692  0  6                     
G 9  20678156.345      -39533.625        3102.370  
G16  17082700.310       -6685.342         524.080  
G23  18924717.673      -24995.303        1958.312  
G26  17361799.746       14258.688       -1121.262  
G27  19490271.597      -45403.172        3559.499  
G31  18789306.075       24933.516       -1958.818  
> 2019  1 10  9 50 30.9430699  0  6                     
G 9  20678082.487      -39921.018        3098.096  
G16  17082688.134       -6750.490         521.429  
G23  18924671.037      -25239.959        1956.452  
G26  17361825.921       14398.796       -1123.797  
G27  19490186.923      -45848.099        3559.848  
G31  18789352.001       25178.205       -1954.532  
> 2019  1 10  9 50 31.0680704  0  6                     
G 9  20678008.460      -40308.407        3099.073  
G16  17082675.876       -6815.630         523.989  
G23  18924624.967      -25484.610        1955.672  
G26  17361852.476       14538.912       -1120.823  
G27  19490102.451      -46293.022        3556.896  
G31  18789399.085       25422.893       -1960.453  
> 2019  1 10  9 50 31.1930711  0  6                     
G 9  20677934.672      -40695.791        3097.060  
G16  17082662.649       -6880.758         520.881  
G23  18924578.010      -25729.251        1956.696  
G26  17361879.296       14679.032       -1118.970  
G27  19490017.542      -46737.951        3558.629  
G31  18789445.440       25667.581       -1954.706  
> 2019  1 10  9 50 31.3180718  0  6                     
G 9  20677861.227      -41083.171        3098.516  
G16  17082650.318       -6945.882         520.679  
G23  18924531.177      -25973.888        1954.298  
G26  17361905.695       14819.160       -1120.294  
G27  19489932.232      -47182.864        3558.816  
G31  18789491.985       25912.276       -1956.447  
> 2019  1 10  9 50 31.4430723  0  6                     
G 9  20677787.541      -41470.545        3094.874  
G16  17082638.255       -7011.003         519.031  
G23  18924484.436      -26218.513        1959.784  
G26  17361932.648       14959.291       -1122.703  
G27  19489847.610      -47627.768        3560.489  
G31  18789538.489       26156.982       -1959.092  
> 2019  1 10  9 50 31.5680730  0  6                     
G 9  20677713.192      -41857.910        3101.268  
G16  17082626.270       -7076.114         520.381  
G23  18924437.824      -26463.122        1954.824  
G26  17361959.253       15099.421       -1123.622  
G27  19489763.294      -48072.674        3558.446  
G31  18789585.533       26401.681       -1956.050  
> 2019  1 10  9 50 31.6930737  0  6                     
G 9  20677639.657      -42245.274        3096.271  
G16  17082613.390       -7141.213         520.184  
G23  18924391.364      -26707.738        1954.746  
G26  17361985.502       15239.567       -1118.551  
G27  19489678.833      -48517.578        3559.678  
G31  18789631.495       26646.390       -1957.566  
> 2019  1 10  9 50 31.8180742  0  6                     
G 9  20677566.638      -42632.629        3101.681  
G16  17082600.501       -7206.305         521.061  
G23  18924345.041      -26952.341        1958.365  
G26  17362012.969       15379.720       -1120.757  
G27  19489594.488      -48962.479        3557.303  
G31  18789677.771       26891.095       -1958.263  
> 2019  1 10  9 50 31.9430749  0  6                     
G 9  20677492.369      -43019.985        3099.530  
G16  17082587.940       -7271.386         522.159  
G23  18924298.796      -27196.930        1956.634  
G26  17362039.031       15519.861       -1121.879  
G27  19489509.810      -49407.367        3556.972  
G31  18789724.182       27135.811       -1958.376  
> 2019  1 10  9 50 32.0680757  0  6                     
G 9  20677418.812      -43407.337        3098.512  
G16  17082575.617       -7336.466         522.755  
G23  18924252.688      -27441.516        1955.530  
G26  17362065.556       15660.034       -1121.151  
G27  19489425.155      -49852.256        3559.120  
G31  18789771.382       27380.533       -1958.319  
> 2019  1 10  9 50 32.1930761  0  6                     
G 9  20677345.173      -43794.679        3099.919  
G16  17082563.359       -7401.535         522.119  
G23  18924205.438      -27686.098        1957.812  
G26  17362092.839       15800.194       -1119.467  
G27  19489340.442      -50297.139        3557.971  
G31  18789818.187       27625.261       -1954.086  
> 2019  1 10  9 50 32.3180768  0  6                     
G 9  20677270.999      -44182.023        3096.858  
G16  17082551.419       -7466.596         520.854  
G23  18924159.078      -27930.658        1960.120  
G26  17362119.509       15940.365       -1123.943  
G27  19489256.147      -50742.018        3561.513  
G31  18789864.968       27869.982       -1958.124  
> 2019  1 10  9 50 32.4430776  0  6                     
G 9  20677198.128      -44569.360        3100.408  
G16  17082539.102       -7531.651         519.404  
G23  18924111.787      -28175.218        1955.142  
G26  17362145.789       16080.537       -1122.654  
G27  19489170.830      -51186.893        3556.711  
G31  18789911.504       28114.715       -1957.140  
> 2019  1 10  9 50 32.5680780  0  6                     
G 9  20677124.141      -44956.688        3101.761  
G16  17082526.613       -7596.696         523.894  
G23  18924065.182      -28419.780        1954.322  
G26  17362172.395       16220.728       -1119.673  
G27  19489085.869      -51631.764        3560.740  
G31  18789957.895       28359.454       -1959.480  
> 2019  1 10  9 50 32.6930788  0  6                     
G 9  20677050.558      -45344.011        3097.840  
G16  17082513.986       -7661.732         521.698  
G23  18924019.334      -28664.325        1958.824  
G26  17362199.013       16360.914       -1123.013  
G27  19489001.746      -52076.631        3556.590  
G31  18790004.144       28604.191       -1953.797  
> 2019  1 10  9 50 32.8180795  0  6                     
G 9  20676976.515      -45731.333        3094.656  
G16  17082501.380       -7726.762         519.849  
G23  18923972.390      -28908.858        1956.290  
G26  17362226.224       16501.101       -1121.478  
G27  19488916.835      -52521.490        3559.100  
G31  18790050.586       28848.932       -1956.063  
> 2019  1 10  9 50 32.9430799  0  6                     
G 9  20676903.047      -46118.647        3099.832  
G16  17082489.195       -7791.788         516.187  
G23  18923926.062      -29153.384        1953.722  
G26  17362252.741       16641.299       -1119.413  
G27  19488831.707      -52966.346        3560.746  
G31  18790097.336       29093.675       -1958.591  
> 2019  1 10  9 50 33.0680807  0  6                     
G 9  20676829.221      -46505.958        3096.684  
G16  17082477.104       -7856.796         521.245  
G23  18923880.005      -29397.913        1954.943  
G26  17362279.336       16781.509       -1121.495  
G27  19488746.538      -53411.203        3561.438  
G31  18790144.184       29338.426       -1958.561  
> 2019  1 10  9 50 33.1930814  0  6                     
G 9  20676755.739      -46893.263        3101.079  
G16  17082464.682       -7921.803         518.414  
G23  18923833.503      -29642.423        1957.968  
G26  17362305.635       16921.721       -1122.277  
G27  19488662.696      -53856.051        3559.653  
G31  18790190.606       29583.184       -1958.073  
> 2019  1 10  9 50 33.3180819  0  6                     
G 9  20676681.571      -47280.563        3097.982  
G16  17082452.417       -7986.803         520.176  
G23  18923786.982      -29886.928        1955.235  
G26  17362332.223       17061.937       -1123.284  
G27  19488578.432      -54300.893        3558.926  
G31  18790237.597       29827.946       -1960.203  
> 2019  1 10  9 50 33.4430826  0  6                     
G 9  20676607.431      -47667.860        3097.973  
G16  17082440.372       -8051.796         521.151  
G23  18923740.884      -30131.422        1957.254  
G26  17362359.299       17202.156       -1123.118  
G27  19488493.602      -54745.727        3559.630  
G31  18790284.871       30072.708       -1957.377  
> 2019  1 10  9 50 33.5680833  0  6                     
G 9  20676533.213      -48055.155        3100.391  
G16  17082428.111       -8116.775         519.188  
G23  18923694.411      -30375.913        1955.031  
G26  17362385.586       17342.385       -1121.192  
G27  19488408.787      -55190.564        3558.055  
G31  18790330.466       30317.472       -1956.433  
> 2019  1 10  9 50 33.6930838  0  6                     
G 9  20676460.467      -48442.436        3097.292  
G16  17082415.963       -8181.748         519.080  
G23  18923647.571      -30620.398        1954.744  
G26  17362412.826       17482.619       -1118.268  
G27  19488324.209      -55635.393        3559.885  
G31  18790377.279       30562.242       -1958.375  
> 2019  1 10  9 50 33.8180845  0  6                     
G 9  20676387.272      -48829.721        3098.470  
G16  17082403.118       -8246.717         521.126  
G23  18923600.406      -30864.873        1955.528  
G26  17362439.339       17622.859       -1123.968  
G27  19488239.703      -56080.218        3560.233  
G31  18790423.653       30807.017       -1958.399  
> 2019  1 10  9 50 33.9430852  0  6                     
G 9  20676313.286      -49216.999        3096.574  
G16  17082390.214       -8311.675         519.833  
G23  18923553.853      -31109.336        1956.546  
G26  17362466.387       17763.101       -1122.456  
G27  19488155.188      -56525.044        3560.220  
G31  18790469.453       31051.796       -1959.568  
> 2019  1 10  9 50 34.0680857  0  6                     
G 9  20676240.046      -49604.268        3101.730  
G16  17082378.638       -8376.627         521.315  
G23  18923507.614      -31353.791        1954.349  
G26  17362493.004       17903.350       -1121.893  
G27  19488069.792      -56969.856        3556.581  
G31  18790515.873       31296.580       -1957.882  
> 2019  1 10  9 50 34.1930864  0  6                     
G 9  20676166.121      -49991.528        3099.294  
G16  17082366.134       -8441.575         518.011  
G23  18923461.265      -31598.242        1955.799  
G26  17362520.235       18043.605       -1123.095  
G27  19487985.085      -57414.664        3559.094  
G31  18790562.349       31541.360       -1959.503  
> 2019  1 10  9 50 34.3180869  0  6                     
G 9  20676092.412      -50378.796        3098.005  
G16  17082354.139       -8506.515         516.931  
G23  18923414.761      -31842.684        1956.622  
G26  17362546.584       18183.861       -1120.861  
G27  19487901.156      -57859.472        3556.033  
G31  18790608.587       31786.150       -1956.760  
> 2019  1 10  9 50 34.4430876  0  6                     
G 9  20676018.799      -50766.053        3095.353  
G16  17082341.851       -8571.439         518.497  
G23  18923368.853      -32087.120        1956.233  
G26  17362572.911       18324.132       -1120.234  
G27  19487816.157      -58304.272        3559.295  
G31  18790655.936       32030.943       -1956.708  
> 2019  1 10  9 50 34.5680883  0  6                     
G 9  20675945.053      -51153.306        3096.954  
G16  17082328.730       -8636.355         519.421  
G23  18923321.431      -32331.546        1957.301  
G26  17362600.141       18464.406       -1120.800  
G27  19487732.411      -58749.076        3559.591  
G31  18790702.910       32275.748       -1957.553  
> 2019  1 10  9 50 34.6930888  0  6                     
G 9  20675871.017      -51540.553        3100.512  
G16  17082316.714       -8701.264         520.011  
G23  18923275.426      -32575.956        1954.132  
G26  17362626.978       18604.680       -1126.503  
G27  19487647.384      -59193.870        3560.323  
G31  18790750.863       32520.541       -1958.754  
> 2019  1 10  9 50 34.8180895  0  6                     
G 9  20675797.774      -51927.793        3099.615  
G16  17082304.907       -8766.166         517.088  
G23  18923228.374      -32820.365        1956.297  
G26  17362653.388       18744.969       -1119.968  
G27  19487562.478      -59638.655        3556.469  
G31  18790796.948       32765.347       -1958.074  
> 2019  1 10  9 50 34.9430902  0  6                     
G 9  20675723.808      -52315.029        3098.020  
G16  17082292.587       -8831.064         522.539  
G23  18923181.942      -33064.773        1955.707  
G26  17362680.170       18885.255       -1120.932  
G27  19487477.649      -60083.441        3558.131  
G31  18790842.544       33010.157       -1959.640  
> 2019  1 10  9 50 35.0680907  0  6                     
G 9  20675650.449      -52702.264        3098.430  
G16  17082280.076       -8895.956         520.151  
G23  18923135.344      -33309.164        1955.903  
G26  17362706.882       19025.548       -1124.934  
G27  19487393.415      -60528.224        3560.125  
G31  18790889.402       33254.962       -1956.585  
> 2019  1 10  9 50 35.1930914  0  6                     
G 9  20675575.891      -53089.491        3096.094  
G16  17082267.444       -8960.835         519.807  
G23  18923088.612      -33553.546        1952.983  
G26  17362733.030       19165.849       -1124.713  
G27  19487308.174      -60973.002        3558.648  
G31  18790935.815       33499.783       -1959.255  
> 2019  1 10  9 50 35.3180921  0  6                     
G 9  20675502.725      -53476.712        3099.923  
G16  17082254.661       -9025.709         518.671  
G23  18923041.558      -33797.928        1956.048  
G26  17362759.759       19306.152       -1121.935  
G27  19487224.121      -61417.773        3558.972  
G31  18790982.000       33744.609       -1962.970  
> 2019  1 10  9 50 35.4430926  0  6                     
G 9  20675429.365      -53863.929        3097.808  
G16  17082242.810       -9090.577         521.625  
G23  18922995.049      -34042.297        1955.640  
G26  17362786.421       19446.468       -1122.119  
G27  19487138.485      -61862.542        3556.340  
G31  18791029.006       33989.429       -1956.368  
> 2019  1 10  9 50 35.5680933  0  6                     
G 9  20675355.437      -54251.148        3096.324  
G16  17082230.687       -9155.437         517.029  
G23  18922949.650      -34286.657        1956.112  
G26  17362813.006       19586.783       -1122.079  
G27  19487054.628      -62307.302        3559.385  
G31  18791075.252       34234.258       -1957.543  
> 2019  1 10  9 50 35.6930940  0  6                     
G 9  20675282.587      -54638.353        3094.449  
G16  17082218.233       -9220.277         517.806  
G23  18922903.388      -34531.009        1957.041  
G26  17362839.842       19727.115       -1122.936  
G27  19486970.031      -62752.058        3558.348  
G31  18791121.611       34479.087       -1961.320  
> 2019  1 10  9 50 35.8180945  0  6                     
G 9  20675208.638      -55025.559        3098.628  
G16  17082205.443       -9285.119         515.757  
G23  18922856.750      -34775.363        1956.177  
G26  17362866.368       19867.432       -1122.478  
G27  19486885.277      -63196.808        3559.383  
G31  18791168.374       34723.929       -1959.631  
> 2019  1 10  9 50 35.9430952  0  6                     
G 9  20675134.775      -55412.754        3095.347  
G16  17082192.807       -9349.956         518.236  
G23  18922810.385      -35019.696        1955.449  
G26  17362892.845       20007.775       -1121.639  
G27  19486801.397      -63641.562        3559.437  
G31  18791215.616       34968.764       -1959.372  
> 2019  1 10  9 50 36.0680959  0  6                     
G 9  20675060.865      -55799.950        3098.395  
G16  17082180.915       -9414.777         517.671  
G23  18922763.515      -35264.019        1952.454  
G26  17362919.920       20148.103       -1124.691  
G27  19486715.956      -64086.303        3559.373  
G31  18791261.287       35213.613       -1959.247  
> 2019  1 10  9 50 36.1930964  0  6                     
G 9  20674986.763      -56187.139        3098.863  
G16  17082168.692       -9479.599         520.716  
G23  18922716.850      -35508.345        1956.945  
G26  17362946.654       20288.457       -1122.543  
G27  19486631.754      -64531.046        3561.207  
G31  18791308.064       35458.458       -1960.101  
> 2019  1 10  9 50 36.3180971  0  6                     
G 9  20674913.125      -56574.317        3096.139  
G16  17082156.027       -9544.405         517.285  
G23  18922670.718      -35752.660        1956.433  
G26  17362973.114       20428.799       -1120.871  
G27  19486546.872      -64975.781        3556.792  
G31  18791354.579       35703.309       -1959.702  
> 2019  1 10  9 50 36.4430978  0  6                     
G 9  20674839.613      -56961.499        3097.054  
G16  17082143.525       -9609.206         519.849  
G23  18922623.930      -35996.965        1954.173  
G26  17362999.915       20569.166       -1121.888  
G27  19486461.863      -65420.511        3556.676  
G31  18791401.246       35948.164       -1959.777  
> 2019  1 10  9 50 36.5680983  0  6                     
G 9  20674766.187      -57348.667        3099.092  
G16  17082130.431       -9674.002         517.538  
G23  18922577.163      -36241.258        1954.669  
G26  17363027.415       20709.526       -1124.095  
G27  19486376.899      -65865.238        3559.981  
G31  18791448.529       36193.023       -1957.880  
> 2019  1 10  9 50 36.6930990  0  6                     
G 9  20674692.278      -57735.846        3098.161  
G16  17082118.237       -9738.786         516.516  
G23  18922531.402      -36485.547        1950.719  
G26  17363054.322       20849.897       -1122.525  
G27  19486292.509      -66309.963        3556.680  
G31  18791494.842       36437.889       -1959.893  
> 2019  1 10  9 50 36.8180997  0  6                     
G 9  20674618.014      -58123.007        3097.941  
G16  17082106.142       -9803.563         519.103  
G23  18922484.856      -36729.832        1954.120  
G26  17363080.828       20990.264       -1124.212  
G27  19486208.310      -66754.678        3559.979  
G31  18791541.381       36682.758       -1959.757  
> 2019  1 10  9 50 36.9431002  0  6                     
G 9  20674544.282      -58510.167        3097.573  
G16  17082094.519       -9868.339         514.575  
G23  18922437.768      -36974.110        1953.242  
G26  17363107.363       21130.647       -1121.913  
G27  19486123.097      -67199.392        3555.118  
G31  18791588.528       36927.626       -1959.514  
> 2019  1 10  9 50 37.0681009  0  6                     
G 9  20674470.807      -58897.321        3098.940  
G16  17082081.967       -9933.099         518.957  
G23  18922391.460      -37218.377        1954.368  
G26  17363134.198       21271.033       -1122.842  
G27  19486039.295      -67644.094        3559.259  
G31  18791634.881       37172.504       -1958.335  
> 2019  1 10  9 50 37.1931016  0  6                     
G 9  20674397.316      -59284.468        3098.334  
G16  17082069.201       -9997.855         516.939  
G23  18922344.974      -37462.626        1953.990  
G26  17363160.730       21411.420       -1126.254  
G27  19485955.219      -68088.806        3556.951  
G31  18791681.139       37417.380       -1962.055  
> 2019  1 10  9 50 37.3181021  0  6                     
G 9  20674323.711      -59671.617        3096.287  
G16  17082057.164      -10062.598         518.101  
G23  18922298.478      -37706.877        1957.187  
G26  17363186.867       21551.816       -1125.724  
G27  19485869.935      -68533.501        3557.005  
G31  18791727.477       37662.262       -1960.487  
> 2019  1 10  9 50 37.4431028  0  6                     
G 9  20674250.663      -60058.751        3095.972  
G16  17082045.127      -10127.335         515.208  
G23  18922251.755      -37951.121        1956.536  
G26  17363213.662       21692.217       -1125.333  
G27  19485784.839      -68978.196        3557.362  
G31  18791774.439       37907.148       -1954.971  
> 2019  1 10  9 50 37.5681036  0  6                     
G 9  20674176.675      -60445.885        3098.151  
G16  17082032.502      -10192.069         515.045  
G23  18922205.532      -38195.359        1953.553  
G26  17363241.027       21832.631       -1124.904  
G27  19485700.167      -69422.890        3557.487  
G31  18791821.046       38152.038       -1960.734  
> 2019  1 10  9 50 37.6931040  0  6                     
G 9  20674102.408      -60833.017        3096.788  
G16  17082020.603      -10256.793         519.819  
G23  18922159.061      -38439.581        1953.884  
G26  17363267.939       21973.038       -1124.527  
G27  19485616.331      -69867.572        3559.570  
G31  18791867.429       38396.932       -1958.071  
> 2019  1 10  9 50 37.8181047  0  6                     
G 9  20674029.306      -61220.140        3098.592  
G16  17082007.403      -10321.506         519.606  
G23  18922112.886      -38683.798        1955.254  
G26  17363294.286       22113.460       -1122.196  
G27  19485532.011      -70312.250        3556.960  
G31  18791913.815       38641.831       -1960.814  
> 2019  1 10  9 50 37.9431055  0  6                     
G 9  20673956.077      -61607.267        3094.948  
G16  17081995.354      -10386.217         517.562  
G23  18922065.957      -38928.009        1953.826  
G26  17363320.108       22253.882       -1125.120  
G27  19485447.701      -70756.928        3558.792  
G31  18791961.014       38886.737       -1956.507  
> 2019  1 10  9 50 38.0681059  0  6                     
G 9  20673881.862      -61994.377        3096.234  
G16  17081983.695      -10450.915         513.545  
G23  18922019.911      -39172.209        1953.080  
G26  17363347.504       22394.310       -1124.187  
G27  19485362.244      -71201.603        3560.909  
G31  18792008.082       39131.641       -1958.827  
> 2019  1 10  9 50 38.1931067  0  6                     
G 9  20673808.218      -62381.487        3099.099  
G16  17081971.312      -10515.611         519.236  
G23  18921972.814      -39416.402        1952.787  
G26  17363374.449       22534.754       -1121.793  
G27  19485277.735      -71646.270        3556.058  
G31  18792054.839       39376.545       -1960.720  
> 2019  1 10  9 50 38.3181074  0  6                     
G 9  20673734.299      -62768.591        3095.308  
G16  17081959.789      -10580.288         519.644  
G23  18921926.638      -39660.588        1954.598  
G26  17363401.413       22675.187       -1122.617  
G27  19485192.893      -72090.935        3555.778  
G31  18792100.966       39621.465       -1958.550  
> 2019  1 10  9 50 38.4431078  0  6                     
G 9  20673660.953      -63155.695        3096.518  
G16  17081946.621      -10644.969         516.894  
G23  18921880.019      -39904.763        1955.209  
G26  17363427.960       22815.635       -1123.852  
G27  19485108.425      -72535.593        3554.827  
G31  18792147.341       39866.379       -1960.524  
> 2019  1 10  9 50 38.5681086  0  6                     
G 9  20673587.561      -63542.787        3099.515  
G16  17081933.683      -10709.631         520.885  
G23  18921833.628      -40148.939        1955.202  
G26  17363454.628       22956.089       -1123.097  
G27  19485023.889      -72980.250        3557.354  
G31  18792194.275       40111.300       -1961.755  
> 2019  1 10  9 50 38.6931093  0  6                     
G 9  20673513.785      -63929.881        3094.464  
G16  17081921.985      -10774.295         519.261  
G23  18921787.408      -40393.096        1954.719  
G26  17363481.566       23096.543       -1121.359  
G27  19484938.715      -73424.897        3558.412  
G31  18792240.174       40356.225       -1958.812  
> 2019  1 10  9 50 38.8181098  0  6                     
G 9  20673441.014      -64316.964        3097.324  
G16  17081909.797      -10838.944         513.954  
G23  18921740.996      -40637.251        1954.450  
G26  17363507.954       23237.009       -1123.320  
G27  19484854.300      -73869.547        3560.189  
G31  18792287.006       40601.159       -1963.848  
> 2019  1 10  9 50 38.9431105  0  6                     
G 9  20673366.293      -64704.044        3098.877  
G16  17081897.368      -10903.590         517.302  
G23  18921695.216      -40881.394        1950.430  
G26  17363534.913       23377.479       -1124.976  
G27  19484769.303      -74314.190        3555.306  
G31  18792333.882       40846.087       -1954.792  
> 2019  1 10  9 50 39.0681112  0  6                     
G 9  20673292.789      -65091.122        3094.951  
G16  17081885.243      -10968.226         517.537  
G23  18921649.097      -41125.533        1949.479  
G26  17363561.525       23517.953       -1125.774  
G27  19484684.736      -74758.822        3557.721  
G31  18792380.865       41091.025       -1958.018  
> 2019  1 10  9 50 39.1931117  0  6                     
G 9  20673219.818      -65478.195        3097.676  
G16  17081872.375      -11032.855         517.647  
G23  18921602.599      -41369.664        1953.649  
G26  17363588.237       23658.433       -1124.736  
G27  19484600.295      -75203.456        3555.563  
G31  18792427.966       41335.969       -1962.633  
> 2019  1 10  9 50 39.3181124  0  6                     
G 9  20673146.228      -65865.260        3099.864  
G16  17081860.930      -11097.477         518.153  
G23  18921555.435      -41613.782        1952.330  
G26  17363615.263       23798.921       -1122.074  
G27  19484515.977      -75648.087        3555.393  
G31  18792474.573       41580.913       -1959.702  
> 2019  1 10  9 50 39.4431129  0  6                     
G 9  20673071.776      -66252.320        3096.333  
G16  17081848.252      -11162.088         515.969  
G23  18921508.911      -41857.897        1952.155  
G26  17363642.010       23939.411       -1122.821  
G27  19484431.097      -76092.704        3558.803  
G31  18792520.475       41825.858       -1959.894  
> 2019  1 10  9 50 39.5681136  0  6                     
G 9  20672998.159      -66639.373        3096.712  
G16  17081835.459      -11226.696         517.166  
G23  18921462.576      -42102.010        1951.817  
G26  17363668.552       24079.906       -1124.595  
G27  19484346.790      -76537.324        3561.532  
G31  18792566.660       42070.814       -1959.095  
> 2019  1 10  9 50 39.6931143  0  6                     
G 9  20672924.234      -67026.428        3100.608  
G16  17081823.175      -11291.299         516.491  
G23  18921416.084      -42346.104        1950.398  
G26  17363695.289       24220.411       -1119.657  
G27  19484262.178      -76981.940        3552.617  
G31  18792614.017       42315.771       -1959.998  
> 2019  1 10  9 50 39.8181148  0  6                     
G 9  20672850.895      -67413.478        3093.892  
G16  17081809.958      -11355.881         521.542  
G23  18921368.511      -42590.190        1950.720  
G26  17363722.379       24360.925       -1123.797  
G27  19484178.648      -77426.548        3559.182  
G31  18792660.518       42560.729       -1962.411  
> 2019  1 10  9 50 39.9431155  0  6                     
G 9  20672776.753      -67800.518        3096.094  
G16  17081798.656      -11420.464         515.538  
G23  18921322.019      -42834.271        1956.381  
G26  17363748.551       24501.437       -1122.986  
G27  19484093.166      -77871.149        3558.641  
G31  18792706.473       42805.696       -1958.976  
> 2019  1 10  9 50 40.0681162  0  6                     
G 9  20672703.239      -68187.557        3094.899  
G16  17081787.040      -11485.028         516.535  
G23  18921276.092      -43078.350        1950.724  
G26  17363775.015       24641.952       -1126.146  
G27  19484007.749      -78315.758        3556.948  
G31  18792753.573       43050.666       -1959.304  
> 2019  1 10  9 50 40.1931167  0  6                     
G 9  20672629.583      -68574.583        3096.015  
G16  17081773.688      -11549.598         515.062  
G23  18921229.168      -43322.416        1953.233  
G26  17363802.014       24782.486       -1122.113  
G27  19483923.889      -78760.362        3558.132  
G31  18792800.747       43295.638       -1959.111  
> 2019  1 10  9 50 40.3181174  0  6                     
G 9  20672555.409      -68961.606        3096.288  
G16  17081761.692      -11614.167         513.182  
G23  18921183.019      -43566.474        1953.038  
G26  17363829.016       24923.013       -1125.308  
G27  19483839.091      -79204.938        3559.194  
G31  18792847.204       43540.611       -1961.922  
> 2019  1 10  9 50 40.4431181  0  6                     
G 9  20672481.856      -69348.641        3096.898  
G16  17081749.188      -11678.702         516.371  
G23  18921136.979      -43810.516        1953.754  
G26  17363855.228       25063.549       -1124.740  
G27  19483754.863      -79649.535        3557.845  
G31  18792893.421       43785.594       -1961.030  
> 2019  1 10  9 50 40.5681186  0  6                     
G 9  20672408.121      -69735.647        3096.104  
G16  17081737.733      -11743.255         515.102  
G23  18921090.769      -44054.565        1954.172  
G26  17363882.492       25204.091       -1125.126  
G27  19483669.279      -80094.111        3554.053  
G31  18792940.027       44030.575       -1958.937  
> 2019  1 10  9 50 40.6931193  0  6                     
G 9  20672334.927      -70122.666        3094.147  
G16  17081725.389      -11807.784         517.872  
G23  18921044.446      -44298.597        1953.956  
G26  17363908.981       25344.638       -1123.753  
G27  19483584.608      -80538.690        3556.328  
G31  18792986.576       44275.564       -1958.999  
> 2019  1 10  9 50 40.8181200  0  6                     
G 9  20672261.197      -70509.676        3099.191  
G16  17081713.049      -11872.315         517.443  
G23  18920997.678      -44542.625        1950.702  
G26  17363936.032       25485.193       -1124.358  
G27  19483500.441      -80983.267        3556.309  
G31  18793033.286       44520.557       -1961.342  
> 2019  1 10  9 50 40.9431205  0  6                     
G 9  20672187.733      -70896.679        3095.627  
G16  17081700.384      -11936.833         517.799  
G23  18920951.043      -44786.637        1955.136  
G26  17363963.116       25625.752       -1126.866  
G27  19483416.550      -81427.832        3557.565  
G31  18793079.736       44765.548       -1959.538  
> 2019  1 10  9 50 41.0681212  0  6                     
G 9  20672114.048      -71283.679        3096.545  
G16  17081687.784      -12001.341         517.737  
G23  18920904.328      -45030.648        1950.568  
G26  17363989.348       25766.321       -1125.652  
G27  19483332.019      -81872.397        3556.335  
G31  18793126.100       45010.548       -1960.157  
> 2019  1 10  9 50 41.1931219  0  6                     
G 9  20672040.376      -71670.667        3096.487  
G16  17081675.253      -12065.846         511.442  
G23  18920857.759      -45274.649        1954.263  
G26  17364016.042       25906.887       -1128.684  
G27  19483247.430      -82316.961        3555.974  
G31  18793172.737       45255.556       -1959.214  
> 2019  1 10  9 50 41.3181224  0  6                     
G 9  20671966.588      -72057.659        3093.719  
G16  17081662.672      -12130.343         515.435  
G23  18920811.878      -45518.647        1951.461  
G26  17364042.570       26047.465       -1121.179  
G27  19483162.560      -82761.511        3554.462  
G31  18793219.279       45500.560       -1956.464  
> 2019  1 10  9 50 41.4431231  0  6                     
G 9  20671893.152      -72444.638        3094.800  
G16  17081650.309      -12194.833         516.420  
G23  18920765.388      -45762.631        1951.459  
G26  17364069.383       26188.045       -1126.317  
G27  19483077.725      -83206.064        3557.239  
G31  18793265.926       45745.567       -1962.063  
> 2019  1 10  9 50 41.5681238  0  6                     
G 9  20671818.972      -72831.617        3092.279  
G16  17081639.474      -12259.308         517.932  
G23  18920719.223      -46006.611        1951.552  
G26  17364096.344       26328.630       -1128.591  
G27  19482993.682      -83650.607        3556.802  
G31  18793312.682       45990.580       -1959.852  
> 2019  1 10  9 50 41.6931243  0  6                     
G 9  20671745.992      -73218.592        3096.667  
G16  17081626.997      -12323.781         511.366  
G23  18920672.467      -46250.581        1952.902  
G26  17364123.506       26469.228       -1123.958  
G27  19482908.257      -84095.153        3555.143  
G31  18793359.151       46235.605       -1960.973  
> 2019  1 10  9 50 41.8181250  0  6                     
G 9  20671672.060      -73605.560        3096.393  
G16  17081614.491      -12388.240         519.551  
G23  18920626.320      -46494.536        1952.199  
G26  17364150.266       26609.820       -1121.709  
G27  19482824.044      -84539.693        3555.622  
G31  18793406.385       46480.625       -1960.701  
> 2019  1 10  9 50 41.9431257  0  6                     
G 9  20671598.083      -73992.528        3093.624  
G16  17081602.551      -12452.698         513.864  
G23  18920579.766      -46738.492        1952.281  
G26  17364176.834       26750.428       -1123.479  
G27  19482739.042      -84984.223        3557.823  
G31  18793453.311       46725.656       -1959.166  
> 2019  1 10  9 50 42.0681262  0  6                     
G 9  20671524.879      -74379.484        3096.109  
G16  17081591.495      -12517.148         517.170  
G23  18920533.916      -46982.443        1952.611  
G26  17364204.565       26891.044       -1128.045  
G27  19482654.289      -85428.756        3554.687  
G31  18793499.467       46970.686       -1958.592  
> 2019  1 10  9 50 42.1931269  0  6                     
G 9  20671451.833      -74766.433        3094.520  
G16  17081578.144      -12581.582         517.930  
G23  18920487.202      -47226.379        1951.711  
G26  17364230.190       27031.654       -1127.271  
G27  19482570.336      -85873.277        3557.622  
G31  18793546.377       47215.716       -1960.829  
> 2019  1 10  9 50 42.3181276  0  6                     
G 9  20671377.970      -75153.384        3096.515  
G16  17081565.810      -12646.017         512.638  
G23  18920440.881      -47470.307        1950.261  
G26  17364256.583       27172.275       -1126.361  
G27  19482485.607      -86317.799        3555.405  
G31  18793593.143       47460.754       -1958.821  
> 2019  1 10  9 50 42.4431281  0  6                     
G 9  20671304.305      -75540.327        3095.870  
G16  17081553.418      -12710.440         516.798  
G23  18920394.170      -47714.228        1950.816  
G26  17364283.558       27312.896       -1124.075  
G27  19482401.439      -86762.312        3557.014  
G31  18793639.441       47705.801       -1961.455  
> 2019  1 10  9 50 42.5681288  0  6                     
G 9  20671230.305      -75927.266        3092.208  
G16  17081540.731      -12774.858         517.154  
G23  18920347.845      -47958.139        1951.008  
G26  17364309.873       27453.534       -1125.598  
G27  19482316.784      -87206.819        3556.239  
G31  18793685.890       47950.842       -1960.521  
> 2019  1 10  9 50 42.6931295  0  6                     
G 9  20671157.026      -76314.208        3091.710  
G16  17081528.810      -12839.270         516.829  
G23  18920300.856      -48202.046        1949.465  
G26  17364336.525       27594.168       -1124.854  
G27  19482232.013      -87651.326        3555.558  
G31  18793732.730       48195.893       -1960.831  
> 2019  1 10  9 50 42.8181300  0  6                     
G 9  20671083.361      -76701.128        3098.314  
G16  17081517.115      -12903.672         511.988  
G23  18920254.955      -48445.944        1950.782  
G26  17364363.259       27734.816       -1126.057  
G27  19482146.878      -88095.826        3555.442  
G31  18793779.380       48440.944       -1961.126  
> 2019  1 10  9 50 42.9431307  0  6                     
G 9  20671010.486      -77088.055        3094.316  
G16  17081504.430      -12968.061         514.241  
G23  18920208.548      -48689.836        1951.682  
G26  17364389.901       27875.471       -1125.602  
G27  19482062.536      -88540.329        3554.245  
G31  18793825.463       48686.001       -1962.353  
> 2019  1 10  9 50 43.0681314  0  6                     
G 9  20670936.381      -77474.975        3094.074  
G16  17081492.028      -13032.444         513.241  
G23  18920162.386      -48933.715        1951.507  
G26  17364416.844       28016.123       -1121.170  
G27  19481978.025      -88984.824        3555.234  
G31  18793872.808       48931.065       -1962.347  
> 2019  1 10  9 50 43.1931319  0  6                     
G 9  20670862.891      -77861.890        3095.186  
G16  17081479.841      -13096.822         516.144  
G23  18920115.823      -49177.591        1953.263  
G26  17364444.121       28156.780       -1126.204  
G27  19481893.017      -89429.308        3554.978  
G31  18793919.075       49176.131       -1958.956  
> 2019  1 10  9 50 43.3181326  0  6                     
G 9  20670788.665      -78248.803        3095.760  
G16  17081467.391      -13161.189         513.544  
G23  18920069.436      -49421.458        1947.055  
G26  17364471.198       28297.444       -1127.063  
G27  19481808.893      -89873.794        3557.101  
G31  18793966.448       49421.200       -1959.412  
> 2019  1 10  9 50 43.4431334  0  6                     
G 9  20670715.346      -78635.706        3094.846  
G16  17081454.940      -13225.548         518.656  
G23  18920022.912      -49665.313        1953.148  
G26  17364497.069       28438.122       -1127.014  
G27  19481724.773      -90318.273        3556.064  
G31  18794012.616       49666.272       -1960.196  
> 2019  1 10  9 50 43.5681338  0  6                     
G 9  20670641.519      -79022.605        3093.866  
G16  17081442.570      -13289.901         515.523  
G23  18919976.822      -49909.160        1953.839  
G26  17364523.643       28578.792       -1127.126  
G27  19481639.982      -90762.744        3555.250  
G31  18794059.315       49911.351       -1957.845  
> 2019  1 10  9 50 43.6931345  0  6                     
G 9  20670568.103      -79409.502        3093.271  
G16  17081430.091      -13354.254         515.518  
G23  18919929.567      -50153.004        1952.606  
G26  17364550.829       28719.475       -1125.654  
G27  19481555.117      -91207.216        3554.831  
G31  18794105.728       50156.435       -1960.629  
> 2019  1 10  9 50 43.8181353  0  6                     
G 9  20670494.336      -79796.383        3092.980  
G16  17081417.431      -13418.591         512.979  
G23  18919883.380      -50396.843        1950.293  
G26  17364577.462       28860.167       -1126.201  
G27  19481471.033      -91651.680        3556.189  
