     2.11           OBSERVATION DATA    M (MIXED)           RINEX VERSION / TYPE
teqc  2016Nov7      KASI/KOREA          20190709 11:02:58UTCPGM / RUN BY / DATE
Linux 2.4.20-8|Pentium IV|gcc|Linux|486/DX+                 COMMENT
  0.0000      (antenna height)                              COMMENT
 +36.39942714 (latitude)                                    COMMENT
+127.37448264 (longitude)                                   COMMENT
0116.859      (elevation)                                   COMMENT
BIT 2 OF LLI FLAGS DATA COLLECTED UNDER A/S CONDITION       COMMENT
23902M002 (COGO code)                                       COMMENT
DAEJ                                                        MARKER NAME
23902M002                                                   MARKER NUMBER
KASI GPS            KASI/KOREA                              OBSERVER / AGENCY
5412K48145          TRIMBLE NETR9       5.20                REC # / TYPE / VERS
4923363230          TRM59800.00     SCIS                    ANT # / TYPE
 -3120041.3117  4084615.3452  3764026.4391                  APPROX POSITION XYZ
        0.0000        0.0000        0.0000                  ANTENNA: DELTA H/E/N
     1     1                                                WAVELENGTH FACT L1/2
    10    L1    L2    L5    C1    P1    P2    C5    S1    S2# / TYPES OF OBSERV
          S5                                                # / TYPES OF OBSERV
    18                                                      LEAP SECONDS
 SNR is mapped to RINEX snr flag value [0-9]                COMMENT
  L1 & L2: min(max(int(snr_dBHz/6), 0), 9)                  COMMENT
  2019     7     9    10    45    0.0000000     GPS         TIME OF FIRST OBS
                                                            END OF HEADER
 19  7  9 10 45  0.0000000  0 21G06G29R24R08R02G30G13G07R01G15G02R17
                                R23G05E12E04E11E36E19E14E09
 124383952.589 5  96922666.22143  92884218.689 7  23669489.063
  23669500.027    23669501.105          31.000          19.900          45.600
 116534272.396 7  90806085.10445                  22175765.414
  22175772.695                          43.000          30.800
 106215232.339 6  82611810.409 5                  19862785.430    19862784.750
  19862787.973                          39.400          32.800
 112861089.048 6  87780875.613 6                  21076004.773    21076003.301
  21076007.637                          38.800          41.700
 121269846.354 6  94321001.017 6                  22725916.781    22725914.477
  22725922.113                          36.000          37.300
 121598610.870 6  94752161.90344  90804162.972 7  23139431.195
  23139440.496    23139440.969          37.300          24.800          46.800
 108893247.938 7  84851900.09546                  20721688.766
  20721694.551                          45.100          37.700
 127994099.059 5  99735599.59442                  24356442.258
  24356448.617                          35.700          17.800
 105278302.049 7  81883167.044 6                  19694474.820    19694473.277
  19694480.031                          42.500          40.000
 120222785.223 7  93680029.22744                  22877608.836
  22877615.484                          42.400          26.900
 109492890.118 7  85319175.57646                  20835796.750
  20835800.336                          44.900          39.000
 123915111.438 5  96378413.769 5                  23156501.336    23156501.055
  23156505.648                          33.300          35.600
 105228039.731 7  81844129.686 6                  19671265.484    19671264.965
  19671272.379                          46.100          39.800
 107747462.973 7  83959151.48846                  20503654.281
  20503660.168                          47.100          39.500
 125547863.251 6                  93753287.502 6  23890964.055
                  23890967.527          37.900                          41.300
 124149444.102 7                  92709047.350 8  23624842.500
                  23624846.742          46.600                          50.700
 113677271.093 7                  84888881.403 7  21632063.844
                  21632065.277          43.000                          46.100
 132535994.316 6                  98971707.819 7  25220759.688
                  25220766.332          41.100                          45.200
 143668582.772 5                 107285010.901 5  27339218.555
                  27339223.992          31.800                          35.000
 118713075.522 7                  88649390.215 7  22590347.945
                  22590353.434          43.800                          47.800
 118450776.570 7                  88453552.757 8  22540425.375
                  22540431.066          44.900                          48.600
 19  7  9 10 45  1.0000000  0 21G06G29R24R08R02G30G13G07R01G15G02R17
                                R23G05E12E04E11E36E19E14E09
 124387107.831 5  96925124.88443  92886574.923 7  23670088.813
  23670100.488    23670101.555          31.500          20.600          45.500
 116533707.630 7  90805645.03245                  22175657.969
  22175665.539                          43.400          30.500
 106213664.925 6  82610591.322 5                  19862492.141    19862491.719
  19862494.992                          39.200          33.200
 112863693.272 6  87782901.137 6                  21076490.602    21076489.551
  21076494.039                          38.600          41.700
 121267141.833 5  94318897.497 6                  22725409.070    22725407.750
  22725415.262                          35.800          37.400
 121597905.984 6  94751612.62144  90803636.622 7  23139297.930
  23139306.426    23139307.000          37.100          25.300          46.200
 108891335.625 7  84850409.97946                  20721324.969
  20721330.570                          45.200          37.300
 127994995.895 6  99736298.40742                  24356613.344
  24356619.145                          36.200          17.400
 105278499.946 7  81883320.967 6                  19694511.539    19694510.324
  19694516.715                          42.600          40.000
 120219464.391 7  93677441.56444                  22876977.094
  22876983.516                          42.400          25.600
 109493897.875 7  85319960.83746                  20835988.555
  20835992.316                          44.800          38.600
 123911028.798 5  96375238.391 6                  23155738.016    23155737.734
  23155742.941                          32.900          36.000
 105230359.405 7  81845933.869 6                  19671699.398    19671698.434
  19671705.664                          46.400          39.600
 107747703.715 7  83959339.07946                  20503700.344
  20503706.152                          47.000          40.000
 125550547.171 6                  93755291.728 6  23891474.883
                  23891478.617          37.900                          41.400
 124150378.478 7                  92709745.089 8  23625020.039
                  23625024.469          46.600                          50.300
 113677676.768 7                  84889184.364 7  21632141.156
                  21632142.578          42.300                          46.000
 132533826.854 6                  98970089.259 7  25220347.242
                  25220353.922          41.300                          45.000
 143671087.351 5                 107286881.234 5  27339695.039
                  27339700.723          32.200                          34.700
 118718568.966 7                  88653492.452 7  22591393.297
                  22591398.863          43.700                          47.700
 118449330.664 7                  88452473.015 8  22540150.102
                  22540155.875          45.100                          48.400
 19  7  9 10 45  2.0000000  0 21G06G29R24R08R02G30G13G07R01G15G02R17
                                R23G05E12E04E11E36E19E14E09
 124390263.374 5  96927583.73743  92888931.325 7  23670689.633
  23670700.199    23670702.250          30.500          20.400          45.400
 116533143.568 7  90805205.50245                  22175551.250
  22175558.336                          43.400          30.400
 106212098.383 6  82609372.841 5                  19862199.711    19862198.582
  19862201.816                          39.200          32.600
 112866297.674 6  87784926.757 6                  21076977.516    21076975.832
  21076980.105                          38.400          41.700
 121264437.618 5  94316794.205 6                  22724903.281    22724900.555
  22724908.559                          35.500          37.200
 121597201.721 6  94751063.84744  90803110.677 7  23139163.609
  23139172.629    23139172.781          37.000          25.300          46.400
 108889423.879 7  84848920.30846                  20720961.344
  20720967.293                          45.400          37.700
 127995893.259 6  99736997.66342                  24356784.039
  24356790.035                          36.000          17.400
 105278698.273 7  81883475.234 6                  19694548.586    19694547.465
  19694553.883                          42.500          40.300
 120216143.872 6  93674854.15144                  22876345.227
  22876351.387                          41.600          26.600
 109494906.152 7  85320746.50646                  20836180.250
  20836183.848                          44.500          38.800
 123906946.423 5  96372063.224 6                  23154975.797    23154974.602
  23154979.801                          32.600          36.400
 105232679.861 7  81847738.664 6                  19672133.734    19672132.230
  19672139.672                          46.300          39.800
 107747944.747 7  83959526.89846                  20503745.969
  20503751.793                          47.200          40.300
 125553231.362 6                  93757296.164 6  23891985.930
                  23891989.180          37.700                          41.700
 124151313.101 7                  92710443.034 8  23625198.148
                  23625202.293          46.400                          50.200
 113678082.941 7                  84889487.649 7  21632218.063
                  21632219.863          42.700                          46.200
 132531659.634 6                  98968470.888 7  25219934.953
                  25219941.527          41.600                          44.800
 143673591.996 5                 107288751.541 5  27340171.688
                  27340177.199          31.300                          34.500
 118724062.759 7                  88657594.959 7  22592438.836
                  22592444.203          44.100                          47.700
 118447885.039 7                  88451393.494 8  22539874.938
                  22539880.824          45.100                          48.300
 19  7  9 10 45  3.0000000  0 21G06G29R24R08R02G30G13G07R01G15G02R17
                                R23G05E12E04E11E36E19E14E09
 124393419.180 5  96930042.80643  92891287.912 7  23671289.938
  23671301.094    23671302.688          31.300          21.300          45.800
 116532580.164 7  90804766.48645                  22175443.500
  22175450.887                          43.500          31.200
 106210532.700 6  82608155.109 5                  19861906.000    19861905.695
  19861909.266                          39.200          32.900
 112868902.179 6  87786952.478 6                  21077462.656    21077462.379
  21077466.629                          38.300          41.900
 121261733.685 5  94314691.131 6                  22724394.398    22724394.090
  22724401.641                          35.700          37.300
 121596497.985 6  94750515.50344  90802585.169 7  23139028.633
  23139038.410    23139038.953          37.000          24.700          46.200
 108887512.696 7  84847431.08346                  20720597.930
  20720603.289                          45.300          37.400
 127996791.184 6  99737697.35442                  24356955.078
  24356960.715                          36.000          16.900
 105278897.062 7  81883629.841 6                  19694585.336    19694584.730
  19694590.965                          42.100          39.900
 120212823.641 6  93672266.95944                  22875713.750
  22875719.781                          41.400          27.700
 109495914.911 7  85321532.55346                  20836371.813
  20836375.793                          44.600          39.200
 123902864.303 5  96368888.223 6                  23154211.875    23154211.008
  23154217.086                          33.100          36.300
 105235001.114 7  81849544.118 6                  19672567.211    19672566.223
  19672573.465                          46.800          39.500
 107748186.007 7  83959714.88946                  20503792.109
  20503797.918                          47.200          40.400
 125555915.764 6                  93759300.767 6  23892496.914
                  23892499.859          38.500                          41.700
 124152247.972 7                  92711141.150 8  23625376.047
                  23625380.242          47.000                          50.500
 113678489.534 7                  84889791.292 7  21632295.648
                  21632297.160          42.500                          46.000
 132529492.715 6                  98966852.726 7  25219522.648
                  25219529.270          41.600                          45.100
 143676096.593 5                 107290621.833 5  27340648.727
                  27340653.699          31.300                          34.600
 118729556.857 7                  88661697.712 7  22593484.461
                  22593489.785          43.500                          47.600
 118446439.681 7                  88450314.175 8  22539600.000
                  22539605.695          45.500                          48.200
 19  7  9 10 45  4.0000000  0 21G06G29R24R08R02G30G13G07R01G15G02R17
                                R23G05E12E04E11E36E19E14E09
 124396575.233 5  96932502.08743  92893644.706 7  23671890.820
  23671901.336    23671903.406          31.500          21.500          45.700
 116532017.445 7  90804328.00845                  22175336.516
  22175343.738                          43.400          30.700
 106208967.824 6  82606938.032 5                  19861614.125    19861613.301
  19861616.215                          39.400          32.800
 112871506.825 6  87788978.334 6                  21077949.484    21077948.926
  21077953.082                          38.300          41.600
 121259029.998 5  94312588.276 6                  22723888.516    22723887.570
  22723894.598                          35.700          37.600
 121595794.806 6  94749967.58044  90802060.053 7  23138895.641
  23138904.551    23138904.926          36.300          25.300          46.000
 108885602.097 7  84845942.29846                  20720234.063
  20720239.832                          45.400          37.700
 127997689.632 6  99738397.43442                  24357125.602
  24357131.688                          36.300          16.900
 105279096.276 7  81883784.788 6                  19694622.297    19694621.949
  19694628.277                          42.500          40.000
 120209503.728 6  93669680.01844                  22875081.648
  22875087.902                          41.700          27.200
 109496924.187 7  85322319.00546                  20836564.281
  20836567.797                          44.600          38.900
 123898782.474 5  96365713.452 6                  23153450.195    23153448.039
  23153454.211                          33.300          36.500
 105237323.164 7  81851350.119 6                  19673000.820    19673000.113
  19673007.605                          46.800          39.800
 107748427.567 7  83959903.12646                  20503838.219
  20503843.621                          47.500          39.700
 125558600.432 6                  93761305.525 6  23893007.297
                  23893010.793          38.100                          41.300
 124153183.111 7                  92711839.458 8  23625553.953
                  23625558.207          47.000                          50.300
 113678896.595 7                  84890095.264 7  21632373.063
                  21632374.613          43.000                          46.000
 132527326.015 6                  98965234.755 7  25219110.305
                  25219117.023          41.600                          44.700
 143678601.126 5                 107292492.082 5  27341125.250
                  27341130.195          32.200                          34.600
 118735051.328 7                  88665800.719 7  22594530.055
                  22594535.301          43.800                          47.900
 118444994.631 7                  88449235.073 8  22539325.016
                  22539330.727          45.500                          48.300
 19  7  9 10 45  5.0000000  0 21G06G29R24R08R02G30G13G07R01G15G02R17
                                R23G05E12E04E11E36E19E14E09
 124399731.482 5  96934961.49143  92896001.626 7  23672492.055
  23672501.984    23672504.043          31.500          21.500          45.800
 116531455.368 7  90803890.02545                  22175229.633
  22175236.770                          43.200          31.400
 106207403.736 6  82605721.530 5                  19861321.219    19861321.102
  19861323.836                          39.500          33.000
 112874111.578 6  87791004.255 6                  21078436.414    21078435.176
  21078439.555                          38.200          41.800
 121256326.566 6  94310485.608 6                  22723382.680    22723380.727
  22723388.188                          36.100          37.600
 121595092.097 6  94749420.00544  90801535.320 7  23138762.000
  23138770.797    23138771.422          36.000          24.600          46.300
 108883692.003 7  84844453.91146                  20719870.594
  20719876.230                          45.400          37.800
 127998588.581 6  99739097.90643                  24357297.617
  24357302.633                          36.000          18.300
 105279295.854 7  81883940.002 6                  19694659.617    19694659.410
  19694665.527                          42.500          40.200
 120206184.058 7  93667093.27144                  22874450.031
  22874455.930                          42.000          27.200
 109497933.931 7  85323105.81746                  20836756.445
  20836759.727                          44.300          39.200
 123894700.806 5  96362538.880 6                  23152688.398    23152685.816
  23152691.383                          33.300          36.500
 105239645.994 7  81853156.769 6                  19673435.766    19673434.309
  19673441.961                          47.100          39.500
 107748669.358 7  83960091.53046                  20503884.125
  20503889.867                          47.800          39.800
 125561285.259 6                  93763310.424 6  23893517.977
                  23893521.570          38.300                          41.800
 124154118.425 7                  92712537.919 8  23625732.078
                  23625736.176          47.100                          50.600
 113679304.026 7                  84890399.530 7  21632450.422
                  21632452.141          43.300                          46.000
 132525159.586 6                  98963616.956 7  25218698.031
                  25218704.605          41.900                          45.000
 143681105.67315                 107294362.355 5  27341601.945
                  27341606.965          31.500                          34.800
 118740546.081 7                  88669903.938 7  22595575.422
                  22595580.984          43.800                          47.900
 118443549.795 7                  88448156.125 8  22539050.094
                  22539055.715          45.900                          48.300
 19  7  9 10 45  6.0000000  0 21G06G29R24R08R02G30G13G07R01G15G02R17
                                R23G05E12E04E11E36E19E14E09
 124402887.982 5  96937421.11443  92898358.760 7  23673092.555
  23673102.719    23673104.805          31.800          21.500          45.900
 116530893.956 7  90803452.57045                  22175122.547
  22175129.887                          42.600          30.900
 106205840.506 6  82604505.676 5                  19861029.711    19861028.066
  19861032.020                          39.400          33.700
 112876716.512 6  87793030.288 6                  21078922.766    21078922.371
  21078925.879                          38.200          41.800
 121253623.424 5  94308383.156 6                  22722874.836    22722874.266
  22722881.816                          35.500          37.100
 121594389.947 5  94748872.87444  90801011.001 7  23138628.195
  23138637.273    23138637.629          35.800          24.700          46.500
 108881782.450 7  84842965.95246                  20719506.969
  20719513.000                          45.500          37.400
 127999488.054 5  99739798.77743                  24357468.781
  24357473.762                          35.700          18.300
 105279495.858 7  81884095.577 6                  19694697.352    19694696.629
  19694702.770                          42.700          40.000
 120202864.689 6  93664506.75344                  22873818.680
  22873824.395                          41.800          26.300
 109498944.179 7  85323893.01946                  20836948.445
  20836952.188                          44.000          39.100
 123890619.529 5  96359364.537 6                  23151925.297    23151923.539
  23151928.770                          33.300          36.400
 105241969.591 7  81854964.012 6                  19673869.742    19673868.637
  19673876.453                          46.900          39.500
 107748911.399 8  83960280.13846                  20503929.984
  20503935.688                          48.100          40.000
 125563970.308 6                  93765315.521 6  23894029.039
                  23894032.602          38.400                          41.300
 124155054.007 7                  92713236.566 8  23625910.078
                  23625914.160          47.300                          50.800
 113679711.933 7                  84890704.119 7  21632528.500
                  21632529.852          43.200                          46.200
 132522993.384 6                  98961999.332 7  25218285.914
                  25218292.516          41.700                          44.900
 143683610.194 5                 107296232.624 5  27342078.805
                  27342083.250          32.000                          34.600
 118746041.175 7                  88674007.405 7  22596621.305
                  22596626.641          43.900                          47.600
 118442105.217 7                  88447077.397 8  22538775.281
                  22538780.930          45.900                          48.200
 19  7  9 10 45  7.0000000  0 21G06G29R24R08R02G30G13G07R01G15G02R17
                                R23G05E12E04E11E36E19E14E09
 124406044.648 5  96939880.81343  92900716.044 7  23673693.047
  23673704.121    23673705.465          31.600          21.700          45.700
 116530333.240 7  90803015.63745                  22175016.047
  22175023.543                          42.700          30.700
 106204278.138 6  82603290.450 5                  19860737.531    19860735.934
  19860739.539                          39.500          33.400
 112879321.559 6  87795056.444 6                  21079409.914    21079408.371
  21079412.531                          38.100          41.500
 121250920.572 5  94306280.960 6                  22722368.820    22722367.805
  22722375.270                          35.600          37.300
 121593688.375 6  94748326.19744  90800487.091 7  23138494.688
  23138504.152    23138504.164          36.000          25.100          46.400
 108879873.492 7  84841478.45646                  20719143.961
  20719149.445                          45.400          37.500
 128000388.090 5  99740500.13743                  24357638.883
  24357645.547                          35.300          18.300
 105279696.319 7  81884251.504 6                  19694735.555    19694734.434
  19694740.219                          42.700          40.200
 120199545.631 6  93661920.47844                  22873186.281
  22873192.703                          41.300          25.100
 109499954.917 7  85324680.60946                  20837141.016
  20837144.434                          44.100          39.400
 123886538.427 5  96356190.360 5                  23151162.844    23151160.992
  23151166.266                          32.900          35.700
 105244293.977 7  81856771.888 6                  19674304.133    19674303.004
  19674310.750                          46.900          39.000
 107749153.729 8  83960468.96246                  20503976.508
  20503982.160                          48.000          39.800
 125566655.600 6                  93767320.757 6  23894539.867
                  23894543.637          38.300                          41.500
 124155989.838 7                  92713935.395 8  23626087.984
                  23626092.316          47.000                          50.700
 113680120.276 7                  84891009.043 7  21632606.133
                  21632607.426          43.200                          46.100
 132520827.446 6                  98960381.903 7  25217873.602
                  25217880.363          41.500                          45.000
 143686114.707 5                 107298102.849 5  27342554.891
                  27342560.199          31.700                          34.300
 118751536.596 7                  88678111.134 7  22597667.078
                  22597672.336          44.000                          47.600
 118440660.935 7                  88445998.863 8  22538500.414
                  22538506.082          45.700                          48.300
 19  7  9 10 45  8.0000000  0 21G06G29R24R08R02G30G13G07R01G15G02R17
                                R23G05E12E04E11E36E19E14E09
 124409201.733 5  96942340.88943  92903073.545 7  23674293.773
  23674304.207    23674306.141          32.200          22.000          45.800
 116529773.196 7  90802579.24645                  22174909.531
  22174916.367                          42.800          30.500
 106202716.599 6  82602075.953 5                  19860444.602    19860443.922
  19860447.438                          39.600          33.200
 112881926.804 6  87797082.723 6                  21079896.375    21079895.230
  21079898.863                          37.800          41.600
 121248218.047 5  94304179.013 6                  22721862.945    22721861.977
  22721868.910                          35.500          37.100
 121592987.387 5  94747779.97944  90799963.617 7  23138361.398
  23138370.535    23138370.793          35.900          24.700          46.600
 108877965.100 7  84839991.39846                  20718781.000
  20718786.711                          45.300          38.000
 128001288.690 5  99741201.91143                  24357810.133
  24357816.691                          34.600          18.600
 105279897.228 7  81884407.741 6                  19694773.727    19694771.809
  19694777.977                          43.000          40.400
 120196226.890 6  93659334.44244                  22872555.258
  22872561.031                          41.700          27.000
 109500966.183 7  85325468.60846                  20837334.016
  20837336.785                          44.100          39.400
 123882457.639 5  96353016.384 6                  23150399.961    23150398.391
  23150403.727                          32.900          36.000
 105246619.172 7  81858580.361 6                  19674738.672    19674737.965
  19674745.500                          46.900          38.800
 107749396.320 8  83960657.99446                  20504022.469
  20504028.379                          48.000          39.500
 125569341.148 6                  93769326.192 6  23895050.695
                  23895054.828          38.200                          41.500
 124156925.934 7                  92714634.428 8  23626266.078
                  23626270.410          47.000                          50.800
 113680529.087 7                  84891314.329 7  21632683.586
                  21632685.254          43.200                          46.200
 132518661.785 6                  98958764.696 7  25217461.641
                  25217468.184          41.200                          45.100
 143688619.174 5                 107299973.123 5  27343031.438
                  27343036.578          31.700                          34.400
 118757032.357 7                  88682215.121 8  22598713.047
                  22598718.188          44.300                          48.100
 118439216.930 7                  88444920.560 8  22538225.500
                  22538231.227          46.100                          48.400
 19  7  9 10 45  9.0000000  0 21G06G29R24R08R02G30G13G07R01G15G02R17
                                R23G05E12E04E11E36E19E14E09
 124412358.923 5  96944801.02243  92905431.212 7  23674895.039
  23674905.133    23674906.980          32.300          22.000          46.000
 116529213.832 7  90802143.37644                  22174803.133
  22174809.746                          43.000          29.700
 106201155.913 6  82600862.077 5                  19860153.438    19860152.332
  19860155.508                          39.400          33.300
 112884532.168 6  87799109.141 6                  21080382.602    21080381.879
  21080385.480                          38.300          41.800
 121245515.894 6  94302077.322 6                  22721356.516    22721355.570
  22721362.223                          36.300          36.800
 121592286.856 5  94747234.10744  90799440.517 7  23138228.102
  23138237.133    23138237.379          35.500          25.600          46.300
 108876057.243 7  84838504.75946                  20718417.766
  20718423.340                          45.300          37.900
 128002189.749 5  99741904.03242                  24357982.375
  24357988.133                          35.400          17.800
 105280098.542 7  81884564.354 6                  19694810.141    19694809.395
  19694815.578                          42.600          40.200
 120192908.394 6  93656748.59944                  22871923.391
  22871929.602                          41.800          27.400
 109501977.926 7  85326256.98246                  20837526.219
  20837529.266                          43.800          39.200
 123878377.120 5  96349842.647 5                  23149636.820    23149635.297
  23149641.215                          33.400          35.800
 105248945.129 7  81860389.441 6                  19675174.203    19675172.723
  19675180.457                          46.300          39.400
 107749639.156 7  83960847.21646                  20504068.844
  20504074.469                          47.400          39.800
 125572026.906 6                  93771331.797 6  23895561.781
                  23895565.652          37.900                          41.600
 124157862.235 7                  92715333.621 8  23626444.281
                  23626448.609          46.900                          50.900
 113680938.316 7                  84891619.927 7  21632761.773
                  21632763.242          43.300                          46.100
 132516496.362 6                  98957147.672 7  25217049.227
                  25217056.137          41.700                          45.100
 143691123.723 5                 107301843.342 5  27343508.047
                  27343513.195          31.700                          34.600
 118762528.448 7                  88686319.339 7  22599758.789
                  22599764.063          44.600                          47.800
 118437773.206 7                  88443842.436 8  22537950.836
                  22537956.594          45.900                          48.300
 19  7  9 10 45 10.0000000  0 21G06G29R24R08R02G30G13G07R01G15G02R17
                                R23G05E12E04E11E36E19E14E09
 124415516.341 5  96947261.35043  92907789.026 7  23675495.578
  23675506.266    23675507.680          32.800          21.800          45.600
 116528655.123 7  90801708.01544                  22174696.930
  22174703.570                          43.100          29.600
 106199596.033 6  82599648.854 5                  19859861.227    19859860.473
  19859864.008                          39.200          32.500
 112887137.644 6  87801135.618 6                  21080870.055    21080868.066
  21080872.117                          38.600          41.600
 121242813.994 5  94299975.878 6                  22720850.430    22720848.992
  22720855.988                          35.700          37.200
 121591586.915 5  94746688.69344  90798917.826 7  23138095.414
  23138104.383    23138104.383          35.400          24.400          46.400
 108874149.916 7  84837018.52646                  20718054.938
  20718060.398                          44.900          38.200
 128003091.386 5  99742606.59542                  24358153.797
  24358159.820                          34.700          17.800
 105280300.263 7  81884721.208 6                  19694847.563    19694847.191
  19694853.328                          42.400          40.400
 120189590.206 6  93654163.00544                  22871292.359
  22871297.918                          41.700          26.400
 109502990.139 7  85327045.72446                  20837718.641
  20837722.008                          43.800          39.100
 123874296.839 5  96346669.100 5                  23148873.852    23148873.055
  23148878.773                          33.100          35.500
 105251271.866 7  81862199.128 6                  19675608.711    19675607.723
  19675615.160                          46.600          39.600
 107749882.245 7  83961036.63346                  20504114.883
  20504120.527                          47.200          39.700
 125574712.844 6                  93773337.534 6  23896073.094
                  23896076.777          37.900                          41.700
 124158798.770 7                  92716032.977 8  23626622.563
                  23626626.883          46.900                          50.600
 113681347.978 7                  84891925.840 7  21632839.484
                  21632841.055          43.200                          46.300
 132514331.178 6                  98955530.824 7  25216637.406
                  25216644.238          41.800                          45.200
 143693628.145 5                 107303713.572 5  27343984.867
                  27343989.938          31.700                          35.100
 118768024.836 7                  88690423.792 7  22600804.633
                  22600809.840          44.600                          47.500
 118436329.690 7                  88442764.514 8  22537675.836
                  22537681.875          45.700                          48.200
 19  7  9 10 45 11.0000000  0 21G06G29R24R08R02G30G13G07R01G15G02R17
                                R23G05E12E04E11E36E19E14E09
 124418674.023 5  96949721.88743  92910147.023 7  23676096.516
  23676107.109    23676108.574          32.300          21.300          45.500
 116528097.053 7  90801273.15644                  22174591.070
  22174597.469                          43.200          29.700
 106198036.954 6  82598436.228 5                  19859570.680    19859568.660
  19859572.477                          39.300          32.900
 112889743.206 6  87803162.186 6                  21081356.078    21081354.441
  21081358.754                          38.600          41.400
 121240112.415 6  94297874.606 6                  22720343.375    22720342.945
  22720349.629                          36.100          37.300
 121590887.440 5  94746143.64744  90798395.509 7  23137961.242
  23137971.383    23137971.102          35.500          25.800          46.600
 108872243.137 7  84835532.72546                  20717691.953
  20717697.461                          45.100          38.400
 128003993.481 5  99743309.54442                  24358324.781
  24358331.516                          34.900          17.800
 105280502.372 7  81884878.425 6                  19694885.609    19694885.191
  19694891.152                          42.000          40.100
 120186272.254 7  93651577.59044                  22870661.047
  22870666.605                          42.000          25.800
 109504002.840 7  85327834.83946                  20837911.164
  20837914.684                          43.600          38.500
 123870216.806 5  96343495.752 5                  23148112.852    23148110.906
  23148116.391                          33.200          35.400
 105253599.374 7  81864009.408 6                  19676044.008    19676042.809
  19676050.188                          46.300          39.200
 107750125.555 7  83961226.23046                  20504160.906
  20504166.871                          47.400          39.300
 125577399.036 6                  93775343.451 6  23896584.383
                  23896588.234          37.800                          41.900
 124159735.530 7                  92716732.506 8  23626800.656
                  23626805.133          46.700                          50.700
 113681758.046 7                  84892232.060 7  21632917.734
                  21632919.086          43.100                          46.000
 132512166.226 6                  98953914.117 7  25216225.531
                  25216232.137          40.900                          45.300
 143696132.579 5                 107305583.699 5  27344461.453
                  27344466.266          31.100                          34.600
 118773521.531 7                  88694528.460 7  22601850.852
                  22601855.898          44.400                          47.300
 118434886.455 7                  88441686.758 8  22537401.609
                  22537407.246          45.300                          48.200
 19  7  9 10 45 12.0000000  0 21G06G29R24R08R02G30G13G07R01G15G02R17
                                R23G05E12E04E11E36E19E14E09
 124421831.974 5  96952182.62943  92912505.211 7  23676698.016
  23676708.148    23676709.602          32.500          20.900          45.300
 116527539.702 7  90800838.85944                  22174484.734
  22174491.566                          43.200          29.800
 106196478.764 6  82597224.268 5                  19859278.281    19859277.527
  19859281.141                          39.300          32.400
 112892348.997 6  87805188.896 6                  21081842.227    21081841.105
  21081845.250                          38.600          41.700
 121237411.113 6  94295773.620 6                  22719837.844    22719836.594
  22719843.574                          36.500          37.200
 121590188.586 6  94745599.10144  90797873.631 7  23137828.477
  23137837.980    23137838.066          36.100          25.000          46.700
 108870336.951 7  84834047.37946                  20717329.242
  20717334.836                          45.200          38.200
 128004896.179 5  99744012.94442                  24358496.992
  24358503.406                          35.200          17.800
 105280704.927 7  81885035.974 6                  19694923.430    19694922.730
  19694928.848                          42.400          40.100
 120182954.669 6  93648992.45444                  22870029.531
  22870035.574                          41.800          27.800
 109505016.081 7  85328624.37846                  20838104.297
  20838107.250                          43.500          38.900
 123866137.047 5  96340322.605 5                  23147350.547    23147348.531
  23147353.832                          32.500          35.300
 105255927.686 7  81865820.309 6                  19676479.070    19676477.941
  19676485.820                          46.400          39.100
 107750369.166 7  83961416.05746                  20504207.305
  20504213.391                          47.200          39.700
 125580085.456 6                  93777349.539 7  23897095.828
                  23897099.348          37.500                          42.000
 124160672.554 7                  92717432.235 8  23626979.258
                  23626983.469          46.300                          50.600
 113682168.617 7                  84892538.637 7  21632995.867
                  21632997.301          42.800                          46.000
 132510001.554 6                  98952297.660 7  25215813.656
                  25215820.270          41.100                          45.400
 143698637.002 5                 107307453.899 5  27344938.242
                  27344942.742          31.700                          34.800
 118779018.614 7                  88698633.416 7  22602896.883
                  22602901.980          44.600                          47.400
 118433443.515 7                  88440609.246 8  22537126.953
                  22537132.527          45.300                          48.100
 19  7  9 10 45 13.0000000  0 21G06G29R24R08R02G30G13G07R01G15G02R17
                                R23G05E12E04E11E36E19E14E09
 124424990.047 5  96954643.46443  92914863.512 7  23677299.336
  23677309.246    23677310.379          33.400          21.100          45.400
 116526982.911 7  90800404.99445                  22174378.555
  22174385.777                          43.400          30.700
 106194921.244 6  82596012.896 5                  19858986.852    19858986.523
  19858989.770                          39.200          32.700
 112894954.773 6  87807215.648 6                  21082328.688    21082327.426
  21082332.070                          38.400          41.900
 121234710.019 6  94293672.737 6                  22719330.570    22719330.355
  22719337.477                          36.200          37.500
 121589490.169 6  94745054.88344  90797352.074 7  23137696.844
  23137705.320    23137705.266          36.100          25.600          46.800
 108868431.221 7  84832562.39746                  20716966.422
  20716971.883                          45.700          38.400
 128005799.271 5  99744716.65142                  24358668.828
  24358675.168                          35.500          17.800
 105280907.823 7  81885193.775 6                  19694961.266    19694960.496
  19694966.953                          42.100          40.200
 120179637.256 6  93646407.45344                  22869398.531
  22869404.438                          41.400          27.000
 109506029.727 7  85329414.23046                  20838296.828
  20838300.473                          44.100          38.800
 123862057.507 5  96337149.612 5                  23146587.547    23146585.555
  23146591.758                          32.700          35.800
 105258256.668 7  81867631.741 6                  19676914.953    19676913.238
  19676920.953                          46.900          39.900
 107750612.952 7  83961606.01846                  20504253.766
  20504259.762                          47.200          40.200
 125582771.994 6                  93779355.715 7  23897606.906
                  23897610.609          37.400                          42.100
 124161609.743 7                  92718132.075 8  23627157.289
                  23627161.668          46.500                          50.500
 113682579.482 7                  84892845.475 7  21633073.750
                  21633075.422          43.200                          46.000
 132507837.069 6                  98950681.317 7  25215401.813
                  25215408.391          41.500                          44.700
 143701141.317 5                 107309323.997 5  27345414.906
                  27345419.281          31.700                          34.700
 118784515.886 7                  88702738.532 7  22603943.047
                  22603948.102          44.600                          47.600
 118432000.757 7                  88439531.849 8  22536852.133
                  22536858.117          44.900                          48.200
 19  7  9 10 45 14.0000000  0 21G06G29R24R08R02G30G13G07R01G15G02R17
                                R23G05E12E04E11E36E19E14E09
 124428148.367 5  96957104.49843  92917222.045 7  23677900.383
  23677909.520    23677911.535          33.800          20.600          45.200
 116526426.880 7  90799971.72145                  22174272.820
  22174279.801                          43.600          30.200
 106193364.680 6  82594802.225 5                  19858696.492    19858695.223
  19858698.484                          39.400          32.700
 112897560.827 6  87809242.525 6                  21082815.391    21082814.316
  21082818.566                          38.300          41.800
 121232009.176 5  94291572.097 6                  22718824.500    22718824.660
  22718831.215                          35.900          37.800
 121588792.352 5  94744511.13144  90796830.987 7  23137563.656
  23137572.395    23137572.336          35.700          25.300          46.700
 108866526.112 7  84831077.89546                  20716604.055
  20716609.734                          45.800          37.900
 128006703.014 5  99745420.84542                  24358840.898
  24358847.270                          35.400          17.800
 105281111.159 7  81885351.931 6                  19694999.453    19694999.082
  19695005.336                          42.400          39.900
 120176320.209 6  93643822.75444                  22868767.227
  22868773.277                          41.600          27.000
 109507043.927 7  85330204.51746                  20838490.594
  20838493.492                          44.400          39.000
 123857978.253 5  96333976.847 5                  23145824.039    23145822.984
  23145829.438                          32.900          35.500
 105260586.503 7  81869443.833 6                  19677349.945    19677348.816
  19677356.301                          47.000          40.100
 107750857.059 7  83961796.22846                  20504300.336
  20504306.285                          47.200          40.000
 125585458.820 6                  93781362.133 7  23898118.109
                  23898121.824          37.800                          42.400
 124162547.222 7                  92718832.154 8  23627335.961
                  23627340.137          46.500                          50.500
 113682990.884 7                  84893152.695 7  21633152.086
                  21633153.691          43.300                          46.100
 132505672.885 6                  98949065.206 7  25214989.836
                  25214996.438          41.300                          44.500
 143703645.729 5                 107311194.156 5  27345891.492
                  27345896.164          31.300                          34.600
 118790013.596 7                  88706843.953 7  22604989.164
                  22604994.199          44.400                          47.800
 118430558.321 7                  88438454.715 8  22536577.898
                  22536583.676          45.100                          48.200
 19  7  9 10 45 15.0000000  0 21G06G29R24R08R02G30G13G07R01G15G02R17
                                R23G05E12E04E11E36E19E14E09
 124431307.079 5  96959565.83943  92919580.789 7  23678501.266
  23678511.020    23678512.586          34.300          21.300          45.400
 116525871.562 7  90799539.00445                  22174167.391
  22174174.008                          43.500          30.600
 106191808.957 6  82593592.216 5                  19858405.922    19858404.605
  19858407.613                          38.900          33.000
 112900167.054 6  87811269.591 7                  21083301.898    21083300.941
  21083305.188                          38.200          42.000
 121229308.639 5  94289471.679 6                  22718318.766    22718318.504
  22718325.008                          35.900          37.400
 121588095.138 6  94743967.85544  90796310.337 7  23137431.195
  23137439.586    23137439.691          36.200          26.000          46.500
 108864621.606 7  84829593.86646                  20716241.641
  20716247.082                          45.300          38.400
 128007607.297 5  99746125.52043                  24359012.703
  24359019.141                          35.400          18.300
 105281314.963 7  81885510.452 6                  19695037.992    19695036.941
  19695042.977                          42.500          39.900
 120173003.509 6  93641238.30244                  22868135.883
  22868142.047                          41.400          27.300
 109508058.670 7  85330995.22546                  20838683.305
  20838686.504                          44.100          39.200
 123853899.289 5  96330804.379 5                  23145060.656    23145060.539
  23145066.738                          33.000          35.300
 105262917.180 7  81871256.565 6                  19677785.906    19677784.566
  19677792.273                          47.000          40.000
 107751101.474 7  83961986.68146                  20504346.750
  20504352.648                          47.500          39.800
 125588145.947 6                  93783368.711 7  23898629.117
                  23898633.047          37.600                          42.300
 124163484.993 7                  92719532.418 8  23627514.344
                  23627518.609          46.200                          50.700
 113683402.764 7                  84893460.267 7  21633230.297
                  21633232.090          43.100                          46.000
 132503509.001 6                  98947449.323 7  25214578.289
                  25214584.668          41.200                          44.800
 143706150.157 5                 107313064.339 5  27346367.523
                  27346372.555          31.700                          35.100
 118795511.660 7                  88710949.643 7  22606035.320
                  22606040.352          44.000                          47.800
 118429116.203 7                  88437377.799 8  22536303.242
                  22536309.141          45.300                          48.200
 19  7  9 10 45 16.0000000  0 21G06G29R24R08R02G30G13G07R01G15G02R17
                                R23G05E12E04E11E36E19E14E09
 124434465.940 5  96962027.30043  92921939.692 7  23679102.797
  23679111.832    23679113.730          33.800          21.300          45.400
 116525316.887 7  90799106.79645                  22174061.539
  22174068.313                          43.400          30.200
 106190254.037 6  82592382.816 5                  19858113.734    19858113.641
  19858116.930                          38.700          33.700
 112902773.370 6  87813296.729 6                  21083788.977    21083788.020
  21083791.738                          38.400          41.700
 121226608.366 6  94287371.497 6                  22717813.664    22717812.719
  22717819.004                          36.300          37.800
 121587398.441 6  94743424.97044  90795790.090 7  23137297.414
  23137307.102    23137307.176          36.700          26.000          46.700
 108862717.645 7  84828110.26846                  20715878.930
  20715885.121                          45.600          38.200
 128008512.089 6  99746830.50043                  24359185.031
  24359191.227                          36.300          18.300
 105281519.190 7  81885669.292 6                  19695076.266    19695075.121
  19695081.559                          42.400          39.900
 120169687.078 6  93638654.07844                  22867504.961
  22867510.691                          41.900          28.100
 109509073.898 7  85331786.31046                  20838876.109
  20838879.934                          44.000          38.800
 123849820.641 5  96327632.053 5                  23144300.828    23144298.270
  23144304.746                          33.300          35.700
 105265248.617 7  81873069.917 6                  19678221.047    19678220.223
  19678228.172                          46.800          40.200
 107751346.155 7  83962177.34646                  20504393.656
  20504399.270                          47.500          39.900
 125590833.270 6                  93785375.504 6  23899140.594
                  23899144.750          37.700                          41.600
 124164422.978 7                  92720232.885 8  23627692.844
                  23627697.027          46.300                          50.800
 113683815.098 7                  84893768.188 7  21633308.945
                  21633310.508          43.700                          45.900
 132501345.380 6                  98945833.639 7  25214166.305
                  25214172.813          41.400                          44.600
 143708654.466 5                 107314934.505 5  27346844.469
                  27346849.254          31.100                          34.500
 118801010.041 7                  88715055.579 8  22607081.648
                  22607086.664          44.200                          48.000
 118427674.341 7                  88436301.094 8  22536028.992
                  22536034.691          44.700                          48.000
 19  7  9 10 45 17.0000000  0 21G06G29R24R08R02G30G13G07R01G15G02R17
                                R23G05E12E04E11E36E19E14E09
 124437625.064 5  96964488.94743  92924298.751 7  23679704.391
  23679712.887    23679714.809          34.700          21.800          45.700
 116524762.865 7  90798675.08245                  22173955.953
  22173963.031                          43.200          30.800
 106188699.899 6  82591174.089 5                  19857824.266    19857823.184
  19857826.074                          39.200          33.500
 112905379.759 6  87815323.930 6                  21084274.680    21084274.941
  21084278.492                          38.400          41.600
 121223908.429 6  94285271.500 6                  22717308.313    22717306.945
  22717313.453                          36.000          38.100
 121586702.265 6  94742882.50144  90795270.208 7  23137166.531
  23137175.078    23137174.766          36.600          25.900          46.900
 108860814.189 7  84826627.05246                  20715516.852
  20715522.570                          45.800          38.600
 128009417.414 6  99747535.96942                  24359357.328
  24359363.449                          36.300          17.800
 105281723.797 7  81885828.424 6                  19695113.875    19695113.340
  19695119.680                          42.000          39.900
 120166370.911 6  93636070.05044                  22866873.758
  22866880.016                          41.400          27.200
 109510089.602 7  85332577.77146                  20839069.695
  20839073.098                          44.100          38.800
 123845742.218 5  96324459.940 5                  23143539.445    23143536.418
  23143542.156                          32.900          35.100
 105267580.835 7  81874883.865 6                  19678657.398    19678656.340
  19678663.992                          46.500          39.900
 107751591.038 7  83962368.16446                  20504440.188
  20504446.160                          47.300          39.400
 125593520.768 6                  93787382.400 6  23899652.148
                  23899656.168          37.400                          41.700
 124165361.189 7                  92720933.485 8  23627871.313
                  23627875.512          46.300                          51.000
 113684227.810 7                  84894076.368 7  21633387.469
                  21633389.063          43.200                          46.000
 132499181.952 6                  98944218.085 7  25213754.453
                  25213761.449          41.000                          44.800
 143711158.833 5                 107316804.595 5  27347320.758
                  27347325.836          31.500                          35.000
 118806508.699 7                  88719161.723 7  22608128.203
                  22608133.031          44.400                          47.900
 118426232.723 7                  88435224.547 7  22535754.750
                  22535760.418          45.100                          47.900
 19  7  9 10 45 18.0000000  0 21G06G29R24R08R02G30G13G07R01G15G02R17
                                R23G05E12E04E11E36E19E14E09
 124440784.371 5  96966950.76643  92926658.007 7  23680305.516
  23680314.387    23680316.129          34.700          22.000          45.800
 116524209.519 7  90798243.90444                  22173850.336
  22173857.898                          43.200          29.500
 106187146.642 6  82589965.962 5                  19857532.969    19857532.336
  19857536.035                          39.000          33.800
 112907986.284 6  87817351.203 6                  21084761.766    21084761.629
  21084765.391                          38.400          41.800
 121221208.772 6  94283171.812 6                  22716802.172    22716800.453
  22716807.086                          36.400          37.500
 121586006.681 6  94742340.48144  90794750.758 7  23137033.617
  23137042.391    23137042.418          37.000          24.000          46.700
 108858911.316 7  84825144.29446                  20715154.883
  20715160.496                          45.600          38.300
 128010323.219 6  99748241.81843                  24359529.563
  24359535.879                          36.300          18.600
 105281928.851 7  81885987.927 6                  19695152.125    19695151.824
  19695157.770                          42.200          39.900
 120163055.063 6  93633486.27044                  22866242.969
  22866249.023                          41.300          28.100
 109511105.813 7  85333369.62446                  20839263.156
  20839266.625                          44.600          38.800
 123841664.058 5  96321288.057 5                  23142777.266    23142774.730
  23142779.879                          32.900          35.600
 105269913.815 7  81876698.426 6                  19679093.180    19679092.285
  19679100.230                          46.400          39.900
 107751836.204 7  83962559.20346                  20504486.711
  20504492.797                          47.500          39.600
 125596208.513 6                  93789389.479 6  23900163.844
                  23900167.680          37.700                          41.700
 124166299.635 7                  92721634.277 8  23628049.977
                  23628054.102          46.300                          51.000
 113684640.956 7                  84894384.907 7  21633465.992
                  21633467.832          43.400                          45.900
 132497018.810 6                  98942602.751 7  25213343.195
                  25213349.777          41.100                          44.900
 143713663.156 5                 107318674.702 5  27347797.359
                  27347802.516          31.800                          35.100
 118812007.687 7                  88723268.120 7  22609174.641
                  22609179.453          44.500                          47.400
 118424791.367 7                  88434148.215 7  22535480.484
                  22535486.105          45.100                          47.900
 19  7  9 10 45 19.0000000  0 21G06G29R24R08R02G30G13G07R01G15G02R17
                                R23G05E12E04E11E36E19E14E09
 124443943.933 5  96969412.75143  92929017.408 7  23680906.703
  23680915.598    23680917.309          34.600          21.700          46.000
 116523656.818 7  90797813.22645                  22173746.047
  22173752.445                          43.200          30.600
 106185594.213 6  82588758.512 5                  19857243.383    19857242.020
  19857245.531                          39.000          33.400
 112910592.934 6  87819378.608 7                  21085250.258    21085248.176
  21085252.086                          38.100          42.000
 121218509.483 5  94281072.336 6                  22716296.453    22716294.313
  22716301.348                          35.600          37.500
 121585311.525 6  94741798.79644  90794231.691 7  23136900.953
