     2.11           OBSERVATION DATA    M (MIXED)           RINEX VERSION / TYPE
teqc  2016Nov7      KASI/KOREA          20190709 10:17:36UTCPGM / RUN BY / DATE
Linux 2.4.20-8|Pentium IV|gcc|Linux|486/DX+                 COMMENT
  0.0000      (antenna height)                              COMMENT
 +36.39942714 (latitude)                                    COMMENT
+127.37448264 (longitude)                                   COMMENT
0116.859      (elevation)                                   COMMENT
BIT 2 OF LLI FLAGS DATA COLLECTED UNDER A/S CONDITION       COMMENT
23902M002 (COGO code)                                       COMMENT
DAEJ                                                        MARKER NAME
23902M002                                                   MARKER NUMBER
KASI GPS            KASI/KOREA                              OBSERVER / AGENCY
5412K48145          TRIMBLE NETR9       5.20                REC # / TYPE / VERS
4923363230          TRM59800.00     SCIS                    ANT # / TYPE
 -3120042.0002  4084614.9459  3764026.7419                  APPROX POSITION XYZ
        0.0000        0.0000        0.0000                  ANTENNA: DELTA H/E/N
     1     1                                                WAVELENGTH FACT L1/2
    10    L1    L2    L5    C1    P1    P2    C5    S1    S2# / TYPES OF OBSERV
          S5                                                # / TYPES OF OBSERV
    18                                                      LEAP SECONDS
 SNR is mapped to RINEX snr flag value [0-9]                COMMENT
  L1 & L2: min(max(int(snr_dBHz/6), 0), 9)                  COMMENT
  2019     7     9    10     0    0.0000000     GPS         TIME OF FIRST OBS
                                                            END OF HEADER
 19  7  9 10  0  0.0000000  0 21G06G29R24R08G30R22G13G07R01G15G09G02
                                R07R23G05E12E04E11E19E14E09
 116868984.796 6  91066848.17945  87272393.095 8  22239438.320
  22239447.508    22239448.594          40.000          30.500          49.000
 120388813.375 6  93809623.42044                  22909260.859
  22909267.445                          40.900          26.800
 113064030.423 5                                  21143545.211    21143544.766
                                        35.300
 106614465.973 7  82922391.490 7                  19909491.336    19909490.309
  19909494.160                          42.800          44.400
 125249128.587 5  97596718.57543  93530195.948 7  23834103.188
  23834113.000    23834113.469          33.700          21.300          44.400
 116866581.934 6  90896245.342 6                  21893046.859    21893045.707
  21893051.723                          40.200          39.600
 115877760.015 7  90294375.58744                  22050798.313
  22050804.352                          42.000          28.900
 127505849.182 6  99355143.56443                  24263532.125
  24263538.945                          38.600          19.900
 106466397.486 6  82807240.254 6                  19916732.234    19916732.051
  19916738.918                          41.900          39.700
 130016385.653 5                                  24741271.906
                                        32.500
 126793335.236 5  98800080.00043  94683402.089 7  24127970.422
  24127978.305    24127979.320          34.500          19.000          42.400
 108510266.053 7  84553495.05146                  20648809.078
  20648812.129                          45.900          40.100
 124758823.596 5  97034663.296 6                  23305991.789    23305990.957
  23305997.367                          35.300          36.800
 102019302.746 7  79348446.307 6                  19071425.000    19071424.223
  19071431.852                          45.300          39.900
 108084324.796 8  84221640.84246                  20567757.773
  20567763.293                          48.400          39.800
 119241908.334 6                  89044296.094 7  22690980.250
                  22690983.180          41.800                          45.300
 122634848.410 7                  91578017.527 8  23336624.742
                  23336629.188          46.300                          50.700
 114113041.845 7                  85214295.091 7  21714987.836
                  21714989.359          43.200                          45.500
 136964974.468 5                 102279072.578 6  26063562.414
                  26063566.918          34.400                          37.500
 105848777.693 7                  79042935.052 8  20142352.711
                  20142357.570          47.000                          50.300
 123324709.227 7                  92093176.623 7  23467904.531
                  23467910.344          42.300                          45.300
 19  7  9 10  0  1.0000000  0 21G06G29R24R08G30R22G13G07R01G15G09G02
                                R07R23G05E12E04E11E19E14E09
 116871354.154 6  91068694.43845  87274162.437 8  22239889.750
  22239898.078    22239899.602          40.200          31.200          49.000
 120386588.581 6  93807889.82344                  22908837.367
  22908844.219                          40.500          25.200
 113060694.887 5                                  21142921.336    21142920.891
                                        35.800
 106616373.385 7  82923875.034 7                  19909847.719    19909846.504
  19909850.273                          42.800          44.600
 125247228.871 5  97595238.30643  93528777.334 7  23833742.500
  23833752.090    23833752.059          33.900          21.700          44.100
 116870401.103 6  90899215.811 6                  21893762.641    21893760.922
  21893766.875                          40.300          39.500
 115874585.971 7  90291902.30444                  22050194.156
  22050200.512                          42.100          29.300
 127505332.793 6  99354741.21243                  24263433.328
  24263440.836                          37.300          20.100
 106465260.143 6  82806355.667 6                  19916520.508    19916519.316
  19916526.176                          41.800          39.800
 130012540.247 5                                  24740539.820
                                        32.400
 126796704.310 5  98802705.23643  94685917.964 6  24128611.406
  24128619.305    24128620.309          34.300          19.000          41.800
 108510025.802 7  84553307.83846                  20648763.320
  20648766.664                          46.000          40.400
 124762419.956 5  97037460.455 6                  23306663.641    23306663.020
  23306669.379                          35.400          36.800
 102019325.669 7  79348464.142 6                  19071430.297    19071428.559
  19071435.781                          45.400          40.100
 108083816.734 8  84221244.94646                  20567661.273
  20567666.848                          48.100          39.800
 119243855.502 6                  89045750.174 7  22691350.625
                  22691353.730          41.700                          45.100
 122634988.480 7                  91578122.119 8  23336651.383
                  23336655.832          46.100                          51.100
 114112348.717 7                  85213777.495 7  21714855.867
                  21714857.344          42.700                          45.500
 136967384.831 5                 102280872.536 6  26064021.180
                  26064025.816          34.300                          37.600
 105852507.705 7                  79045720.426 8  20143062.586
                  20143067.379          47.000                          49.800
 123322553.201 7                  92091566.610 7  23467494.055
                  23467499.988          42.400                          45.100
 19  7  9 10  0  2.0000000  0 21G06G29R24R08G30R22G13G07R01G15G09G02
                                R07R23G05E12E04E11E19E14E09
 116873723.943 6  91070541.02145  87275932.088 8  22240340.945
  22240349.191    22240350.418          40.000          31.300          48.900
 120384364.453 6  93806156.72544                  22908414.430
  22908420.957                          40.800          26.500
 113057359.842 6                                  21142298.367    21142297.781
                                        36.200
 106618281.284 7  82925358.971 7                  19910203.266    19910202.871
  19910206.461                          42.800          44.900
 125245329.585 5  97593758.31443  93527359.010 7  23833380.828
  23833390.590    23833390.641          33.800          21.800          44.300
 116874220.771 6  90902186.665 6                  21894478.531    21894476.742
  21894482.496                          40.400          39.400
 115871412.423 6  90289429.41044                  22049590.234
  22049596.445                          41.700          29.400
 127504816.962 6  99354339.25343                  24263335.852
  24263342.539                          37.600          21.500
 106464123.461 6  82805471.567 6                  19916307.563    19916306.676
  19916313.344                          41.800          39.500
 130008695.032 5                                  24739808.094
                                        32.600
 126800073.734 5  98805330.75043  94688434.057 7  24129252.656
  24129260.461    24129261.555          34.300          19.000          42.300
 108509786.067 7  84553121.03246                  20648717.969
  20648721.234                          45.300          40.200
 124766016.373 5  97040257.681 6                  23307336.445    23307334.910
  23307340.918                          35.300          36.300
 102019349.546 7  79348482.730 6                  19071433.742    19071432.965
  19071440.398                          45.600          40.300
 108083309.031 8  84220849.33846                  20567564.281
  20567570.031                          48.400          39.400
 119245803.075 6                  89047204.531 7  22691721.422
                  22691724.352          41.600                          45.300
 122635128.996 7                  91578227.048 8  23336678.164
                  23336682.594          46.100                          51.400
 114111656.031 7                  85213260.229 7  21714724.203
                  21714725.445          42.800                          45.700
 136969795.422 5                 102282672.632 6  26064479.688
                  26064484.258          34.400                          38.000
 105856238.776 7                  79048506.618 8  20143772.586
                  20143777.395          47.000                          50.000
 123320397.501 7                  92089956.819 7  23467083.820
                  23467089.727          42.100                          45.300
 19  7  9 10  0  3.0000000  0 21G06G29R24R08G30R22G13G07R01G15G09G02
                                R07R23G05E12E04E11E19E14E09
 116876093.979 6  91072387.80745  87277701.917 8  22240791.656
  22240800.156    22240801.492          40.200          31.600          48.800
 120382140.718 6  93804423.95344                  22907991.422
  22907997.629                          41.100          26.900
 113054025.195 5                                  21141674.758    21141673.652
                                        35.600
 106620189.485 7  82926843.113 7                  19910560.055    19910559.262
  19910563.031                          43.000          44.900
 125243430.490 5  97592278.48643  93525940.856 7  23833019.492
  23833029.520    23833029.289          33.300          21.800          44.200
 116878040.744 6  90905157.735 6                  21895193.680    21895192.242
  21895198.023                          40.600          39.500
 115868239.101 6  90286956.69544                  22048986.688
  22048992.434                          41.800          29.500
 127504301.512 6  99353937.59043                  24263237.836
  24263244.473                          38.100          21.500
 106462987.199 6  82804587.826 6                  19916094.281    19916094.145
  19916100.500                          41.400          39.400
 130004849.764 5                                  24739076.672
                                        33.100
 126803443.174 5  98807956.30943  94690950.200 6  24129893.648
  24129901.969    24129902.723          34.600          19.600          41.800
 108509546.643 7  84552934.47646                  20648672.000
  20648675.070                          45.100          40.600
 124769612.644 5  97043054.788 6                  23308008.109    23308006.762
  23308012.984                          35.300          36.000
 102019374.177 7  79348501.878 6                  19071438.016    19071437.637
  19071445.043                          45.800          40.500
 108082801.565 8  84220453.91246                  20567467.680
  20567473.336                          48.000          40.000
 119247750.864 6                  89048659.057 7  22692091.945
                  22692095.133          41.600                          45.300
 122635269.745 7                  91578332.149 8  23336704.945
                  23336709.340          46.100                          51.600
 114110963.620 7                  85212743.171 7  21714592.313
                  21714593.844          42.800                          45.700
 136972205.978 5                 102284472.741 6  26064938.563
                  26064942.988          34.600                          37.900
 105859970.760 7                  79051293.499 8  20144482.961
                  20144487.582          47.300                          50.100
 123318241.962 7                  92088347.163 7  23466673.719
                  23466679.469          42.200                          45.600
 19  7  9 10  0  4.0000000  0 21G06G29R24R08G30R22G13G07R01G15G09G02
                                R07R23G05E12E04E11E19E14E09
 116878464.323 6  91074234.83145  87279471.975 8  22241242.109
  22241251.789    22241252.469          40.600          31.100          48.700
 120379917.497 6  93802691.58244                  22907568.008
  22907574.457                          41.200          24.800
 113050690.964 6                                  21141051.047    21141049.918
                                        36.500
 106622098.036 7  82928327.566 7                  19910916.648    19910915.621
  19910919.254                          43.000          44.900
 125241531.710 5  97590798.93443  93524522.948 7  23832657.836
  23832668.074    23832667.773          33.700          21.300          43.900
 116881861.091 6  90908129.134 6                  21895909.742    21895907.883
  21895913.582                          40.600          39.500
 115865066.126 6  90284484.24244                  22048383.148
  22048389.098                          41.800          29.400
 127503786.556 6  99353536.34343                  24263139.914
  24263146.590                          38.400          21.100
 106461851.479 6  82803704.489 6                  19915882.500    19915881.543
  19915888.516                          41.600          39.700
 130001004.549 5                                  24738344.109
                                        33.200
 126806812.739 5  98810581.94243  94693466.440 7  24130535.070
  24130542.895    24130543.977          34.600          19.300          42.200
 108509307.585 7  84552748.19346                  20648626.602
  20648629.895                          45.000          41.000
 124773208.857 5  97045851.878 6                  23308679.914    23308678.637
  23308684.797                          35.500          36.100
 102019399.647 7  79348521.678 6                  19071443.539    19071442.223
  19071450.035                          45.600          40.500
 108082294.345 7  84220058.67846                  20567370.922
  20567376.930                          47.900          40.100
 119249698.965 6                  89050113.793 7  22692462.805
                  22692465.816          41.900                          45.300
 122635410.808 7                  91578437.497 8  23336731.992
                  23336736.070          46.100                          51.400
 114110271.565 7                  85212226.372 7  21714460.789
                  21714462.066          42.700                          45.700
 136974616.614 5                 102286272.881 6  26065397.359
                  26065401.816          34.600                          38.200
 105863703.713 7                  79054081.082 8  20145193.156
                  20145197.875          47.000                          50.300
 123316086.643 7                  92086737.676 7  23466263.586
                  23466269.508          42.100                          45.900
 19  7  9 10  0  5.0000000  0 21G06G29R24R08G30R22G13G07R01G15G09G02
                                R07R23G05E12E04E11E19E14E09
 116880835.065 6  91076082.16045  87281242.330 8  22241693.344
  22241702.316    22241703.742          40.600          31.200          48.700
 120377694.904 6  93800959.68144                  22907144.797
  22907151.383                          41.300          25.900
 113047357.268 6                                  21140428.063    21140426.723
                                        36.500
 106624007.085 7  82929812.368 7                  19911273.133    19911272.223
  19911275.871                          42.900          44.700
 125239633.318 5  97589319.66643  93523105.329 7  23832296.570
  23832306.727    23832306.574          34.200          20.600          43.800
 116885681.954 6  90911100.917 6                  21896624.820    21896623.855
  21896629.332                          41.100          39.700
 115861893.594 6  90282012.13844                  22047778.734
  22047784.887                          41.700          29.200
 127503272.156 6  99353135.51143                  24263042.781
  24263048.547                          38.800          21.100
 106460716.416 6  82802821.676 6                  19915670.273    19915668.848
  19915676.016                          41.700          39.800
 129997159.603 5                                  24737612.352
                                        32.300
 126810182.627 5  98813207.82143  94695982.900 7  24131176.570
  24131183.910    24131185.184          34.300          19.900          42.400
 108509069.037 7  84552562.31146                  20648581.719
  20648584.586                          45.200          40.800
 124776805.139 5  97048648.963 6                  23309350.289    23309350.395
  23309356.594                          35.300          36.100
 102019426.049 7  79348542.214 6                  19071449.000    19071447.426
  19071455.016                          45.800          40.900
 108081787.525 7  84219663.75546                  20567274.539
  20567280.426                          47.500          40.100
 119251647.451 7                  89051568.818 7  22692833.398
                  22692836.402          42.100                          45.100
 122635552.301 7                  91578543.158 8  23336758.539
                  23336763.148          46.000                          51.200
 114109579.931 7                  85211709.897 7  21714329.297
                  21714330.457          42.800                          45.500
 136977027.446 5                 102288073.150 6  26065856.148
                  26065860.574          34.100                          37.500
 105867437.746 7                  79056869.501 8  20145903.852
                  20145908.348          47.400                          50.100
 123313931.655 7                  92085128.415 7  23465853.594
                  23465859.387          42.400                          45.800
 19  7  9 10  0  6.0000000  0 21G06G29R24R08G30R22G13G07R01G15G09G02
                                R07R23G05E12E04E11E19E14E09
 116883205.960 6  91077929.61345  87283012.802 8  22242144.852
  22242154.004    22242155.008          40.800          31.300          48.600
 120375472.628 6  93799228.03044                  22906722.195
  22906728.688                          40.900          25.800
 113044023.851 6                                  21139805.203    21139803.020
                                        36.400
 106625916.324 7  82931297.333 7                  19911629.469    19911628.699
  19911632.129                          42.700          44.600
 125237735.064 5  97587840.50843  93521687.813 7  23831936.383
  23831945.488    23831945.281          34.600          20.900          43.800
 116889503.026 6  90914072.832 6                  21897340.953    21897339.563
  21897345.121                          40.900          39.600
 115858721.246 7  90279540.17844                  22047175.383
  22047181.223                          42.000          29.600
 127502758.083 6  99352734.93443                  24262944.688
  24262950.770                          38.500          20.600
 106459581.727 6  82801939.115 6                  19915458.148    19915456.957
  19915463.613                          41.800          39.500
 129993314.510 5                                  24736880.391
                                        34.200
 126813552.473 5  98815833.66443  94698499.342 7  24131817.758
  24131825.414    24131826.355          34.400          19.900          42.400
 108508830.692 7  84552376.58646                  20648536.047
  20648538.918                          45.200          40.600
 124780401.147 5  97051445.871 6                  23310022.375    23310021.941
  23310028.398                          34.900          36.000
 102019453.119 7  79348563.266 6                  19071453.633    19071452.387
  19071459.945                          45.900          40.600
 108081280.832 7  84219268.92246                  20567177.891
  20567183.875                          47.500          40.100
 119253596.054 6                  89053023.952 7  22693203.914
                  22693207.316          41.700                          44.700
 122635693.940 7                  91578648.936 8  23336785.656
                  23336790.082          45.700                          50.900
 114108888.491 7                  85211193.555 7  21714197.281
                  21714198.840          42.700                          45.600
 136979438.165 5                 102289873.386 6  26066314.508
                  26066319.301          33.900                          37.100
 105871172.617 7                  79059658.508 8  20146614.555
                  20146619.191          47.200                          49.900
 123311776.726 7                  92083519.221 7  23465443.359
                  23465449.289          42.400                          45.100
 19  7  9 10  0  7.0000000  0 21G06G29R24R08G30R22G13G07R01G15G09G02
                                R07R23G05E12E04E11E19E14E09
 116885577.297 6  91079777.40245  87284783.599 8  22242596.195
  22242605.172    22242606.270          40.900          31.700          48.900
 120373250.995 6  93797496.88844                  22906299.234
  22906306.672                          40.900          25.600
 113040691.050 6                                  21139180.797    21139180.066
                                        36.100
 106627826.093 7  82932782.698 7                  19911986.430    19911985.426
  19911988.918                          43.100          44.400
 125235837.308 5  97586361.75443  93520270.626 7  23831575.531
  23831584.750    23831584.012          34.800          21.100          44.000
 116893324.584 6  90917045.178 6                  21898057.078    21898055.359
  21898060.883                          40.600          39.900
 115855549.364 6  90277068.58244                  22046571.813
  22046577.746                          41.500          29.000
 127502244.599 6  99352334.80843                  24262846.898
  24262852.883                          38.400          21.300
 106458447.690 6  82801057.096 6                  19915245.156    19915244.738
  19915252.031                          41.800          39.600
 129989469.570 5                                  24736148.859
                                        34.300
 126816922.581 5  98818459.72243  94701016.002 7  24132458.672
  24132466.930    24132467.641          33.700          19.000          42.400
 108508592.910 7  84552191.29846                  20648490.227
  20648493.883                          45.200          40.800
 124783997.300 5  97054242.845 6                  23310695.391    23310693.457
  23310700.102                          35.100          36.200
 102019481.160 7  79348585.072 6                  19071458.508    19071457.707
  19071465.035                          45.800          40.200
 108080774.539 7  84218874.41446                  20567081.875
  20567087.496                          47.400          39.500
 119255545.076 6                  89054479.399 7  22693575.086
                  22693578.281          41.700                          44.700
 122635836.064 7                  91578755.062 8  23336812.758
                  23336817.172          45.600                          51.200
 114108197.507 7                  85210677.572 7  21714065.875
                  21714067.438          42.600                          45.700
 136981849.088 5                 102291673.747 6  26066773.617
                  26066778.238          33.900                          37.300
 105874908.587 7                  79062448.374 8  20147325.398
                  20147330.145          47.200                          50.100
 123309622.172 7                  92081910.310 7  23465033.492
                  23465039.164          42.000                          45.000
 19  7  9 10  0  8.0000000  0 21G06G29R24R08G30R22G13G07R01G15G09G02
                                R07R23G05E12E04E11E19E14E09
 116887948.985 6  91081625.46345  87286554.674 8  22243047.750
  22243056.500    22243057.504          40.600          31.500          48.800
 120371029.921 6  93795766.18544                  22905876.438
  22905883.512                          40.700          25.100
 113037358.674 6                                  21138557.180    21138556.758
                                        36.100
 106629736.248 7  82934268.381 7                  19912341.492    19912342.012
  19912345.766                          43.200          44.100
 125233939.851 5  97584883.22243  93518853.688 7  23831214.117
  23831223.645    23831223.051          35.700          20.900          44.100
 116897146.576 6  90920017.827 6                  21898772.859    21898771.188
  21898777.258                          40.900          39.400
 115852377.866 7  90274597.29244                  22045968.086
  22045974.621                          42.000          29.600
 127501731.602 6  99351935.07543                  24262749.359
  24262755.441                          38.700          20.900
 106457314.253 6  82800175.513 6                  19915033.781    19915032.637
  19915039.469                          41.800          39.700
 129985624.803 5 101287434.01652                  24735418.055
  24735426.383                          34.300          17.400
 126820292.966 5  98821085.98943  94703532.810 7  24133099.828
  24133107.758    24133109.250          34.800          19.600          42.500
 108508355.544 7  84552006.34446                  20648445.969
  20648448.805                          45.200          40.200
 124787593.387 5  97057039.811 6                  23311367.469    23311366.074
  23311371.813                          35.200          36.400
 102019510.114 7  79348607.617 6                  19071463.570    19071462.793
  19071470.625                          45.400          40.300
 108080268.564 7  84218480.15046                  20566985.625
  20566991.664                          47.400          39.500
 119257494.437 6                  89055935.089 7  22693946.102
                  22693949.082          41.800                          44.900
 122635978.556 7                  91578861.456 8  23336839.703
                  23336844.250          45.500                          50.800
 114107506.944 7                  85210161.862 7  21713934.367
                  21713935.965          43.100                          45.700
 136984260.16415                 102293474.199 6  26067232.359
                  26067236.910          34.400                          37.700
 105878645.577 7                  79065238.980 8  20148036.633
                  20148041.203          47.400                          50.000
 123307467.879 7                  92080301.570 7  23464623.281
                  23464629.449          42.100                          44.900
 19  7  9 10  0  9.0000000  0 21G06G29R24R08G30R22G13G07R01G15G09G02
                                R07R23G05E12E04E11E19E14E09
 116890321.024 6  91083473.80345  87288325.980 8  22243498.930
  22243507.816    22243508.895          40.400          30.800          48.800
 120368809.340 6  93794035.86744                  22905453.445
  22905461.129                          40.900          24.500
 113034026.805 5                                  21137934.789    21137933.918
                                        35.800
 106631646.802 7  82935754.366 7                  19912698.453    19912698.949
  19912702.492                          43.000          44.100
 125232042.678 5  97583404.90543  93517437.008 7  23830853.063
  23830862.621    23830862.250          35.500          20.600          44.300
 116900968.969 6  90922990.816 6                  21899489.398    21899487.094
  21899493.129                          40.500          39.200
 115849206.721 6  90272126.26944                  22045364.891
  22045370.758                          41.500          29.500
 127501219.098 6  99351535.73043                  24262651.594
  24262658.105                          38.100          21.500
 106456181.349 6  82799294.382 6                  19914821.898    19914820.754
  19914827.586                          41.700          39.700
 129981780.116 5 101284438.17042                  24734686.656
  24734694.871                          34.600          17.400
 126823663.447 5  98823712.34843  94706049.747 7  24133741.031
  24133749.207    24133750.680          33.900          19.900          42.500
 108508118.563 7  84551821.68546                  20648400.359
  20648403.871                          45.300          40.700
 124791189.318 5  97059836.706 6                  23312038.773    23312037.590
  23312043.652                          34.700          36.200
 102019539.894 7  79348630.748 6                  19071469.070    19071468.504
  19071476.180                          45.100          40.400
 108079762.887 7  84218086.10946                  20566889.461
  20566895.055                          47.500          39.500
 119259444.090 6                  89057391.012 7  22694317.242
                  22694320.184          41.800                          44.800
 122636121.363 7                  91578968.108 8  23336867.070
                  23336871.402          46.100                          50.800
 114106816.685 7                  85209646.428 7  21713803.070
                  21713804.625          43.100                          45.500
 136986671.331 5                 102295274.733 6  26067691.156
                  26067695.645          34.100                          37.800
 105882383.577 7                  79068030.348 8  20148748.031
                  20148752.492          47.100                          50.000
 123305313.818 7                  92078693.037 7  23464213.680
                  23464219.578          42.000                          45.100
 19  7  9 10  0 10.0000000  0 21G06G29R24R08G30R22G13G07R01G15G09G02
                                R07R23G05E12E04E11E19E14E09
 116892693.347 6  91085322.36245  87290097.541 8  22243949.813
  22243959.238    22243960.289          40.600          31.500          48.800
 120366589.284 6  93792305.96144                  22905031.422
  22905038.211                          40.700          25.400
 113030695.314 6                                  21137312.445    21137310.543
                                        36.300
 106633557.718 7  82937240.641 7                  19913056.477    19913055.520
  19913059.125                          42.900          44.300
 125230145.887 5  97581926.88243  93516020.541 7  23830491.961
  23830501.660    23830501.004          35.100          20.100          44.100
 116904791.726 6  90925964.106 6                  21900204.742    21900203.211
  21900209.242                          40.600          39.000
 115846035.920 6  90269655.52144                  22044761.406
  22044767.063                          41.300          29.000
 127500707.096 6  99351136.76343                  24262554.641
  24262560.559                          38.000          21.300
 106455048.978 6  82798413.642 6                  19914609.883    19914608.879
  19914615.691                          41.500          39.700
 129977935.489 5 101281442.36142                  24733954.570
  24733963.234                          33.800          16.900
 126827034.080 5  98826338.83443  94708566.786 7  24134382.430
  24134390.633    24134392.105          33.500          19.300          42.300
 108507881.990 7  84551637.33646                  20648355.383
  20648358.625                          45.500          40.900
 124794785.289 5  97062633.572 6                  23312708.727    23312709.137
  23312715.309                          35.400          36.300
 102019570.539 7  79348654.583 6                  19071474.820    19071474.137
  19071481.965                          45.100          40.700
 108079257.496 7  84217692.30246                  20566793.359
  20566798.660                          47.800          39.500
 119261394.074 6                  89058847.151 7  22694688.281
                  22694691.348          41.600                          44.800
 122636264.503 7                  91579075.002 8  23336894.156
                  23336898.645          46.300                          51.000
 114106126.779 7                  85209131.242 7  21713671.914
                  21713673.340          43.200                          45.500
 136989082.512 5                 102297075.317 6  26068149.914
                  26068154.617          34.700                          37.600
 105886122.554 7                  79070822.433 8  20149459.445
                  20149463.984          47.100                          50.300
 123303160.005 7                  92077084.670 7  23463803.719
                  23463809.813          42.300                          45.400
 19  7  9 10  0 11.0000000  0 21G06G29R24R08G30R22G13G07R01G15G09G02
                                R07R23G05E12E04E11E19E14E09
 116895066.002 6  91087171.19445  87291869.326 8  22244401.125
  22244411.070    22244411.887          40.100          30.600          48.500
 120364369.730 6  93790576.43244                  22904609.508
  22904616.020                          40.700          24.800
 113027364.334 6                                  21136688.531    21136687.875
                                        36.100
 106635469.065 7  82938727.232 7                  19913413.234    19913412.301
  19913416.336                          42.900          44.400
 125228249.345 5  97580449.05943  93514604.319 7  23830131.492
  23830140.770    23830140.469          35.700          21.100          44.500
 116908614.886 6  90928937.634 6                  21900921.336    21900919.547
  21900925.371                          40.500          39.600
 115842865.481 6  90267185.04544                  22044157.758
  22044163.930                          41.500          29.700
 127500195.556 6  99350738.17243                  24262457.641
  24262463.313                          38.100          21.500
 106453917.152 6  82797533.352 6                  19914398.430    19914397.473
  19914404.066                          41.100          39.900
 129974090.970 5 101278446.58442                  24733223.055
  24733231.355                          34.700          16.300
 126830404.952 5  98828965.44243  94711083.952 7  24135024.438
  24135032.258    24135033.551          34.000          19.000          42.800
 108507645.830 7  84551453.31946                  20648310.344
  20648313.637                          45.700          40.500
 124798381.160 5  97065430.307 6                  23313381.172    23313380.527
  23313387.262                          35.100          36.400
 102019602.010 7  79348679.067 6                  19071480.836    19071480.105
  19071487.723                          45.400          40.700
 108078752.392 7  84217298.71446                  20566697.047
  20566702.707                          47.700          39.200
 119263344.338 6                  89060303.531 7  22695059.141
                  22695062.336          41.900                          45.200
 122636407.998 7                  91579182.141 8  23336921.586
                  23336925.945          46.400                          50.900
 114105437.250 7                  85208616.334 7  21713540.867
                  21713542.090          42.900                          45.600
 136991493.797 5                 102298875.966 6  26068608.922
                  26068613.430          34.900                          37.700
 105889862.518 7                  79073615.275 8  20150171.148
                  20150175.809          46.900                          50.200
 123301006.424 7                  92075476.485 7  23463394.297
                  23463399.891          42.000                          45.400
 19  7  9 10  0 12.0000000  0 21G06G29R24R08G30R22G13G07R01G15G09G02
                                R07R23G05E12E04E11E19E14E09
 116897439.013 6  91089020.29345  87293641.368 8  22244853.000
  22244862.164    22244863.355          40.500          31.100          48.700
 120362150.737 6  93788847.34244                  22904186.891
  22904193.809                          41.000          24.500
 113024033.803 5                                  21136065.930    21136064.871
                                        35.900
 106637380.803 7  82940214.160 7                  19913770.422    19913769.324
  19913773.320                          42.700          44.300
 125226353.176 5  97578971.54843  93513188.323 7  23829769.805
  23829779.859    23829779.625          35.300          21.300          44.100
 116912438.471 6  90931911.540 6                  21901637.313    21901635.641
  21901641.379                          40.500          39.200
 115839695.385 6  90264714.84344                  22043554.750
  22043560.754                          41.800          29.600
 127499684.497 6  99350339.94543                  24262359.414
  24262365.625                          38.300          20.400
 106452785.873 6  82796653.446 6                  19914186.227    19914185.645
  19914192.598                          41.300          39.900
 129970246.562 5 101275450.96742                  24732492.117
  24732499.711                          35.000          16.900
 126833775.947 5  98831592.13843  94713601.290 7  24135666.055
  24135673.637    24135675.059          33.900          18.300          42.900
 108507410.093 7  84551269.62346                  20648265.570
  20648268.879                          45.600          40.400
 124801977.010 5  97068227.087 6                  23314053.414    23314052.277
  23314058.957                          35.400          36.200
 102019634.366 7  79348704.250 6                  19071487.242    19071486.559
  19071493.578                          45.500          40.200
 108078247.608 7  84216905.37446                  20566601.094
  20566607.012                          47.500          39.300
 119265294.925 6                  89061760.131 7  22695430.578
                  22695433.652          41.900                          45.700
 122636551.833 7                  91579289.564 8  23336948.883
                  23336953.273          46.300                          50.900
 114104748.100 7                  85208101.706 7  21713409.695
                  21713410.965          43.000                          45.500
 136993905.233 5                 102300676.708 6  26069067.750
                  26069072.254          34.600                          37.700
 105893603.497 7                  79076408.854 8  20150883.086
                  20150887.516          47.000                          50.200
 123298853.118 7                  92073868.486 7  23462984.055
                  23462990.277          42.100                          45.400
 19  7  9 10  0 13.0000000  0 21G06G29R24R08G30R22G13G07R01G15G09G02
                                R07R23G05E12E04E11E19E14E09
 116899812.385 6  91090869.66645  87295413.693 8  22245304.750
  22245314.086    22245314.941          40.400          31.000          48.300
 120359932.302 6  93787118.69944                  22903764.930
  22903771.387                          41.100          25.700
 113020703.734 6                                  21135442.648    21135442.180
                                        36.200
 106639292.995 7  82941701.386 7                  19914127.250    19914126.457
  19914130.367                          42.800          44.600
 125224457.417 5  97577494.31943  93511772.641 7  23829410.023
  23829419.035    23829418.730          35.100          22.500          44.000
 116916262.501 6  90934885.793 6                  21902352.672    21902351.988
  21902358.090                          40.500          39.100
 115836525.732 7  90262244.98444                  22042951.602
  22042957.652                          42.000          29.400
 127499173.977 6  99349942.11843                  24262262.109
  24262268.496                          37.600          20.600
 106451655.178 6  82795774.040 6                  19913974.617    19913973.965
  19913981.074                          41.700          40.200
 129966402.288 5 101272455.40642                  24731760.281
  24731768.184                          35.100          17.400
 126837147.227 5  98834219.11443  94716118.740 7  24136307.852
  24136315.043    24136316.551          34.400          19.600          42.800
 108507174.807 7  84551086.28446                  20648220.703
  20648223.984                          45.900          40.300
 124805572.861 5  97071023.850 6                  23314724.797    23314723.871
  23314730.590                          35.200          36.500
 102019667.636 7  79348730.129 6                  19071492.859    19071492.457
  19071499.855                          45.700          40.300
 108077743.170 7  84216512.30946                  20566504.969
  20566510.828                          47.400          39.600
 119267245.870 6                  89063217.001 7  22695801.828
                  22695804.867          41.800                          45.500
 122636696.055 7                  91579397.260 8  23336976.250
                  23336980.688          46.200                          50.900
 114104059.350 7                  85207587.374 7  21713278.828
                  21713279.961          42.500                          45.800
 136996316.789 5                 102302477.514 6  26069527.008
                  26069531.027          34.400                          37.700
 105897345.522 7                  79079203.231 8  20151595.109
                  20151599.691          47.200                          50.600
 123296700.100 7                  92072260.708 7  23462574.422
                  23462580.410          42.400                          45.600
 19  7  9 10  0 14.0000000  0 21G06G29R24R08G30R22G13G07R01G15G09G02
                                R07R23G05E12E04E11E19E14E09
 116902186.127 6  91092719.33545  87297186.291 8  22245755.805
  22245765.484    22245766.676          40.500          30.800          48.400
 120357714.447 6  93785390.50244                  22903342.570
  22903349.566                          41.100          26.000
 113017374.181 6                                  21134820.625    21134819.707
                                        36.300
 106641205.567 7  82943188.967 7                  19914483.813    19914483.652
  19914487.570                          42.400          44.800
 125222561.957 5  97576017.32043  93510357.204 7  23829048.844
  23829058.750    23829058.484          35.200          22.800          44.100
 116920086.963 6  90937860.353 6                  21903069.664    21903068.582
  21903074.000                          40.200          39.000
 115833356.460 7  90259775.41944                  22042348.586
  22042354.707                          42.100          29.100
 127498663.997 6  99349544.74743                  24262164.484
  24262171.059                          36.800          20.900
 106450525.062 6  82794895.052 6                  19913763.258    19913762.535
  19913769.555                          41.600          39.900
 129962558.163 5 101269459.94542                  24731028.211
  24731036.492                          35.200          16.300
 126840518.617 5  98836846.19743  94718636.401 7  24136948.656
  24136956.637    24136958.074          34.300          19.900          42.400
 108506939.978 7  84550903.29646                  20648176.063
  20648179.594                          46.000          40.500
 124809168.676 5  97073820.605 6                  23315396.766    23315395.605
  23315402.105                          35.000          36.400
 102019701.789 7  79348756.669 6                  19071500.156    19071499.004
  19071506.289                          45.800          40.200
 108077239.040 7  84216119.47546                  20566409.297
  20566415.270                          47.600          39.400
 119269197.170 6                  89064674.139 7  22696173.148
                  22696176.105          41.900                          45.000
 122636840.654 7                  91579505.241 8  23337003.789
                  23337008.305          46.300                          50.900
 114103370.975 7                  85207073.330 7  21713147.852
                  21713148.887          43.000                          45.700
 136998728.464 5                 102304278.461 6  26069985.961
                  26069989.961          34.700                          37.400
 105901088.583 7                  79081998.360 8  20152307.188
                  20152311.945          47.400                          50.400
 123294547.362 7                  92070653.144 7  23462164.750
                  23462170.781          42.400                          45.200
 19  7  9 10  0 15.0000000  0 21G06G29R24R08G30R22G13G07R01G15G09G02
                                R07R23G05E12E04E11E19E14E09
 116904560.118 6  91094569.20045  87298959.082 8  22246208.086
  22246217.492    22246218.426          41.000          30.300          48.500
 120355497.064 6  93783662.66544                  22902920.914
  22902927.500                          41.100          25.600
 113014045.004 6                                  21134197.656    21134197.258
                                        36.500
 106643118.459 7  82944676.774 7                  19914841.242    19914840.895
  19914844.777                          42.900          45.000
 125220666.759 5  97574540.54543  93508941.969 7  23828687.859
  23828698.055    23828697.621          34.300          22.300          44.200
 116923911.731 6  90940835.188 6                  21903786.844    21903785.172
  21903790.750                          40.200          39.500
 115830187.484 7  90257306.09345                  22041745.523
  22041751.523                          42.200          30.400
 127498154.415 6  99349147.68643                  24262067.734
  24262074.750                          37.500          20.400
 106449395.433 6  82794016.440 6                  19913552.617    19913551.496
  19913557.988                          41.600          39.400
 129958714.066 5 101266464.59042                  24730297.266
  24730304.855                          34.800          15.600
 126843890.224 5  98839473.44143  94721154.091 7  24137591.258
  24137598.543    24137599.652          34.000          19.300          42.200
 108506705.489 7  84550720.58246                  20648131.516
  20648135.051                          45.900          40.500
 124812764.401 5  97076617.277 6                  23316068.711    23316067.691
  23316074.164                          35.600          36.700
 102019736.718 7  79348783.854 6                  19071506.430    19071505.605
  19071512.820                          45.700          40.200
 108076735.159 7  84215726.84846                  20566313.055
  20566319.078                          47.300          39.500
 119271148.685 6                  89066131.457 7  22696544.383
                  22696547.461          41.700                          45.100
 122636985.530 7                  91579613.430 8  23337031.344
                  23337035.816          46.400                          51.200
 114102682.937 7                  85206559.517 7  21713016.703
                  21713017.996          42.900                          45.700
 137001140.192 5                 102306079.403 6  26070444.969
                  26070449.090          34.400                          37.900
 105904832.579 7                  79084794.201 8  20153020.141
                  20153024.344          47.000                          50.400
 123292394.795 7                  92069045.711 7  23461755.422
                  23461761.246          42.300                          45.600
 19  7  9 10  0 16.0000000  0 21G06G29R24R08G30R22G13G07R01G15G09G02
                                R07R23G05E12E04E11E19E14E09
 116906934.464 6  91096419.33145  87300732.133 8  22246660.172
  22246669.098    22246670.199          40.600          30.500          48.800
 120353280.178 6  93781935.22144                  22902499.547
  22902505.859                          41.100          25.700
 113010716.342 6                                  21133575.195    21133574.418
                                        36.300
 106645031.757 7  82946164.886 7                  19915198.297    19915198.277
  19915201.926                          42.700          45.000
 125218771.861 5  97573064.01643  93507526.953 7  23828327.203
  23828337.059    23828337.285          34.900          22.800          44.000
 116927736.943 6  90943810.329 6                  21904503.000    21904501.895
  21904507.566                          40.200          39.400
 115827018.906 7  90254837.06944                  22041142.555
  22041148.320                          42.100          28.900
 127497645.351 6  99348750.98443                  24261971.188
  24261977.648                          37.400          20.600
 106448266.362 6  82793138.294 6                  19913341.438    19913340.152
  19913347.023                          41.600          40.000
 129954870.014 5 101263469.23142                  24729565.398
  24729573.379                          34.800          16.900
 126847261.968 5  98842100.74343  94723671.947 7  24138232.609
  24138240.094    24138241.363          34.300          19.000          42.600
 108506471.377 7  84550538.15146                  20648087.047
  20648090.363                          45.900          40.600
 124816360.072 5  97079413.935 6                  23316739.578    23316739.402
  23316746.008                          35.400          36.400
 102019772.522 7  79348811.688 6                  19071513.828    19071512.137
  19071519.566                          45.700          40.500
 108076231.552 7  84215334.42446                  20566217.461
  20566223.441                          47.300          39.400
 119273100.563 6                  89067589.016 7  22696916.195
                  22696918.875          41.600                          45.200
 122637130.748 7                  91579721.880 8  23337059.195
                  23337063.387          46.200                          51.100
 114101995.226 7                  85206045.987 7  21712885.648
                  21712887.191          43.000                          45.500
 137003551.988 5                 102307880.458 6  26070903.539
                  26070907.727          34.800                          38.000
 105908577.551 7                  79087590.782 8  20153732.578
                  20153737.031          46.800                          50.500
 123290242.499 7                  92067438.486 7  23461345.570
                  23461351.699          42.200                          45.500
 19  7  9 10  0 17.0000000  0 21G06G29R24R08G30R22G13G07R01G15G09G02
                                R07R23G05E12E04E11E19E14E09
 116909309.136 6  91098269.72945  87302505.419 8  22247111.391
  22247121.219    22247122.129          40.300          30.400          48.500
 120351063.857 6  93780208.21744                  22902077.617
  22902084.121                          40.700          24.400
 113007388.136 5                                  21132952.242    21132952.430
                                        35.800
 106646945.445 7  82947653.312 7                  19915556.461    19915555.457
  19915559.480                          42.500          45.100
 125216877.339 5  97571587.77243  93506112.210 7  23827966.797
  23827976.902    23827976.730          34.800          22.000          44.100
 116931562.509 6  90946785.818 6                  21905219.961    21905218.594
  21905224.195                          40.500          39.400
 115823850.654 7  90252368.30844                  22040539.695
  22040545.727                          42.700          29.500
 127497136.768 6  99348354.72043                  24261874.219
  24261880.852                          37.400          19.900
 106447137.846 6  82792260.528 6                  19913130.555    19913129.152
  19913135.676                          41.600          40.000
 129951026.085 5 101260473.96242                  24728834.242
  24728842.000                          34.300          16.300
 126850633.867 5  98844728.18643  94726189.922 7  24138874.969
  24138881.848    24138883.035          34.800          19.600          42.300
 108506237.709 7  84550356.07346                  20648042.445
  20648045.590                          45.800          40.600
 124819955.652 5  97082210.511 6                  23317411.961    23317410.285
  23317417.602                          35.600          36.100
 102019809.173 7  79348840.183 6                  19071520.109    19071519.098
  19071526.500                          45.700          40.600
 108075728.263 7  84214942.25446                  20566121.633
  20566127.285                          47.600          38.800
 119275052.717 6                  89069046.787 7  22697287.016
                  22697290.398          41.700                          45.600
 122637276.334 7                  91579830.580 8  23337086.648
                  23337091.199          46.200                          50.600
 114101307.884 7                  85205532.705 7  21712754.922
                  21712756.328          43.100                          45.600
 137005963.894 5                 102309681.544 6  26071362.602
                  26071366.867          34.000                          38.000
 105912323.541 7                  79090388.117 8  20154445.430
                  20154449.844          46.800                          50.500
 123288090.456 7                  92065831.419 7  23460935.828
                  23460942.203          42.200                          45.600
 19  7  9 10  0 18.0000000  0 21G06G29R24R08G30R22G13G07R01G15G09G02
                                R07R23G05E12E04E11E19E14E09
 116911684.121 6  91100120.36645  87304278.966 8  22247563.648
  22247573.336    22247574.039          40.200          30.400          48.400
 120348848.068 6  93778481.62144                  22901654.883
  22901662.438                          40.700          24.700
 113004060.434 6                                  21132330.102    21132329.680
                                        36.200
 106648859.539 7  82949142.045 7                  19915913.281    19915913.004
  19915916.887                          42.500          44.400
 125214983.107 5  97570111.75143  93504697.696 7  23827606.531
  23827616.238    23827616.449          35.000          22.200          44.200
 116935388.569 6  90949761.611 6                  21905936.625    21905935.070
  21905940.578                          40.500          39.400
 115820682.808 7  90249899.84944                  22039936.711
  22039942.699                          42.500          29.800
 127496628.678 6  99347958.80443                  24261778.336
  24261784.355                          37.600          20.100
 106446009.907 6  82791383.260 6                  19912919.445    19912918.207
  19912924.781                          41.700          39.900
 129947182.245 5 101257478.81542                  24728102.266
  24728110.773                          34.200          17.400
 126854005.959 5  98847355.78143  94728708.026 7  24139516.023
  24139523.328    24139524.621          34.600          19.000          42.300
 108506004.447 7  84550174.30846                  20647998.453
  20648001.207                          46.000          40.300
 124823551.264 5  97085007.085 6                  23318083.172    23318082.176
  23318089.125                          35.900          36.000
 102019846.706 7  79348869.385 6                  19071526.305    19071525.926
  19071533.398                          45.700          40.200
 108075225.290 8  84214550.32346                  20566026.266
  20566031.547                          48.000          39.400
 119277005.200 6                  89070504.809 7  22697659.086
                  22697661.832          41.300                          45.400
 122637422.262 7                  91579939.554 8  23337114.516
                  23337119.074          46.100                          50.700
 114100620.918 7                  85205019.722 7  21712624.281
                  21712625.566          43.100                          45.600
 137008375.880 5                 102311482.702 6  26071821.766
                  26071825.855          34.400                          37.700
 105916070.533 7                  79093186.182 8  20155158.586
                  20155162.832          46.900                          50.300
 123285938.641 7                  92064224.571 7  23460526.180
                  23460532.688          42.500                          45.500
 19  7  9 10  0 19.0000000  0 21G06G29R24R08G30R22G13G07R01G15G09G02
                                R07R23G05E12E04E11E19E14E09
 116914059.421 6  91101971.25245  87306052.717 8  22248015.898
  22248025.691    22248026.027          39.800          30.900          48.700
 120346632.759 6  93776755.39244                  22901233.758
  22901240.828                          40.600          26.200
 113000733.151 6                                  21131708.594    21131707.395
                                        36.100
 106650773.967 7  82950631.047 7                  19916271.188    19916270.723
  19916274.301                          42.300          44.000
 125213089.167 5  97568635.93743  93503283.409 7  23827247.266
  23827256.160    23827255.938          34.500          22.300          44.000
 116939214.933 6  90952737.697 6                  21906653.523    21906651.594
  21906657.785                          40.200          39.200
 115817515.283 7  90247431.64744                  22039334.047
  22039340.160                          43.100          29.100
 127496121.060 6  99347563.26743                  24261680.898
  24261687.531                          37.900          20.400
 106444882.479 6  82790506.391 6                  19912708.453    19912707.215
  19912714.086                          41.700          39.300
