     2.11           OBSERVATION DATA    M (MIXED)           RINEX VERSION / TYPE
teqc  2016Nov7      KASI/KOREA          20190709 10:32:36UTCPGM / RUN BY / DATE
Linux 2.4.20-8|Pentium IV|gcc|Linux|486/DX+                 COMMENT
  0.0000      (antenna height)                              COMMENT
 +36.39942714 (latitude)                                    COMMENT
+127.37448264 (longitude)                                   COMMENT
0116.859      (elevation)                                   COMMENT
BIT 2 OF LLI FLAGS DATA COLLECTED UNDER A/S CONDITION       COMMENT
23902M002 (COGO code)                                       COMMENT
DAEJ                                                        MARKER NAME
23902M002                                                   MARKER NUMBER
KASI GPS            KASI/KOREA                              OBSERVER / AGENCY
5412K48145          TRIMBLE NETR9       5.20                REC # / TYPE / VERS
4923363230          TRM59800.00     SCIS                    ANT # / TYPE
 -3120041.4934  4084614.5003  3764026.3127                  APPROX POSITION XYZ
        0.0000        0.0000        0.0000                  ANTENNA: DELTA H/E/N
     1     1                                                WAVELENGTH FACT L1/2
    10    L1    L2    L5    C1    P1    P2    C5    S1    S2# / TYPES OF OBSERV
          S5                                                # / TYPES OF OBSERV
    18                                                      LEAP SECONDS
 SNR is mapped to RINEX snr flag value [0-9]                COMMENT
  L1 & L2: min(max(int(snr_dBHz/6), 0), 9)                  COMMENT
  2019     7     9    10    15    0.0000000     GPS         TIME OF FIRST OBS
                                                            END OF HEADER
 19  7  9 10 15  0.0000000  0 21G06G29R24R08R02G30R22G13G07R01G15G02
                                R23G05E12E04E11E36E19E14E09
 119132721.745 6  92830798.59944  88962845.539 7  22670214.109
  22670222.977    22670223.211          39.000          28.000          46.500
 118609646.068 7  92423259.45444                  22570696.281
  22570702.945                          42.600          27.400
 110265841.276 6  85762283.757 5                  20620270.391    20620268.676
  20620272.406                          38.000          31.400
 108477226.080 6  84371204.763 7                  20257347.633    20257347.965
  20257351.602                          41.800          43.600
 126589493.057 5  98458501.967 5                  23722817.992    23722816.203
  23722822.367                          35.000          32.800
 123681944.387 6  96375536.98243  92359897.093 7  23535878.695
  23535887.445    23535887.586          37.200          22.500          46.000
 120452404.928 6  93685218.410 6                  22564793.563    22564791.375
  22564798.016                          38.900          39.200
 113177991.472 7  88190660.34045                  21537049.180
  21537055.340                          43.800          33.000
 127243765.632 6  99150923.46543                  24213659.125
  24213665.551                          37.300          19.000
 105662129.819 7  82181699.049 6                  19766277.977    19766276.715
  19766283.453                          42.300          39.900
 126602833.747 6  98651494.17143                  24091692.727
  24091700.383                          36.000          19.600
 108465673.505 7  84518747.43446                  20640323.781
  20640327.109                          45.200          41.100
 102390815.069 7  79637400.079 6                  19140875.078    19140874.934
  19140882.156                          45.600          40.100
 107745866.336 7  83957907.17646                  20503350.945
  20503356.629                          47.800          40.100
 121117787.311 6                  90445114.484 7  23047948.406
                  23047951.305          40.900                          43.600
 122896132.352 7                  91773132.355 8  23386345.398
                  23386349.586          46.000                          50.100
 113640350.483 7                  84861311.131 7  21625037.766
                  21625039.156          42.900                          45.700
 136784695.735 6                 102144438.606 7  26029261.711
                  26029267.750          38.700                          42.200
 139166897.005 5                 103923364.581 6  26482575.016
                  26482579.516          33.500                          36.300
 109579135.867 7                  81828591.782 8  20852216.719
                  20852221.539          46.000                          49.300
 121486888.105 7                  90720778.181 7  23118178.773
                  23118184.055          43.300                          46.700
 19  7  9 10 15  1.0000000  0 21G06G29R24R08R02G30R22G13G07R01G15G02
                                R23G05E12E04E11E36E19E14E09
 119135379.938 6  92832869.91844  88964830.524 7  22670719.320
  22670728.477    22670729.273          38.800          28.700          46.500
 118607927.952 7  92421920.65844                  22570369.594
  22570375.813                          42.400          28.200
 110262979.669 6  85760058.125 5                  20619734.773    20619734.094
  20619737.109                          38.000          31.300
 108479444.376 6  84372930.092 7                  20257762.156    20257761.785
  20257765.836                          41.600          43.800
 126586299.518 5  98456018.156 5                  23722219.594    23722217.547
  23722224.066                          34.400          33.200
 123680374.763 6  96374313.90943  92358724.965 7  23535579.805
  23535588.547    23535588.984          36.400          22.600          46.000
 120456538.866 6  93688433.669 6                  22565567.281    22565565.820
  22565572.363                          38.900          39.000
 113175177.966 7  88188467.99845                  21536513.602
  21536519.543                          44.100          32.800
 127243705.183 6  99150876.38343                  24213647.406
  24213654.402                          37.000          19.600
 105661475.747 7  82181190.331 6                  19766155.180    19766154.715
  19766161.270                          42.600          39.800
 126599103.911 5  98648587.79843                  24090983.430
  24090990.977                          35.800          19.600
 108465821.207 7  84518862.51946                  20640351.523
  20640355.129                          44.800          40.600
 102391620.901 7  79638026.826 6                  19141026.969    19141025.418
  19141033.008                          45.900          40.000
 107745620.267 7  83957715.42446                  20503303.969
  20503309.734                          47.900          40.000
 121120005.772 6                  90446771.127 7  23048370.617
                  23048373.480          40.800                          43.600
 122896568.552 7                  91773458.087 8  23386428.195
                  23386432.629          45.900                          50.000
 113639998.839 7                  84861048.522 7  21624970.859
                  21624972.262          43.000                          45.900
 136782176.374 6                 102142557.262 7  26028782.172
                  26028788.395          39.000                          42.300
 139169373.445 5                 103925213.840 6  26483045.938
                  26483050.789          33.600                          36.600
 109583660.606 7                  81831970.650 8  20853077.898
                  20853082.563          45.700                          49.500
 121484962.318 7                  90719340.099 7  23117812.000
                  23117817.574          43.000                          47.100
 19  7  9 10 15  2.0000000  0 21G06G29R24R08R02G30R22G13G07R01G15G02
                                R23G05E12E04E11E36E19E14E09
 119138038.429 6  92834941.46444  88966815.774 7  22671225.406
  22671234.742    22671235.137          39.000          27.400          46.700
 118606210.423 7  92420582.32844                  22570041.992
  22570049.223                          42.500          27.100
 110260118.703 6  85757832.929 5                  20619199.469    20619199.234
  20619201.895                          37.500          31.300
 108481662.991 6  84374655.692 7                  20258176.930    20258176.535
  20258180.055                          41.800          43.700
 126583106.369 5  98453534.547 5                  23721620.570    23721619.555
  23721625.602                          33.900          33.100
 123678805.569 6  96373091.15643  92357553.145 7  23535280.984
  23535290.309    23535290.414          37.000          21.700          46.300
 120460673.107 6  93691649.199 6                  22566341.625    22566340.398
  22566347.281                          39.400          38.800
 113172364.904 7  88186275.99945                  21535978.711
  21535984.086                          43.900          33.400
 127243645.222 6  99150829.65643                  24213636.930
  24213643.039                          36.500          20.600
 105660822.240 7  82180682.046 6                  19766033.141    19766032.535
  19766038.992                          42.400          39.900
 126595374.232 6  98645681.57343                  24090274.234
  24090281.281                          36.400          19.300
 108465969.356 7  84518977.96546                  20640379.617
  20640382.684                          45.100          40.800
 102392427.593 7  79638654.256 6                  19141176.914    19141176.324
  19141183.703                          46.000          39.900
 107745374.489 7  83957523.91446                  20503257.344
  20503263.211                          47.900          40.200
 121122224.549 6                  90448428.009 7  23048792.867
                  23048795.391          41.000                          43.600
 122897005.081 7                  91773784.071 8  23386511.227
                  23386515.676          45.600                          50.200
 113639647.576 7                  84860786.235 7  21624903.992
                  21624905.324          43.400                          46.000
 136779657.151 6                 102140676.045 7  26028302.609
                  26028308.902          38.600                          42.400
 139171849.901 5                 103927063.136 6  26483517.492
                  26483522.184          33.300                          36.900
 109588186.129 7                  81835350.097 8  20853938.797
                  20853943.828          45.700                          49.600
 121483036.805 7                  90717902.220 7  23117445.695
                  23117451.195          42.500                          46.700
 19  7  9 10 15  3.0000000  0 21G06G29R24R08R02G30R22G13G07R01G15G02
                                R23G05E12E04E11E36E19E14E09
 119140697.244 6  92837013.26944  88968801.241 7  22671731.711
  22671741.027    22671741.352          39.200          27.500          46.800
 118604493.516 7  92419244.48844                  22569716.102
  22569722.285                          42.400          27.200
 110257258.309 6  85755608.147 5                  20618663.828    20618663.805
  20618666.680                          37.300          31.300
 108483881.920 7  84376381.508 7                  20258592.164    20258590.691
  20258594.480                          42.100          43.600
 126579913.344 5  98451051.123 5                  23721020.984    23721021.355
  23721027.105                          33.200          32.500
 123677236.754 6  96371868.70743  92356381.638 7  23534982.813
  23534991.773    23534991.809          37.100          22.200          45.700
 120464807.651 6  93694864.942 6                  22567116.523    22567115.063
  22567121.363                          39.200          38.700
 113169552.282 7  88184084.34945                  21535443.102
  21535448.863                          44.100          33.000
 127243585.754 6  99150783.29543                  24213625.031
  24213631.445                          36.500          20.100
 105660169.233 7  82180174.165 6                  19765911.516    19765910.441
  19765917.031                          42.200          39.400
 126591644.679 6  98642775.42043                  24089563.969
  24089571.328                          36.100          19.300
 108466117.967 7  84519093.76746                  20640408.336
  20640411.438                          45.100          40.400
 102393235.161 7  79639282.362 6                  19141328.203    19141327.121
  19141334.930                          45.700          39.900
 107745129.024 8  83957332.64746                  20503210.430
  20503216.348                          48.000          39.800
 121124443.585 6                  90450085.083 7  23049215.031
                  23049217.992          41.100                          43.800
 122897441.915 7                  91774110.283 8  23386594.352
                  23386598.746          45.800                          50.200
 113639296.722 7                  84860524.223 7  21624837.297
                  21624838.695          43.100                          45.700
 136777138.094 6                 102138794.907 7  26027823.578
                  26027829.531          38.100                          42.000
 139174326.436 5                 103928912.500 6  26483988.453
                  26483993.387          33.300                          36.600
 109592712.418 7                  81838730.117 8  20854800.094
                  20854805.156          46.000                          49.800
 121481111.566 7                  90716464.536 7  23117079.391
                  23117084.703          43.000                          46.900
 19  7  9 10 15  4.0000000  0 21G06G29R24R08R02G30R22G13G07R01G15G02
                                R23G05E12E04E11E36E19E14E09
 119143356.349 6  92839085.30244  88970786.956 7  22672237.469
  22672246.781    22672247.352          39.300          28.100          46.600
 118602777.188 7  92417907.09044                  22569389.148
  22569395.438                          42.800          28.600
 110254398.506 6  85753383.852 5                  20618130.070    20618129.340
  20618132.152                          37.600          31.400
 108486101.148 7  84378107.584 7                  20259006.172    20259005.238
  20259008.883                          42.500          43.700
 126576720.662 5  98448567.897 5                  23720422.859    23720422.621
  23720428.820                          33.800          32.900
 123675668.346 6  96370646.56943  92355210.437 7  23534684.703
  23534693.555    23534693.461          37.100          22.900          45.900
 120468942.500 6  93698080.937 6                  22567891.430    22567889.477
  22567896.219                          38.900          38.800
 113166740.105 7  88181893.04045                  21534907.484
  21534913.910                          43.600          33.100
 127243526.861 6  99150737.40743                  24213613.195
  24213620.691                          36.500          19.900
 105659516.795 7  82179666.699 6                  19765789.563    19765788.301
  19765794.688                          42.500          39.900
 126587915.356 6  98639869.48443                  24088854.461
  24088861.477                          36.300          19.000
 108466267.012 7  84519209.90546                  20640436.477
  20640439.613                          45.300          40.500
 102394043.611 7  79639911.158 6                  19141479.289    19141478.488
  19141485.852                          45.900          40.000
 107744883.813 8  83957141.56946                  20503163.930
  20503169.645                          48.000          40.600
 121126662.910 6                  90451742.391 7  23049637.258
                  23049640.355          41.500                          43.900
 122897879.078 7                  91774436.732 8  23386677.680
                  23386681.930          46.100                          50.100
 113638946.286 7                  84860262.525 7  21624770.609
                  21624772.020          43.500                          45.800
 136774619.146 6                 102136913.913 6  26027344.016
                  26027350.246          38.500                          41.600
 139176803.039 5                 103930761.902 6  26484459.844
                  26484464.375          33.000                          36.300
 109597239.470 7                  81842110.703 8  20855661.492
                  20855666.539          45.700                          49.500
 121479186.585 7                  90715027.041 7  23116712.852
                  23116718.270          42.800                          46.800
 19  7  9 10 15  5.0000000  0 21G06G29R24R08R02G30R22G13G07R01G15G02
                                R23G05E12E04E11E36E19E14E09
 119146015.741 6  92841157.55444  88972772.870 7  22672743.711
  22672752.832    22672753.496          39.800          28.900          46.700
 118601061.473 7  92416570.15844                  22569062.891
  22569069.340                          42.900          27.600
 110251539.302 6  85751160.028 5                  20617594.273    20617594.859
  20617597.805                          37.300          31.700
 108488320.662 7  84379833.859 7                  20259419.914    20259419.754
  20259423.223                          42.400          44.000
 126573528.257 5  98446084.906 5                  23719826.258    23719824.516
  23719830.273                          34.300          32.600
 123674100.352 6  96369424.76943  92354039.524 7  23534385.805
  23534394.918    23534395.133          37.400          22.500          45.600
 120473077.607 6  93701297.126 6                  22568665.617    22568664.203
  22568670.535                          38.900          38.900
 113163928.336 7  88179702.05745                  21534372.594
  21534378.484                          43.500          33.200
 127243468.442 5  99150691.90343                  24213602.625
  24213609.516                          35.900          19.600
 105658864.813 7  82179159.625 6                  19765667.992    19765666.145
  19765672.898                          42.600          39.200
 126584186.138 6  98636963.58743                  24088144.547
  24088151.977                          36.300          19.300
 108466416.514 7  84519326.39846                  20640464.781
  20640468.016                          45.400          40.400
 102394852.914 7  79640540.612 6                  19141630.766    19141629.590
  19141637.184                          45.600          39.800
 107744638.882 7  83956950.71746                  20503117.414
  20503123.035                          47.500          40.100
 121128882.552 6                  90453399.879 7  23050059.648
                  23050062.766          41.500                          43.900
 122898316.523 7                  91774763.401 8  23386761.219
                  23386765.176          45.700                          50.300
 113638596.210 7                  84860001.122 7  21624703.969
                  21624705.340          42.800                          45.800
 136772100.350 6                 102135032.963 7  26026864.805
                  26026871.043          38.300                          42.000
 139179279.632 5                 103932611.316 6  26484931.156
                  26484935.551          33.800                          36.300
 109601767.262 7                  81845491.848 8  20856523.195
                  20856528.258          45.900                          49.600
 121477261.830 7                  90713589.740 7  23116346.570
                  23116352.160          43.000                          46.800
 19  7  9 10 15  6.0000000  0 21G06G29R24R08R02G30R22G13G07R01G15G02
                                R23G05E12E04E11E36E19E14E09
 119148675.484 6  92843230.07844  88974759.014 7  22673249.789
  22673258.770    22673259.824          39.700          28.300          46.800
 118599346.325 7  92415233.68244                  22568736.023
  22568743.086                          42.600          28.000
 110248680.723 6  85748936.704 5                  20617060.234    20617059.930
  20617063.336                          37.600          31.300
 108490540.458 6  84381560.392 7                  20259834.789    20259834.770
  20259837.832                          41.900          43.800
 126570335.981 5  98443602.062 5                  23719227.789    23719226.328
  23719231.883                          34.200          32.700
 123672532.767 6  96368203.25243  92352868.916 7  23534087.797
  23534096.387    23534096.973          37.700          23.000          45.700
 120477213.013 6  93704513.565 6                  22569440.844    22569438.844
  22569445.383                          39.000          38.400
 113161117.041 7  88177511.43845                  21533837.945
  21533843.594                          43.600          33.100
 127243410.558 5  99150646.78143                  24213591.828
  24213598.395                          35.200          19.900
 105658213.388 7  82178652.952 6                  19765544.461    19765544.371
  19765550.715                          42.000          39.400
 126580457.104 6  98634057.85443                  24087435.453
  24087442.469                          36.900          20.400
 108466566.455 7  84519443.23246                  20640493.797
  20640497.008                          45.100          40.400
 102395663.099 7  79641170.759 6                  19141781.578    19141780.988
  19141788.668                          45.800          39.900
 107744394.233 7  83956760.08146                  20503070.438
  20503076.246                          47.600          39.500
 121131102.460 6                  90455057.619 7  23050482.125
                  23050485.238          41.400                          43.900
 122898754.292 7                  91775090.296 8  23386844.422
                  23386848.570          46.100                          50.900
 113638246.530 7                  84859740.002 7  21624637.219
                  21624638.910          42.800                          46.000
 136769581.680 6                 102133152.140 7  26026385.273
                  26026391.605          38.100                          42.300
 139181756.336 5                 103934460.785 6  26485402.805
                  26485407.055          32.800                          36.200
 109606295.807 7                  81848873.563 8  20857384.875
                  20857390.020          46.400                          49.800
 121475337.356 7                  90712152.626 7  23115980.688
                  23115985.945          42.900                          47.000
 19  7  9 10 15  7.0000000  0 21G06G29R24R08R02G30R22G13G07R01G15G02
                                R23G05E12E04E11E36E19E14E09
 119151335.484 6  92845302.81644  88976745.399 7  22673755.766
  22673765.191    22673766.125          40.000          28.300          47.000
 118597631.763 7  92413897.65544                  22568410.094
  22568416.676                          42.400          27.700
 110245822.662 6  85746713.804 5                  20616526.938    20616525.645
  20616528.727                          37.300          31.600
 108492760.542 7  84383287.106 7                  20260249.055    20260248.824
  20260252.328                          42.200          43.900
 126567143.997 5  98441119.405 5                  23718628.945    23718628.801
  23718633.586                          34.400          31.700
 123670965.532 6  96366982.05243  92351698.601 7  23533788.719
  23533798.633    23533798.891          37.300          22.500          46.000
 120481348.708 6  93707730.202 6                  22570216.359    22570214.055
  22570219.727                          39.000          38.700
 113158306.142 7  88175321.12645                  21533303.063
  21533309.031                          43.600          32.700
 127243353.174 5  99150602.05443                  24213581.172
  24213587.613                          35.800          19.600
 105657562.445 7  82178146.652 6                  19765423.836    19765422.668
  19765429.250                          42.000          39.600
 126576728.238 6  98631152.22143                  24086725.711
  24086732.727                          37.000          20.900
 108466716.841 7  84519560.41746                  20640522.359
  20640525.676                          45.400          40.800
 102396474.150 7  79641801.558 6                  19141933.391    19141932.637
  19141940.133                          45.400          39.900
 107744149.857 7  83956569.66146                  20503024.344
  20503030.016                          47.900          40.300
 121133322.640 6                  90456715.553 7  23050904.664
                  23050907.648          40.900                          43.900
 122899192.352 7                  91775417.434 8  23386927.531
                  23386931.820          46.200                          51.000
 113637897.272 7                  84859479.165 7  21624570.992
                  21624572.320          42.900                          45.800
 136767063.129 6                 102131271.434 7  26025906.453
                  26025912.305          38.000                          42.000
 139184233.031 5                 103936310.271 6  26485873.820
                  26485878.367          34.100                          36.500
 109610825.138 7                  81852255.845 8  20858246.969
                  20858251.848          46.400                          49.600
 121473413.131 7                  90710715.710 7  23115614.484
                  23115619.730          43.000                          46.600
 19  7  9 10 15  8.0000000  0 21G06G29R24R08R02G30R22G13G07R01G15G02
                                R23G05E12E04E11E36E19E14E09
 119153995.821 6  92847375.79644  88978731.994 7  22674261.992
  22674271.313    22674272.461          39.900          28.000          47.100
 118595917.792 6  92412562.08644                  22568083.500
  22568090.313                          41.700          27.800
 110242965.203 6  85744491.309 5                  20615991.695    20615990.992
  20615994.637                          37.300          31.700
 108494980.909 7  84385014.051 7                  20260663.766    20260663.441
  20260666.938                          42.100          44.000
 126563952.241 5  98438636.970 5                  23718032.266    23718030.289
  23718035.992                          34.400          31.600
 123669398.764 6  96365761.19543  92350528.603 7  23533490.852
  23533499.844    23533500.523          37.500          22.800          45.900
 120485484.684 6  93710947.088 6                  22570991.016    22570988.547
  22570994.930                          39.300          38.900
 113155495.684 7  88173131.16445                  21532768.695
  21532774.129                          43.500          33.100
 127243296.350 5  99150557.79243                  24213569.539
  24213576.746                          35.500          19.300
 105656912.020 7  82177640.744 6                  19765301.742    19765300.973
  19765307.410                          42.000          40.100
 126572999.486 6  98628246.71943                  24086015.711
  24086023.305                          37.300          20.100
 108466867.670 7  84519677.94646                  20640550.891
  20640554.160                          45.300          40.600
 102397286.055 7  79642433.063 6                  19142085.305    19142084.504
  19142091.879                          45.500          39.700
 107743905.769 8  83956379.46646                  20502977.664
  20502983.371                          48.000          40.100
 121135543.116 6                  90458373.689 7  23051327.047
                  23051330.164          40.900                          44.200
 122899630.736 7                  91775744.790 8  23387010.805
                  23387015.293          46.100                          50.800
 113637548.369 7                  84859218.618 7  21624504.570
                  21624506.043          42.800                          45.900
 136764544.758 6                 102129390.803 7  26025427.594
                  26025433.117          38.100                          42.100
 139186709.782 5                 103938159.772 6  26486344.539
                  26486349.754          34.100                          36.100
 109615355.196 7                  81855638.686 8  20859108.930
                  20859113.918          46.700                          49.800
 121471489.173 7                  90709278.975 7  23115248.398
                  23115253.621          43.300                          46.800
 19  7  9 10 15  9.0000000  0 21G06G29R24R08R02G30R22G13G07R01G15G02
                                R23G05E12E04E11E36E19E14E09
 119156656.489 6  92849449.04344  88980718.887 7  22674767.602
  22674777.816    22674778.750          39.400          29.100          47.000
 118594204.485 6  92411227.04544                  22567757.719
  22567764.570                          41.900          28.300
 110240108.459 6  85742269.395 5                  20615457.047    20615457.047
  20615460.172                          37.600          31.100
 108497201.602 7  84386741.273 7                  20261078.922    20261078.246
  20261081.398                          42.200          43.900
 126560760.798 5  98436154.726 5                  23717435.359    23717431.574
  23717437.648                          34.000          32.400
 123667832.450 6  96364540.67543  92349358.943 7  23533192.867
  23533201.844    23533202.535          37.300          22.500          45.500
 120489621.025 6  93714164.219 6                  22571765.594    22571763.641
  22571769.832                          39.200          38.900
 113152685.719 7  88170941.58345                  21532233.406
  21532239.555                          43.300          33.600
 127243240.063 5  99150513.93043                  24213558.758
  24213566.117                          35.400          19.000
 105656262.140 7  82177135.318 6                  19765180.461    19765179.668
  19765185.805                          42.300          39.700
 126569270.957 6  98625341.36643                  24085306.625
  24085313.816                          37.600          20.100
 108467018.997 7  84519795.86246                  20640579.695
  20640582.840                          45.300          40.000
 102398098.933 7  79643065.290 6                  19142237.594    19142236.113
  19142243.766                          45.800          40.000
 107743662.007 8  83956189.51846                  20502931.563
  20502937.289                          48.000          40.300
 121137763.938 6                  90460032.081 7  23051749.906
                  23051752.883          40.600                          43.900
 122900069.462 7                  91776072.416 8  23387094.789
                  23387098.824          46.100                          50.700
 113637199.904 7                  84858958.405 7  21624438.273
                  21624439.719          42.600                          46.000
 136762026.559 6                 102127510.330 6  26024948.008
                  26024954.074          38.200                          41.700
 139189186.658 5                 103940009.367 5  26486815.703
                  26486820.926          34.000                          35.500
 109619886.087 7                  81859022.135 8  20859971.320
                  20859976.152          46.200                          49.900
 121469565.508 7                  90707842.483 7  23114882.141
                  23114887.430          43.000                          46.700
 19  7  9 10 15 10.0000000  0 21G06G29R24R08R02G30R22G13G07R01G15G02
                                R23G05E12E04E11E36E19E14E09
 119159317.457 6  92851522.52744  88982705.959 7  22675274.297
  22675284.406    22675285.047          38.800          28.300          47.200
 118592491.745 6  92409892.44544                  22567431.594
  22567438.742                          41.600          28.200
 110237252.220 6  85740047.865 5                  20614923.438    20614922.852
  20614925.656                          37.300          30.500
 108499422.606 6  84388468.708 7                  20261493.008    20261493.035
  20261496.566                          41.500          44.300
 126557569.540 5  98433672.619 5                  23716834.992    23716833.859
  23716839.383                          34.700          32.200
 123666266.473 6  96363320.45043  92348189.580 7  23532893.953
  23532903.703    23532904.664          37.100          22.600          45.400
 120493757.630 6  93717381.594 6                  22572540.320    22572538.508
  22572544.637                          39.200          38.700
 113149876.184 7  88168752.33245                  21531699.172
  21531704.578                          43.400          33.300
 127243184.321 5  99150470.49843                  24213548.203
  24213555.352                          35.500          19.900
 105655612.766 7  82176630.245 6                  19765058.805    19765058.012
  19765064.438                          42.200          39.900
 126565542.564 6  98622436.12043                  24084597.328
  24084604.000                          37.700          19.000
 108467170.750 7  84519914.11846                  20640608.742
  20640611.852                          45.000          40.000
 102398912.625 7  79643698.164 6                  19142390.438    19142388.652
  19142396.125                          46.000          40.100
 107743418.491 8  83955999.76646                  20502884.961
  20502890.480                          48.200          40.100
 121139984.987 6                  90461690.676 7  23052172.313
                  23052175.602          40.900                          44.200
 122900508.492 7                  91776400.261 8  23387178.117
                  23387182.363          46.100                          50.600
 113636851.826 7                  84858698.474 7  21624372.023
                  21624373.453          42.900                          46.200
 136759508.455 6                 102125629.923 6  26024468.813
                  26024474.672          38.100                          41.900
 139191663.531 5                 103941858.992 6  26487287.414
                  26487292.426          33.500                          36.300
 109624417.695 7                  81862406.129 8  20860833.594
                  20860838.496          46.400                          49.900
 121467642.078 7                  90706406.158 7  23114516.352
                  23114521.555          43.300                          46.600
 19  7  9 10 15 11.0000000  0 21G06G29R24R08R02G30R22G13G07R01G15G02
                                R23G05E12E04E11E36E19E14E09
 119161978.740 6  92853596.25444  88984693.269 7  22675780.500
  22675790.664    22675791.434          38.700          29.400          47.200
 118590779.584 6  92408558.28944                  22567106.070
  22567112.762                          41.900          28.500
 110234396.602 6  85737826.861 5                  20614389.789    20614388.566
  20614391.816                          37.600          31.000
 108501643.880 6  84390196.385 7                  20261908.813    20261907.902
  20261911.152                          41.400          43.900
 126554378.537 5  98431190.710 5                  23716237.867    23716235.586
  23716241.449                          34.400          32.500
 123664700.915 6  96362100.54043  92347020.495 7  23532596.984
  23532605.375    23532606.551          37.500          22.600          45.300
 120497894.500 6  93720599.173 6                  22573315.320    22573313.320
  22573319.328                          39.200          38.500
 113147067.052 7  88166563.39945                  21531164.234
  21531170.301                          43.400          32.600
 127243129.027 5  99150427.39543                  24213538.289
  24213544.840                          35.400          18.600
 105654963.896 6  82176125.549 6                  19764938.016    19764936.473
  19764943.172                          41.800          39.900
 126561814.314 6  98619531.00143                  24083887.625
  24083894.742                          37.700          20.600
 108467322.950 7  84520032.71346                  20640637.742
  20640640.785                          44.900          40.300
 102399727.187 7  79644331.698 6                  19142542.313    19142540.691
  19142548.379                          45.800          39.800
 107743175.260 8  83955810.24246                  20502838.992
  20502844.441                          48.200          40.400
 121142206.362 6                  90463349.476 7  23052595.016
                  23052598.309          41.000                          44.100
 122900947.803 7                  91776728.319 8  23387261.594
                  23387265.934          45.600                          50.300
 113636504.143 7                  84858438.837 7  21624305.953
                  21624307.176          42.800                          46.300
 136756990.497 6                 102123749.635 7  26023989.906
                  26023995.617          38.500                          42.400
 139194140.484 5                 103943708.673 6  26487758.586
                  26487763.566          33.600                          36.400
 109628950.055 7                  81865790.691 8  20861696.180
                  20861701.016          46.000                          49.600
 121465718.922 7                  90704970.030 7  23114150.461
                  23114155.527          43.600                          46.700
 19  7  9 10 15 12.0000000  0 21G06G29R24R08R02G30R22G13G07R01G15G02
                                R23G05E12E04E11E36E19E14E09
 119164640.295 6  92855670.19044  88986680.812 7  22676287.688
  22676297.270    22676297.875          38.600          28.700          46.900
 118589068.011 7  92407224.60344                  22566780.477
  22566786.688                          42.000          27.800
 110231541.576 6  85735606.268 5                  20613855.320    20613854.758
  20613858.098                          37.900          31.200
 108503865.495 6  84391924.287 7                  20262323.594    20262322.613
  20262325.957                          41.300          43.800
 126551187.822 5  98428709.030 5                  23715638.422    23715637.781
  23715643.234                          35.000          32.600
 123663135.791 6  96360880.98243  92345851.729 7  23532299.734
  23532308.297    23532308.777          37.500          22.500          45.000
 120502031.632 6  93723816.969 6                  22574090.234    22574088.094
  22574094.563                          39.300          38.700
 113144258.380 7  88164374.82545                  21530629.891
  21530636.117                          43.800          32.700
 127243074.269 5  99150384.71843                  24213528.156
  24213534.086                          35.900          19.300
 105654315.548 7  82175621.267 6                  19764816.469    19764815.113
  19764821.609                          42.300          39.700
 126558086.272 6  98616626.02643                  24083177.945
  24083185.098                          37.800          20.100
 108467475.595 7  84520151.65246                  20640666.398
  20640669.672                          44.700          40.100
 102400542.630 7  79644965.946 6                  19142693.914    19142693.301
  19142700.754                          46.000          39.800
 107742932.308 8  83955620.92846                  20502792.617
  20502798.348                          48.500          40.300
 121144428.004 6                  90465008.499 7  23053018.063
                  23053021.211          40.800                          44.500
 122901387.446 7                  91777056.628 8  23387345.383
                  23387349.672          45.700                          50.300
 113636156.845 7                  84858179.498 7  21624239.797
                  21624241.227          43.000                          46.000
 136754472.671 6                 102121869.445 7  26023510.438
                  26023516.563          38.200                          42.500
 139196617.493 5                 103945558.371 6  26488230.281
                  26488234.996          33.800                          36.500
 109633483.195 7                  81869175.828 8  20862558.844
                  20862563.715          46.300                          49.800
 121463796.021 7                  90703534.091 7  23113784.453
                  23113789.625          43.800                          46.300
 19  7  9 10 15 13.0000000  0 21G06G29R24R08R02G30R22G13G07R01G15G02
                                R23G05E12E04E11E36E19E14E09
 119167302.195 6  92857744.39944  88988668.581 7  22676794.133
  22676803.895    22676804.504          38.400          28.700          47.000
 118587357.049 7  92405891.39344                  22566454.773
  22566461.145                          42.600          29.300
 110228687.121 6  85733386.117 5                  20613321.313    20613321.195
  20613323.879                          37.500          30.800
 108506087.381 6  84393652.423 7                  20262739.078    20262737.512
  20262741.105                          41.600          43.600
 126547997.307 5  98426227.554 5                  23715040.344    23715039.633
  23715045.566                          34.600          32.700
 123661571.028 6  96359661.66243  92344683.263 7  23532001.391
  23532010.660    23532010.965          37.500          22.800          45.100
 120506169.114 6  93727035.000 6                  22574865.172    22574863.313
  22574869.785                          39.400          38.200
 113141450.144 7  88162186.59145                  21530095.406
  21530101.410                          43.800          32.400
 127243020.032 5  99150342.46343                  24213516.977
  24213524.207                          35.700          19.300
 105653667.718 7  82175117.434 6                  19764695.148    19764694.121
  19764700.707                          42.400          39.700
 126554358.383 6  98613721.17843                  24082468.766
  24082475.508                          37.200          20.400
 108467628.705 7  84520270.95946                  20640695.938
  20640699.098                          45.100          40.100
 102401358.954 7  79645600.859 6                  19142847.125    19142845.621
  19142853.301                          46.000          39.900
 107742689.666 8  83955431.85746                  20502746.516
  20502752.270                          48.600          39.900
 121146649.938 6                  90466667.736 7  23053440.609
                  23053444.008          40.800                          44.300
 122901827.422 7                  91777385.167 8  23387429.047
                  23387433.340          45.800                          50.500
 113635809.954 7                  84857920.470 7  21624173.898
                  21624175.172          42.800                          46.200
 136751954.995 6                 102119989.373 6  26023031.430
                  26023037.414          38.100                          41.900
 139199094.535 5                 103947408.137 6  26488701.609
                  26488706.395          34.500                          36.500
 109638017.098 7                  81872561.528 8  20863421.555
                  20863426.340          46.600                          49.700
 121461873.364 7                  90702098.348 7  23113418.266
                  23113423.793          43.800                          46.400
 19  7  9 10 15 14.0000000  0 21G06G29R24R08R02G30R22G13G07R01G15G02
                                R23G05E12E04E11E36E19E14E09
 119169964.418 6  92859818.84844  88990656.583 7  22677300.086
  22677310.430    22677311.023          38.200          28.300          46.500
 118585646.690 7  92404558.63144                  22566129.586
  22566135.770                          42.300          28.100
 110225833.289 6  85731166.47915                  20612787.828    20612787.195
  20612790.637                          37.400          30.500
 108508309.562 6  84395380.782 7                  20263152.844    20263152.168
  20263156.008                          41.400          43.900
 126544807.115 5  98423746.304 5                  23714445.352    23714442.039
  23714447.633                          34.600          32.700
 123660006.774 6  96358442.77043  92343515.133 7  23531704.258
  23531712.285    23531713.270          37.300          22.300          45.400
 120510306.921 6  93730253.263 6                  22575640.422    22575638.023
  22575644.680                          39.100          38.100
 113138642.374 7  88159998.71145                  21529561.117
  21529567.332                          43.800          33.300
 127242966.331 6  99150300.61743                  24213506.563
  24213513.402                          36.400          19.300
 105653020.438 7  82174613.993 6                  19764574.445    19764572.879
  19764579.512                          42.400          39.900
 126550630.642 6  98610816.46943                  24081759.656
  24081765.984                          36.900          20.600
 108467782.253 7  84520390.60846                  20640724.938
  20640727.969                          45.200          40.400
 102402176.147 7  79646236.452 6                  19142999.867    19142998.832
  19143006.094                          45.400          39.600
 107742447.297 8  83955243.00046                  20502700.070
  20502705.855                          48.500          39.900
 121148872.191 6                  90468327.205 7  23053863.633
                  23053866.824          41.000                          44.300
 122902267.689 7                  91777713.949 8  23387512.734
                  23387517.066          45.800                          50.800
 113635463.472 7                  84857661.723 7  21624107.883
                  21624109.215          42.800                          46.000
 136749437.473 6                 102118109.403 7  26022552.398
                  26022558.355          37.800                          42.000
 139201571.648 5                 103949257.898 6  26489173.258
                  26489177.488          33.300                          36.400
 109642551.769 7                  81875947.808 8  20864284.594
                  20864289.289          46.000                          49.600
 121459951.004 7                  90700662.813 7  23113052.742
                  23113057.988          43.900                          46.600
 19  7  9 10 15 15.0000000  0 21G06G29R24R08R02G30R22G13G07R01G15G02
                                R23G05E12E04E11E36E19E14E09
 119172626.912 6  92861893.53044  88992644.817 7  22677807.031
  22677816.793    22677817.785          38.300          27.800          46.800
 118583936.925 6  92403226.35344                  22565804.375
  22565810.230                          41.600          28.000
 110222980.023 6  85728947.340 5                  20612255.938    20612253.473
  20612257.035                          38.100          30.800
 108510532.013 6  84397109.370 7                  20263567.938    20263567.285
  20263571.238                          41.400          43.600
 126541617.135 5  98421265.202 5                  23713846.688    23713844.570
  23713850.164                          34.500          32.800
 123658442.863 6  96357224.13843  92342347.264 7  23531406.828
  23531414.883    23531415.777          37.700          22.000          45.800
 120514444.977 6  93733471.759 6                  22576414.969    22576413.063
  22576420.137                          39.000          38.400
 113135835.024 7  88157811.16845                  21529027.117
  21529032.609                          43.700          33.500
 127242913.186 5  99150259.18543                  24213496.813
  24213503.438                          35.900          19.000
 105652373.655 7  82174110.938 6                  19764453.273    19764451.566
  19764458.645                          42.500          39.900
 126546903.062 6  98607911.86643                  24081049.492
  24081056.781                          37.100          20.400
 108467936.248 7  84520510.60046                  20640754.328
  20640757.332                          45.100          40.300
 102402994.189 7  79646872.703 6                  19143152.844    19143151.832
  19143159.051                          45.200          39.700
 107742205.198 8  83955054.35046                  20502654.570
  20502660.055                          48.100          39.800
 121151094.692 6                  90469986.873 7  23054286.617
                  23054289.840          41.400                          44.200
 122902708.260 7                  91778042.954 8  23387596.656
                  23387600.961          45.700                          50.800
 113635117.346 7                  84857403.267 7  21624041.922
                  21624043.320          42.700                          45.800
 136746920.058 6                 102116229.521 6  26022073.250
                  26022079.297          37.700                          41.900
 139204048.817 5                 103951107.713 5  26489644.656
                  26489649.004          33.300                          35.700
 109647087.167 7                  81879334.632 8  20865147.563
                  20865152.289          46.000                          49.500
 121458028.890 7                  90699227.470 7  23112686.813
                  23112692.230          43.800                          46.400
 19  7  9 10 15 16.0000000  0 21G06G29R24R08R02G30R22G13G07R01G15G02
                                R23G05E12E04E11E36E19E14E09
 119175289.639 6  92863968.37444  88994633.224 7  22678313.563
  22678323.891    22678324.566          38.600          28.800          47.000
 118582227.688 6  92401894.47644                  22565478.555
  22565484.926                          41.400          28.900
 110220127.319 6  85726728.550 5                  20611721.578    20611720.004
  20611723.898                          37.900          31.000
 108512754.695 6  84398838.120 7                  20263983.508    20263982.926
  20263986.203                          41.700          43.800
 126538427.285 5  98418784.185 5                  23713247.906    23713246.469
  23713251.883                          34.300          32.400
 123656879.343 6  96356005.79243  92341179.689 7  23531109.453
  23531117.527    23531118.293          37.900          22.300          46.300
 120518583.240 6  93736690.404 6                  22577190.375    22577188.938
  22577195.074                          39.400          38.600
 113133028.033 7  88155623.90645                  21528492.945
  21528498.477                          44.000          33.200
 127242860.465 5  99150218.10243                  24213486.242
  24213493.090                          35.900          18.600
 105651727.331 7  82173608.235 6                  19764332.602    19764330.871
  19764337.566                          42.400          39.900
 126543175.580 6  98605007.31643                  24080339.961
  24080347.742                          36.700          20.100
 108468090.626 7  84520630.89546                  20640783.836
  20640786.680                          45.100          40.200
 102403813.052 7  79647509.609 6                  19143306.227    19143305.004
  19143311.926                          45.600          39.600
 107741963.309 8  83954865.86546                  20502608.359
  20502613.934                          48.300          39.900
 121153317.447 6                  90471646.712 7  23054709.672
                  23054712.832          41.400                          44.000
 122903149.076 7                  91778372.126 8  23387680.430
                  23387684.824          45.600                          51.000
 113634771.574 7                  84857145.043 7  21623976.219
                  21623977.539          42.700                          45.800
 136744402.761 6                 102114349.716 7  26021594.219
                  26021600.129          38.000                          42.000
 139206525.916 5                 103952957.520 6  26490116.133
                  26490120.617          33.000                          36.200
 109651623.263 7                  81882721.979 8  20866010.711
                  20866015.512          46.200                          49.600
 121456106.954 7                  90697792.268 7  23112320.977
                  23112326.453          43.700                          46.600
 19  7  9 10 15 17.0000000  0 21G06G29R24R08R02G30R22G13G07R01G15G02
                                R23G05E12E04E11E36E19E14E09
 119177952.771 6  92866043.54544  88996621.927 7  22678820.359
  22678830.965    22678831.246          38.100          28.100          46.900
 118580519.096 6  92400563.10044                  22565153.625
  22565159.980                          41.800          28.500
 110217275.292 6  85724510.303 5                  20611187.758    20611187.102
  20611190.570                          37.900          30.500
 108514977.781 6  84400567.170 7                  20264398.523    20264397.660
  20264401.375                          41.900          44.000
 126535237.760 5  98416303.465 5                  23712649.750    23712648.781
  23712654.328                          34.000          32.800
 123655316.226 6  96354787.79244  92340012.460 7  23530811.461
  23530820.207    23530820.586          37.900          24.600          45.900
 120522721.883 6  93739909.371 6                  22577966.258    22577964.211
  22577970.441                          39.000          38.700
 113130221.592 7  88153437.07445                  21527959.117
  21527964.406                          44.100          33.200
 127242808.309 5  99150177.48443                  24213477.039
  24213483.273                          35.400          18.600
 105651081.608 7  82173106.001 6                  19764210.672    19764209.832
  19764216.938                          42.200          39.500
 126539448.353 6  98602102.98943                  24079631.477
  24079638.434                          36.800          20.100
 108468245.532 7  84520751.60146                  20640813.094
  20640816.324                          44.600          40.400
 102404632.855 7  79648147.231 6                  19143458.930    19143457.848
  19143465.355                          45.800          39.500
 107741721.784 7  83954677.66246                  20502562.648
  20502567.688                          47.500          39.900
 121155540.537 6                  90473306.825 7  23055132.813
                  23055135.875          41.300                          43.900
 122903590.289 7                  91778701.615 8  23387764.445
                  23387768.777          45.400                          50.700
 113634426.268 7                  84856887.204 7  21623910.570
                  21623911.887          42.700                          45.700
 136741885.629 6                 102112470.044 6  26021115.328
                  26021121.383          38.100                          41.900
 139209003.19015                 103954807.422 6  26490586.836
                  26490591.941          32.900                          36.200
 109656160.220 7                  81886109.963 8  20866874.008
                  20866878.914          46.100                          49.500
 121454185.380 7                  90696357.304 7  23111955.297
                  23111960.871          43.400                          46.800
 19  7  9 10 15 18.0000000  0 21G06G29R24R08R02G30R22G13G07R01G15G02
                                R23G05E12E04E11E36E19E14E09
 119180616.205 6  92868118.94844  88998610.855 7  22679327.445
  22679337.117    22679337.992          38.000          27.700          46.700
 118578811.134 6  92399232.23044                  22564828.383
  22564834.992                          41.800          27.900
 110214423.875 6  85722292.502 5                  20610654.563    20610654.000
  20610657.195                          38.000          30.600
 108517201.164 7  84402296.478 7                  20264813.469    20264813.168
  20264816.711                          42.000          44.000
 126532048.501 5  98413822.923 5                  23712052.117    23712050.820
  23712056.516                          34.300          32.600
 123653753.584 6  96353570.15243  92338845.526 7  23530514.164
  23530522.852    23530523.359          37.100          22.600          45.900
 120526860.857 6  93743128.511 6                  22578740.289    22578739.371
  22578745.977                          38.900          37.900
 113127415.578 7  88151250.55845                  21527425.211
  21527430.957                          43.900          33.100
 127242756.713 5  99150137.28243                  24213467.352
  24213473.770                          35.300          19.600
 105650436.405 7  82172604.175 6                  19764089.984    19764089.262
  19764096.238                          42.300          39.700
 126535721.290 6  98599198.77243                  24078922.633
  24078929.164                          36.800          20.100
 108468400.900 7  84520872.66946                  20640842.625
  20640845.934                          44.600          40.100
 102405453.536 7  79648785.539 6                  19143612.883    19143611.426
  19143618.648                          45.800          40.000
 107741480.566 7  83954489.70346                  20502516.094
  20502522.094                          47.000          40.400
 121157763.916 6                  90474967.145 7  23055555.484
                  23055559.016          40.900                          43.800
 122904031.837 7                  91779031.325 8  23387848.539
                  23387852.867          45.700                          51.100
 113634081.411 7                  84856629.655 7  21623844.859
                  21623846.227          42.700                          45.700
 136739368.697 6                 102110590.489 7  26020636.313
                  26020642.305          37.800                          42.100
 139211480.472 5                 103956657.360 6  26491058.422
                  26491063.297          33.300                          36.300
 109660697.932 7                  81889498.514 8  20867737.656
                  20867742.426          46.200                          49.400
 121452264.065 7                  90694922.555 7  23111589.742
                  23111595.273          43.600                          46.800
 19  7  9 10 15 19.0000000  0 21G06G29R24R08R02G30R22G13G07R01G15G02
                                R23G05E12E04E11E36E19E14E09
 119183279.899 6  92870194.54344  89000599.997 7  22679834.180
  22679844.313    22679844.941          38.100          27.900          46.900
 118577103.749 7  92397901.79944                  22564503.516
  22564510.012                          42.000          27.600
 110211572.994 6  85720075.178 5                  20610121.453    20610121.055
  20610124.273                          38.100          31.000
 108519424.829 6  84404026.009 7                  20265228.664    20265228.340
  20265232.301                          41.700          44.100
 126528859.456 5  98411342.556 5                  23711454.180    23711453.281
  23711458.656                          34.600          32.300
 123652191.336 6  96352352.80643  92337678.900 7  23530216.602
