     2.11           OBSERVATION DATA    M (MIXED)           RINEX VERSION / TYPE
teqc  2016Nov7      KASI/KOREA          20190709 10:47:38UTCPGM / RUN BY / DATE
Linux 2.4.20-8|Pentium IV|gcc|Linux|486/DX+                 COMMENT
  0.0000      (antenna height)                              COMMENT
 +36.39942714 (latitude)                                    COMMENT
+127.37448264 (longitude)                                   COMMENT
0116.859      (elevation)                                   COMMENT
BIT 2 OF LLI FLAGS DATA COLLECTED UNDER A/S CONDITION       COMMENT
23902M002 (COGO code)                                       COMMENT
DAEJ                                                        MARKER NAME
23902M002                                                   MARKER NUMBER
KASI GPS            KASI/KOREA                              OBSERVER / AGENCY
5412K48145          TRIMBLE NETR9       5.20                REC # / TYPE / VERS
4923363230          TRM59800.00     SCIS                    ANT # / TYPE
 -3120041.4470  4084615.0240  3764026.4153                  APPROX POSITION XYZ
        0.0000        0.0000        0.0000                  ANTENNA: DELTA H/E/N
     1     1                                                WAVELENGTH FACT L1/2
    10    L1    L2    L5    C1    P1    P2    C5    S1    S2# / TYPES OF OBSERV
          S5                                                # / TYPES OF OBSERV
    18                                                      LEAP SECONDS
 SNR is mapped to RINEX snr flag value [0-9]                COMMENT
  L1 & L2: min(max(int(snr_dBHz/6), 0), 9)                  COMMENT
  2019     7     9    10    30    0.0000000     GPS         TIME OF FIRST OBS
                                                            END OF HEADER
 19  7  9 10 30  0.0000000  0 21G06G29R24R08R02G30R22G13G07R01G15G02
                                R23G05E12E04E11E36E19E14E09
 121646182.188 6  94789338.76744  90839779.784 7  23148509.336
  23148519.023    23148519.152          36.100          24.600          44.400
 117311656.088 7  91411838.69744                  22323697.164
  22323703.551                          42.700          29.900
 107948678.070 6  83960045.932 5                  20186949.438    20186947.629
  20186951.508                          39.100          32.500
 110582679.277 6  86008779.268 7                  20650527.531    20650526.527
  20650530.453                          40.800          43.000
 123819278.360 5  96303891.842 5                  23203679.461    23203677.344
  23203685.195                          33.400          35.100
 122445168.105 6  95411816.36643  91436331.742 7  23300527.172
  23300535.484    23300535.945          38.100          23.500          46.300
 124278144.165 5  96660793.086 6                  23281483.219    23281481.781
  23281488.109                          35.300          36.400
 110832334.895 7  86362876.41145                  21090685.383
  21090691.367                          45.400          35.900
 127402850.429 6  99274886.10843                  24243931.914
  24243937.859                          37.900          19.300
 105278194.516 7  81883082.979 6                  19694455.602    19694453.473
  19694460.656                          42.500          40.300
 123320628.353 6  96093932.36343                  23467110.133
  23467115.828                          38.800          22.600
 108785294.412 7  84767802.51946                  20701145.297
  20701148.746                          45.600          40.000
 103467468.533 7  80474796.876 6                  19342144.773    19342144.113
  19342151.773                          46.800          39.900
 107637223.250 7  83873250.41346                  20482676.758
  20482682.152                          47.000          40.600
 123227841.394 6                  92020803.929 7  23449478.844
                  23449481.523          39.100                          42.700
 123410606.258 7                  92157317.623 8  23484246.344
                  23484250.613          45.700                          50.500
 113488045.127 7                  84747576.400 7  21596055.328
                  21596056.711          43.300                          46.000
 134581231.811 6                 100498995.196 7  25609955.398
                  25609962.652          39.400                          43.600
 141411582.096 5                 105599589.507 5  26909725.352
                  26909729.992          32.300                          35.100
 113928871.301 7                  85076770.540 8  21679944.109
                  21679948.801          46.100                          48.900
 119860624.167 7                  89506360.669 7  22808710.633
                  22808716.414          44.000                          47.500
 19  7  9 10 30  1.0000000  0 21G06G29R24R08R02G30R22G13G07R01G15G02
                                R23G05E12E04E11E36E19E14E09
 121649105.054 5  94791616.31944  90841962.454 7  23149065.633
  23149075.113    23149075.391          35.400          25.300          44.200
 117310497.783 7  91410936.12444                  22323477.023
  22323483.184                          42.200          28.200
 107946410.270 6  83958282.056 5                  20186524.914    20186523.832
  20186527.719                          39.200          32.500
 110585127.022 6  86010683.070 7                  20650984.281    20650983.910
  20650987.566                          40.600          43.000
 123816320.005 5  96301590.912 5                  23203125.922    23203123.195
  23203130.637                          34.400          35.200
 122444000.933 6  95410906.90643  91435460.179 7  23300305.117
  23300313.016    23300313.766          37.900          22.900          46.300
 124282495.511 5  96664177.491 6                  23282298.977    23282296.836
  23282303.578                          35.200          36.800
 110829946.070 7  86361014.98846                  21090230.617
  21090236.637                          45.300          36.200
 127403267.058 6  99275210.73743                  24244010.711
  24244016.840                          37.600          19.600
 105277989.102 7  81882923.211 6                  19694416.016    19694415.363
  19694421.973                          42.500          40.100
 123317074.485 6  96091163.10843                  23466433.250
  23466439.484                          39.100          22.800
 108785861.911 7  84768244.72546                  20701253.344
  20701256.813                          45.200          39.700
 103469052.193 7  80476028.602 6                  19342441.422    19342440.223
  19342447.809                          46.600          40.000
 107637226.122 7  83873252.64846                  20482677.336
  20482683.012                          47.300          40.400
 123230307.708 6                  92022645.704 7  23449947.867
                  23449950.648          39.500                          42.400
 123411308.270 7                  92157841.854 8  23484379.977
                  23484384.223          46.400                          50.300
 113488062.654 7                  84747589.510 7  21596058.547
                  21596060.082          43.000                          45.900
 134578863.066 6                 100497226.336 7  25609504.727
                  25609512.020          38.900                          43.600
 141414088.245 5                 105601460.958 5  26910202.023
                  26910206.969          33.300                          35.300
 113933978.842 7                  85080584.609 8  21680916.016
                  21680920.691          46.100                          48.500
 119858937.213 7                  89505100.933 7  22808389.383
                  22808395.316          44.200                          47.900
 19  7  9 10 30  2.0000000  0 21G06G29R24R08R02G30R22G13G07R01G15G02
                                R23G05E12E04E11E36E19E14E09
 121652028.167 5  94793894.10043  90844145.318 7  23149621.625
  23149631.266    23149631.641          35.400          23.200          44.500
 117309340.111 7  91410034.04844                  22323256.453
  22323263.141                          42.400          29.800
 107944143.188 6  83956518.784 5                  20186100.508    20186099.898
  20186103.664                          39.400          32.600
 110587574.994 6  86012587.043 7                  20651441.852    20651441.082
  20651444.656                          40.700          42.700
 123813361.861 5  96299290.152 5                  23202570.406    23202569.016
  23202576.469                          34.100          35.400
 122442834.230 6  95409997.76843  91434588.942 7  23300083.234
  23300091.492    23300091.773          38.200          22.800          46.500
 124286847.048 5  96667561.993 6                  23283112.750    23283111.973
  23283118.855                          35.600          36.700
 110827557.735 7  86359153.94746                  21089775.813
  21089781.785                          45.400          36.200
 127403684.134 6  99275535.76143                  24244090.164
  24244096.633                          37.900          20.100
 105277784.113 7  81882763.777 6                  19694377.578    19694376.809
  19694383.539                          42.200          40.400
 123313520.808 6  96088394.02643                  23465756.570
  23465763.016                          38.800          22.500
 108786429.855 7  84768687.27846                  20701361.609
  20701365.105                          45.400          39.600
 103470636.671 7  80477260.979 6                  19342737.094    19342736.504
  19342743.648                          46.700          40.100
 107637229.237 7  83873255.07446                  20482678.031
  20482683.543                          47.600          40.500
 123232774.311 6                  92024487.600 7  23450417.383
                  23450420.176          39.400                          42.300
 123412010.521 7                  92158366.271 8  23484513.664
                  23484517.867          46.200                          50.300
 113488080.625 7                  84747602.931 7  21596061.984
                  21596063.441          42.700                          45.800
 134576494.512 6                 100495457.599 7  25609054.117
                  25609061.016          39.600                          43.600
 141416594.355 5                 105603332.456 5  26910678.531
                  26910683.727          32.800                          35.200
 113939086.900 7                  85084399.063 8  21681887.992
                  21681892.789          46.100                          48.700
 119857250.501 7                  89503841.372 7  22808068.375
                  22808074.430          44.200                          47.900
 19  7  9 10 30  3.0000000  0 21G06G29R24R08R02G30R22G13G07R01G15G02
                                R23G05E12E04E11E36E19E14E09
 121654951.614 5  94796172.10644  90846328.389 7  23150177.820
  23150187.480    23150187.781          35.300          24.000          44.600
 117308183.105 7  91409132.48344                  22323035.945
  22323042.566                          42.900          29.800
 107941876.829 6  83954756.060 5                  20185676.945    20185675.934
  20185679.559                          39.000          32.700
 110590023.184 6  86014491.209 7                  20651898.258    20651897.934
  20651901.871                          40.800          42.600
 123810404.063 5  96296989.623 5                  23202016.672    23202014.438
  23202021.992                          34.500          35.600
 122441668.054 6  95409089.07343  91433718.084 7  23299860.773
  23299869.660    23299869.887          37.400          22.600          46.100
 124291198.820 5  96670946.670 6                  23283927.305    23283927.184
  23283933.707                          35.300          36.200
 110825169.928 7  86357293.31846                  21089321.719
  21089327.605                          45.300          36.100
 127404101.784 6  99275861.20343                  24244170.156
  24244176.047                          37.800          19.900
 105277579.657 7  81882604.738 6                  19694339.711    19694338.215
  19694345.254                          42.200          40.200
 123309967.385 6  96085625.10843                  23465080.695
  23465086.727                          39.100          22.600
 108786998.305 7  84769130.22746                  20701469.898
  20701472.988                          45.700          40.200
 103472222.035 7  80478494.017 6                  19343034.039    19343032.723
  19343040.543                          46.800          40.100
 107637232.658 7  83873257.74646                  20482678.586
  20482684.133                          47.500          40.600
 123235241.174 6                  92026329.721 7  23450886.734
                  23450889.516          39.600                          42.400
 123412713.096 7                  92158890.915 8  23484647.313
                  23484651.543          45.900                          50.500
 113488099.043 7                  84747616.687 7  21596065.430
                  21596066.957          42.700                          46.100
 134574126.165 6                 100493689.032 7  25608603.680
                  25608610.410          39.200                          43.800
 141419100.574 5                 105605203.963 5  26911155.313
                  26911160.633          33.200                          35.600
 113944195.525 7                  85088213.941 8  21682860.133
                  21682864.801          46.100                          48.800
 119855564.070 7                  89502582.022 8  22807747.641
                  22807753.426          44.300                          48.000
 19  7  9 10 30  4.0000000  0 21G06G29R24R08R02G30R22G13G07R01G15G02
                                R23G05E12E04E11E36E19E14E09
 121657875.353 5  94798450.32443  90848511.700 7  23150734.406
  23150744.031    23150744.102          35.500          23.400          44.800
 117307026.749 7  91408231.42845                  22322816.578
  22322822.730                          42.800          30.600
 107939611.155 6  83952993.886 5                  20185253.008    20185252.305
  20185256.023                          39.000          32.900
 110592471.594 6  86016395.538 7                  20652356.063    20652355.293
  20652358.984                          40.800          42.300
 123807446.532 5  96294689.335 5                  23201462.398    23201460.750
  23201467.754                          34.500          35.500
 122440502.335 6  95408180.71343  91432847.580 7  23299638.453
  23299647.305    23299647.996          37.400          22.800          46.000
 124295550.774 5  96674331.513 6                  23284742.727    23284741.855
  23284748.891                          35.700          36.300
 110822782.640 7  86355433.09845                  21088867.688
  21088873.254                          45.200          35.900
 127404519.983 6  99276187.06943                  24244249.258
  24244255.629                          37.800          19.300
 105277375.670 7  81882446.092 6                  19694301.063    19694300.176
  19694307.195                          42.300          40.200
 123306414.143 6  96082856.33743                  23464404.391
  23464410.219                          38.800          22.200
 108787567.230 7  84769573.54246                  20701577.977
  20701581.238                          45.700          40.100
 103473808.220 7  80479727.729 6                  19343330.852    19343329.277
  19343336.578                          46.500          40.200
 107637236.316 7  83873260.59646                  20482678.828
  20482684.766                          47.400          40.800
 123237708.277 6                  92028172.054 7  23451356.094
                  23451358.941          39.300                          42.400
 123413415.921 7                  92159415.756 8  23484780.992
                  23484785.305          46.200                          50.900
 113488117.878 7                  84747630.742 7  21596069.000
                  21596070.516          42.600                          45.900
 134571758.005 6                 100491920.585 7  25608153.094
                  25608159.781          38.900                          44.100
 141421606.791 5                 105607075.470 5  26911632.516
                  26911637.328          32.900                          35.500
 113949304.669 7                  85092029.215 8  21683832.328
                  21683837.113          45.900                          48.800
 119853877.896 7                  89501322.885 7  22807426.680
                  22807432.539          43.900                          47.600
 19  7  9 10 30  5.0000000  0 21G06G29R24R08R02G30R22G13G07R01G15G02
                                R23G05E12E04E11E36E19E14E09
 121660799.325 6  94800728.75943  90850695.172 7  23151291.023
  23151300.031    23151300.484          36.300          23.200          44.600
 117305871.014 7  91407330.85544                  22322596.453
  22322602.824                          42.600          29.900
 107937346.213 6  83951232.256 5                  20184830.078    20184828.574
  20184832.063                          38.600          32.200
 110594920.247 6  86018300.019 7                  20652813.297    20652812.598
  20652816.313                          41.100          42.600
 123804489.264 5  96292389.264 5                  23200906.336    23200906.379
  23200913.488                          34.000          35.600
 122439337.108 6  95407272.73543  91431977.450 7  23299416.484
  23299425.563    23299426.387          37.300          22.500          45.600
 124299902.847 5  96677716.496 6                  23285558.805    23285557.156
  23285564.125                          35.600          36.700
 110820395.819 7  86353573.23745                  21088413.273
  21088419.203                          45.400          35.500
 127404938.717 6  99276513.35543                  24244327.953
  24244335.172                          37.000          19.000
 105277172.113 7  81882287.789 6                  19694263.305    19694261.949
  19694269.031                          42.600          40.000
 123302861.188 6  96080087.81043                  23463728.766
  23463734.480                          38.900          22.500
 108788136.629 7  84770017.23046                  20701686.625
  20701689.844                          45.500          40.100
 103475395.242 7  80480962.072 6                  19343626.734    19343625.934
  19343633.473                          46.500          40.200
 107637240.260 7  83873263.67246                  20482679.922
  20482685.219                          47.100          40.600
 123240175.636 6                  92030014.574 7  23451825.375
                  23451828.504          39.700                          42.300
 123414119.017 7                  92159940.802 8  23484914.758
                  23484919.227          46.100                          50.600
 113488137.118 7                  84747645.104 7  21596072.742
                  21596074.211          42.700                          45.800
 134569390.015 6                 100490152.304 7  25607702.289
                  25607709.125          39.400                          43.800
 141424113.012 5                 105608947.002 6  26912109.578
                  26912114.301          32.800                          36.100
 113954414.325 7                  85095844.877 8  21684804.867
                  21684809.414          45.700                          48.800
 119852191.974 7                  89500063.927 7  22807105.789
                  22807111.734          44.200                          47.800
 19  7  9 10 30  6.0000000  0 21G06G29R24R08R02G30R22G13G07R01G15G02
                                R23G05E12E04E11E36E19E14E09
 121663723.569 5  94803007.37243  90852878.891 7  23151847.563
  23151856.734    23151856.824          35.800          23.200          44.300
 117304715.970 7  91406430.81745                  22322376.383
  22322382.395                          42.600          30.000
 107935082.045 6  83949471.222 5                  20184405.891    20184405.281
  20184408.402                          38.400          32.500
 110597369.091 6  86020204.679 7                  20653270.633    20653269.699
  20653273.664                          41.100          42.900
 123801532.361 5  96290089.460 5                  23200352.563    23200352.629
  23200359.457                          33.700          35.900
 122438172.401 6  95406365.17143  91431107.679 7  23299195.344
  23299204.023    23299204.586          37.700          21.700          45.600
 124304255.164 5  96681101.632 6                  23286374.555    23286372.602
  23286379.875                          35.800          36.600
 110818009.554 7  86351713.81045                  21087958.953
  21087965.094                          45.200          35.400
 127405358.008 6  99276840.06343                  24244408.656
  24244414.852                          37.200          19.900
 105276969.102 7  81882129.880 6                  19694224.734    19694224.457
  19694231.063                          42.500          40.000
 123299308.457 6  96077319.44643                  23463052.195
  23463058.281                          38.100          21.700
 108788706.539 7  84770461.31446                  20701794.805
  20701798.234                          45.400          39.700
 103476983.131 7  80482197.106 6                  19343923.688    19343922.582
  19343930.320                          46.400          40.100
 107637244.477 7  83873266.95746                  20482680.531
  20482686.184                          47.000          40.400
 123242643.305 6                  92031857.295 7  23452295.383
                  23452298.074          39.400                          42.600
 123414822.439 7                  92160466.072 8  23485048.789
                  23485053.020          46.200                          50.900
 113488156.802 7                  84747659.809 7  21596076.492
                  21596077.945          42.600                          46.000
 134567022.282 6                 100488384.187 7  25607251.844
                  25607258.637          39.100                          43.400
 141426619.239 5                 105610818.569 5  26912586.570
                  26912591.422          32.500                          35.500
 113959524.557 7                  85099660.965 8  21685777.234
                  21685781.934          45.400                          48.700
 119850506.383 7                  89498805.185 7  22806784.945
                  22806790.992          44.200                          47.800
 19  7  9 10 30  7.0000000  0 21G06G29R24R08R02G30R22G13G07R01G15G02
                                R23G05E12E04E11E36E19E14E09
 121666648.091 6  94805286.23643  90855062.782 7  23152403.727
  23152413.031    23152413.324          36.000          22.800          44.600
 117303561.494 7  91405531.22644                  22322157.070
  22322163.090                          42.700          29.700
 107932818.493 6  83947710.670 5                  20183982.750    20183981.879
  20183985.223                          38.600          32.400
 110599818.082 6  86022109.452 7                  20653727.344    20653727.066
  20653730.711                          41.000          42.300
 123798575.662 5  96287789.759 5                  23199799.641    23199798.180
  23199805.406                          34.200          35.600
 122437008.068 6  95405457.91043  91430238.237 7  23298973.641
  23298982.270    23298983.082          37.700          22.600          45.600
 124308607.572 5  96684486.881 6                  23287190.117    23287188.141
  23287194.820                          35.700          36.100
 110815623.722 7  86349854.72045                  21087505.164
  21087511.012                          45.000          35.800
 127405777.792 6  99277167.19243                  24244488.148
  24244494.734                          36.600          19.900
 105276766.485 7  81881972.272 6                  19694187.094    19694186.371
  19694193.309                          42.400          39.700
 123295755.879 6  96074551.22743                  23462376.078
  23462382.176                          38.300          22.200
 108789276.859 7  84770905.72746                  20701903.656
  20701906.660                          45.400          39.500
 103478571.792 7  80483432.722 6                  19344221.281    19344219.566
  19344227.648                          46.700          39.500
 107637248.918 7  83873270.41746                  20482681.219
  20482687.223                          46.700          40.200
 123245111.144 6                  92033700.181 7  23452764.977
                  23452767.688          39.100                          42.300
 123415526.064 7                  92160991.506 8  23485182.594
                  23485186.949          45.900                          50.800
 113488176.865 7                  84747674.779 7  21596080.273
                  21596081.727          42.600                          46.000
 134564654.681 6                 100486616.166 7  25606801.234
                  25606808.004          39.400                          43.600
 141429125.467 5                 105612690.089 5  26913063.641
                  26913068.613          32.200                          35.400
 113964635.260 7                  85103477.386 8  21686749.781
                  21686754.445          45.600                          48.700
 119848820.972 7                  89497546.611 7  22806464.578
                  22806470.324          44.500                          47.600
 19  7  9 10 30  8.0000000  0 21G06G29R24R08R02G30R22G13G07R01G15G02
                                R23G05E12E04E11E36E19E14E09
 121669572.854 6  94807565.27844  90857246.866 7  23152961.414
  23152969.809    23152969.668          36.400          24.700          44.600
 117302407.658 7  91404632.13344                  22321937.305
  22321943.648                          42.700          29.600
 107930555.708 6  83945950.765 5                  20183559.641    20183558.793
  20183562.520                          38.600          32.400
 110602267.266 6  86024014.398 7                  20654185.039    20654183.871
  20654188.109                          41.300          42.500
 123795619.263 5  96285490.327 6                  23199245.938    23199244.453
  23199251.344                          33.700          36.100
 122435844.238 6  95404551.04744  91429369.170 7  23298752.883
  23298760.754    23298761.703          38.600          25.000          45.800
 124312960.271 6  96687872.256 6                  23288006.164    23288003.789
  23288010.602                          36.100          36.700
 110813238.399 7  86347996.02545                  21087051.195
  21087057.125                          45.100          35.800
 127406198.076 6  99277494.65543                  24244569.281
  24244574.910                          37.100          19.900
 105276564.350 7  81881815.062 6                  19694149.133    19694148.738
  19694155.781                          42.300          40.200
 123292203.580 6  96071783.19343                  23461700.563
  23461706.641                          38.900          22.200
 108789847.682 7  84771350.52246                  20702012.375
  20702015.004                          45.700          39.900
 103480161.316 7  80484669.007 6                  19344517.805    19344516.980
  19344524.684                          46.800          39.800
 107637253.646 7  83873274.10046                  20482681.891
  20482688.000                          47.100          40.200
 123247579.264 6                  92035543.243 7  23453234.719
                  23453237.273          38.700                          42.200
 123416229.997 7                  92161517.160 8  23485316.492
                  23485320.805          46.000                          50.600
 113488197.343 7                  84747690.083 7  21596084.195
                  21596085.578          42.600                          45.900
 134562287.269 6                 100484848.294 7  25606350.734
                  25606357.605          39.300                          43.500
 141431631.666 5                 105614561.632 5  26913540.445
                  26913545.289          33.300                          35.500
 113969746.519 7                  85107294.222 8  21687722.469
                  21687727.012          45.700                          48.200
 119847135.867 7                  89496288.247 7  22806143.672
                  22806149.676          44.300                          47.400
 19  7  9 10 30  9.0000000  0 21G06G29R24R08R02G30R22G13G07R01G15G02
                                R23G05E12E04E11E36E19E14E09
 121672497.986 6  94809844.61044  90859431.197 7  23153517.461
  23153526.484    23153526.352          36.100          24.200          44.700
 117301254.530 7  91403733.58544                  22321717.727
  22321724.172                          42.400          29.400
 107928293.703 6  83944191.393 5                  20183136.867    20183135.387
  20183139.395                          38.600          32.200
 110604716.717 6  86025919.511 7                  20654641.633    20654641.684
  20654645.754                          40.400          42.900
 123792663.127 5  96283191.146 6                  23198690.578    23198690.055
  23198697.184                          34.300          36.300
 122434680.984 6  95403644.60943  91428500.481 7  23298531.055
  23298539.563    23298540.258          37.900          23.600          45.700
 124317313.153 5  96691257.816 6                  23288821.383    23288818.938
  23288825.891                          35.900          36.400
 110810853.629 7  86346137.75945                  21086597.383
  21086603.016                          45.000          35.800
 127406618.972 6  99277822.64943                  24244649.758
  24244655.004                          36.900          19.600
 105276362.724 6  81881658.257 6                  19694111.836    19694110.691
  19694117.797                          41.800          40.300
 123288651.528 6  96069015.34843                  23461024.672
  23461030.809                          39.400          22.000
 108790419.041 7  84771795.72946                  20702120.625
  20702123.789                          45.800          39.800
 103481751.735 7  80485906.006 6                  19344815.094    19344814.270
  19344821.930                          46.500          40.100
 107637258.687 7  83873278.03246                  20482683.023
  20482688.438                          47.500          40.500
 123250047.677 6                  92037386.539 7  23453703.859
                  23453706.953          39.600                          42.500
 123416934.220 7                  92162043.058 8  23485450.430
                  23485454.770          46.200                          50.500
 113488218.313 7                  84747705.740 7  21596088.141
                  21596089.680          42.700                          45.900
 134559920.092 6                 100483080.612 7  25605900.133
                  25605907.195          39.800                          43.600
 141434137.986 5                 105616433.223 5  26914017.273
                  26914022.441          32.800                          35.200
 113974858.344 7                  85111111.500 8  21688695.227
                  21688699.828          45.700                          48.400
 119845451.042 7                  89495030.108 7  22805823.008
                  22805829.047          44.200                          47.200
 19  7  9 10 30 10.0000000  0 21G06G29R24R08R02G30R22G13G07R01G15G02
                                R23G05E12E04E11E36E19E14E09
 121675423.406 5  94812124.12743  90861615.775 7  23154074.188
  23154083.035    23154082.996          35.900          23.800          44.300
 117300102.077 7  91402835.57744                  22321498.727
  22321504.652                          42.500          29.300
 107926032.413 6  83942432.615 5                  20182714.086    20182712.816
  20182716.375                          38.600          32.100
 110607166.406 6  86027824.815 7                  20655100.617    20655098.863
  20655103.012                          40.300          42.800
 123789707.268 5  96280892.143 6                  23198135.586    23198136.332
  23198143.605                          33.800          36.400
 122433518.232 6  95402738.56743  91427632.191 7  23298310.625
  23298318.047    23298318.973          37.900          23.600          46.000
 124321666.260 5  96694643.558 6                  23289636.500    23289634.383
  23289641.387                          35.700          36.600
 110808469.415 7  86344279.93745                  21086144.117
  21086149.688                          45.100          35.800
 127407040.426 6  99278151.05243                  24244729.078
  24244735.191                          36.300          19.600
 105276161.646 6  81881501.854 6                  19694075.133    19694073.027
  19694080.059                          41.800          40.000
 123285099.761 6  96066247.74043                  23460348.414
  23460355.008                          38.600          22.200
 108790990.898 7  84772241.32946                  20702229.125
  20702232.660                          45.700          39.600
 103483343.024 7  80487143.660 6                  19345113.211    19345111.777
  19345119.289                          46.400          40.100
 107637264.040 7  83873282.20046                  20482684.531
  20482690.238                          47.100          40.600
 123252516.398 6                  92039230.064 7  23454173.914
                  23454176.668          39.400                          42.700
 123417638.772 7                  92162569.180 8  23485584.633
                  23485588.883          46.400                          50.600
 113488239.712 7                  84747721.729 7  21596092.125
                  21596093.781          42.400                          45.900
 134557553.179 6                 100481313.096 7  25605450.000
                  25605456.758          39.700                          43.100
 141436644.335 5                 105618304.852 5  26914494.109
                  26914499.234          32.800                          35.400
 113979970.718 7                  85114929.200 8  21689667.758
                  21689672.563          45.600                          48.500
 119843766.548 7                  89493772.190 7  22805502.922
                  22805508.508          44.400                          47.200
 19  7  9 10 30 11.0000000  0 21G06G29R24R08R02G30R22G13G07R01G15G02
                                R23G05E12E04E11E36E19E14E09
 121678349.040 5  94814403.85343  90863800.491 7  23154630.914
  23154639.652    23154639.758          35.400          22.800          44.400
 117298950.187 7  91401938.00044                  22321279.836
  22321285.445                          42.700          29.300
 107923771.805 6  83940674.392 5                  20182290.992    20182290.477
  20182293.910                          38.900          32.400
 110609616.268 6  86029730.273 7                  20655556.875    20655556.176
  20655560.594                          40.400          42.700
 123786751.672 5  96278593.301 5                  23197582.797    23197582.320
  23197589.461                          33.900          35.400
 122432355.882 6  95401832.84143  91426764.214 7  23298088.406
  23298097.176    23298097.820          37.800          22.200          46.200
 124326019.461 6  96698029.395 6                  23290452.883    23290449.734
  23290457.027                          36.100          36.800
 110806085.600 7  86342422.41746                  21085690.352
  21085695.863                          45.300          36.000
 127407462.370 5  99278479.82243                  24244808.734
  24244815.730                          35.300          19.600
 105275960.922 6  81881345.752 6                  19694036.547    19694035.566
  19694042.297                          41.800          40.300
 123281548.165 6  96063480.25743                  23459672.609
  23459679.199                          39.400          22.600
 108791563.183 7  84772687.27046                  20702338.188
  20702341.418                          45.500          40.100
 103484935.094 7  80488381.964 6                  19345410.492    19345409.363
  19345417.043                          46.600          40.100
 107637269.597 7  83873286.53046                  20482685.461
  20482690.414                          47.500          40.400
 123254985.287 6                  92041073.741 7  23454643.922
                  23454646.516          39.300                          42.200
 123418343.537 7                  92163095.457 8  23485718.578
                  23485723.000          46.700                          50.700
 113488261.512 7                  84747737.986 7  21596096.625
                  21596097.797          42.300                          45.900
 134555186.371 6                 100479545.666 7  25604999.328
                  25605006.430          39.500                          43.200
 141439150.671 5                 105620176.425 5  26914971.102
                  26914975.973          32.600                          35.200
 113985083.594 7                  85118747.236 8  21690640.758
                  21690645.566          45.100                          48.300
 119842082.229 7                  89492514.434 7  22805182.438
                  22805187.922          44.600                          47.200
 19  7  9 10 30 12.0000000  0 21G06G29R24R08R02G30R22G13G07R01G15G02
                                R23G05E12E04E11E36E19E14E09
 121681274.953 5  94816683.79043  90865985.441 7  23155187.086
  23155196.234    23155196.480          35.000          22.200          45.000
 117297798.979 7  91401040.95844                  22321059.938
  22321066.441                          42.700          28.700
 107921511.945 6  83938916.700 5                  20181867.680    20181867.563
  20181871.125                          38.700          32.600
 110612066.369 6  86031635.902 7                  20656013.945    20656013.668
  20656018.266                          40.600          42.600
 123783796.353 5  96276294.725 5                  23197029.617    23197028.297
  23197035.988                          33.800          35.400
 122431194.012 6  95400927.49643  91425896.597 7  23297867.914
  23297876.188    23297876.914          37.300          22.900          46.200
 124330372.827 5  96701415.345 6                  23291267.578    23291265.133
  23291272.566                          35.900          36.100
 110803702.328 7  86340565.32345                  21085236.688
  21085242.652                          45.500          35.900
 127407884.842 5  99278809.03043                  24244889.531
  24244895.828                          35.100          18.600
 105275760.743 7  81881190.038 6                  19693998.633    19693998.051
  19694005.121                          42.000          39.600
 123277996.774 6  96060712.94843                  23458996.258
  23459003.398                          39.500          22.900
 108792135.960 7  84773133.59046                  20702447.125
  20702450.805                          45.800          40.400
 103486528.026 7  80489620.907 6                  19345707.906    19345707.129
  19345714.750                          46.600          40.300
 107637275.414 7  83873291.06046                  20482686.477
  20482691.840                          47.000          40.200
 123257454.498 6                  92042917.615 7  23455113.672
                  23455116.375          39.300                          42.600
 123419048.562 7                  92163621.958 8  23485853.094
                  23485857.223          45.900                          50.800
 113488283.690 7                  84747754.556 7  21596100.656
                  21596102.078          42.200                          45.900
 134552819.765 6                 100477778.404 7  25604549.094
                  25604556.047          39.700                          43.400
 141441656.985 5                 105622048.010 5  26915448.117
                  26915452.941          31.800                          35.400
 113990196.984 7                  85122565.686 8  21691613.828
                  21691618.555          45.500                          48.500
 119840398.203 7                  89491256.877 7  22804861.789
                  22804867.543          44.400                          47.200
 19  7  9 10 30 13.0000000  0 21G06G29R24R08R02G30R22G13G07R01G15G02
                                R23G05E12E04E11E36E19E14E09
 121684201.155 5  94818963.92343  90868170.590 7  23155743.820
  23155753.109    23155753.340          35.200          22.300          44.600
 117296648.409 7  91400144.40644                  22320841.273
  22320847.590                          42.100          28.900
 107919252.783 6  83937159.586 5                  20181445.977    20181445.297
  20181448.883                          38.400          31.800
 110614516.684 6  86033541.712 7                  20656471.781    20656471.340
  20656475.668                          40.500          42.600
 123780841.242 5  96273996.370 5                  23196475.188    23196474.688
  23196482.184                          34.000          35.700
 122430032.705 6  95400022.57943  91425029.353 7  23297647.000
  23297655.270    23297655.773          37.500          22.900          46.300
 124334726.463 5  96704801.542 6                  23292082.836    23292080.719
  23292087.949                          35.700          36.400
 110801319.560 7  86338708.62445                  21084783.141
  21084789.090                          45.700          35.700
 127408307.837 5  99279138.63443                  24244969.961
  24244976.734                          34.600          19.000
 105275561.014 7  81881034.712 6                  19693961.117    19693960.652
  19693967.410                          42.100          39.700
 123274445.662 6  96057945.83643                  23458321.156
  23458327.617                          39.200          22.300
 108792709.203 7  84773580.27546                  20702556.523
  20702559.762                          45.800          40.200
 103488121.828 7  80490860.552 6                  19346006.539    19346005.059
  19346012.730                          46.500          40.100
 107637281.527 7  83873295.83046                  20482687.914
  20482693.434                          47.500          40.200
 123259923.944 6                  92044761.672 7  23455583.438
                  23455586.363          39.500                          42.900
 123419753.909 7                  92164148.661 8  23485987.008
                  23485991.324          46.000                          50.700
 113488306.306 7                  84747771.460 7  21596105.039
                  21596106.309          42.300                          46.000
 134550453.341 6                 100476011.307 7  25604098.656
                  25604105.754          39.500                          43.500
 141444163.297 5                 105623919.624 5  26915925.234
                  26915929.941          32.300                          35.500
 113995310.917 7                  85126384.540 8  21692586.938
                  21692591.750          45.700                          48.100
 119838714.468 7                  89489999.531 7  22804541.383
                  22804547.207          44.800                          47.100
 19  7  9 10 30 14.0000000  0 20G06G29R24R08G30R22G13G07R01G15G02R23
                                G05E12E04E11E36E19E14E09
 121687127.634 5  94821244.31143  90870355.931 7  23156301.516
  23156310.184    23156310.262          35.000          22.900          44.300
 117295498.487 7  91399248.36544                  22320622.320
  22320628.867                          42.000          29.200
 107916994.340 6  83935403.017 5                  20181022.961    20181023.102
  20181026.430                          38.700          32.200
 110616967.209 6  86035447.652 7                  20656929.906    20656929.324
  20656933.500                          40.500          42.900
 122428871.803 6  95399117.97844  91424162.455 7  23297425.992
  23297434.793    23297434.793          37.500          25.800          46.500
 124339080.223 5  96708187.808 6                  23292899.188    23292896.461
  23292903.445                          35.600          36.700
 110798937.279 7  86336852.30345                  21084329.938
  21084335.613                          45.800          35.500
 127408731.421 5  99279468.71043                  24245050.773
  24245057.426                          34.800          19.600
 105275361.772 7  81880879.742 6                  19693924.164    19693923.207
  19693930.281                          42.500          39.900
 123270894.721 6  96055178.88143                  23457645.430
  23457652.016                          38.900          22.600
 108793282.911 7  84774027.31746                  20702665.477
  20702668.992                          45.600          40.300
 103489716.471 7  80492100.822 6                  19346304.422    19346303.316
  19346311.055                          47.000          40.200
 107637287.904 7  83873300.79946                  20482689.086
  20482694.586                          47.400          40.100
 123262393.628 6                  92046605.923 7  23456053.594
                  23456056.129          39.400                          42.800
 123420459.504 7                  92164675.571 8  23486121.234
                  23486125.699          46.000                          51.000
 113488329.354 7                  84747788.662 7  21596109.398
                  21596110.715          42.900                          45.900
 134548087.174 6                 100474244.321 7  25603648.414
                  25603655.445          39.900                          43.300
 141446669.663 5                 105625791.217 5  26916402.313
                  26916406.824          32.300                          35.000
 114000425.366 7                  85130203.765 7  21693560.359
                  21693565.082          45.800                          47.900
 119837030.956 7                  89488742.369 7  22804221.227
                  22804226.746          44.400                          47.800
 19  7  9 10 30 15.0000000  0 20G06G29R24R08G30R22G13G07R01G15G02R23
                                G05E12E04E11E36E19E14E09
 121690054.359 5  94823524.88543  90872541.513 7  23156858.164
  23156867.500    23156867.309          34.600          22.500          44.300
 117294349.214 7  91398352.83044                  22320403.695
  22320410.289                          42.000          28.900
 107914736.647 6  83933647.015 5                  20180601.266    20180601.031
  20180603.840                          38.400          32.500
 110619417.934 6  86037353.793 7                  20657386.992    20657387.090
  20657391.207                          40.900          43.000
 122427711.424 6  95398213.78843  91423295.949 7  23297204.625
  23297213.594    23297213.969          37.100          23.000          46.500
 124343434.257 5  96711574.227 6                  23293714.836    23293712.250
  23293718.953                          35.900          36.600
 110796555.534 7  86334996.39745                  21083876.672
  21083882.652                          45.700          35.500
 127409155.515 5  99279799.15443                  24245130.391
  24245137.719                          35.000          19.600
 105275163.035 7  81880725.149 6                  19693887.109    19693886.645
  19693893.457                          42.400          40.200
 123267344.066 6  96052412.14243                  23456970.000
  23456976.387                          39.400          22.200
 108793857.169 7  84774474.78946                  20702774.719
  20702778.258                          45.800          40.000
 103491312.022 7  80493341.787 6                  19346602.438    19346601.613
  19346609.238                          46.700          40.500
 107637294.583 7  83873306.00446                  20482690.516
  20482696.273                          47.600          40.000
 123264863.614 6                  92048450.374 7  23456523.844
                  23456526.195          39.800                          42.700
 123421165.396 7                  92165202.699 8  23486255.758
                  23486259.992          46.100                          51.100
 113488352.865 7                  84747806.210 7  21596113.852
                  21596115.285          42.700                          45.900
 134545721.184 6                 100472477.503 7  25603198.250
                  25603205.340          39.700                          43.600
 141449175.997 5                 105627662.896 5  26916878.828
                  26916883.992          32.000                          35.000
 114005540.372 7                  85134023.413 8  21694533.578
                  21694538.359          45.900                          48.400
 119835347.762 7                  89487485.430 7  22803900.570
                  22803906.555          44.400                          47.800
 19  7  9 10 30 16.0000000  0 20G06G29R24R08G30R22G13G07R01G15G02R23
                                G05E12E04E11E36E19E14E09
 121692981.456 5  94825805.73743  90874727.297 7  23157415.070
  23157424.008    23157424.520          35.100          22.500          44.600
 117293200.616 6  91397457.81344                  22320184.922
  22320191.617                          41.700          29.300
 107912479.677 6  83931891.629 5                  20180178.906    20180178.508
  20180181.855                          38.700          32.400
 110621868.895 6  86039260.094 7                  20657846.070    20657844.738
  20657848.707                          40.600          42.900
 122426551.548 6  95397309.98944  91422429.814 7  23296983.938
  23296993.012    23296993.188          37.000          24.000          46.400
 124347788.402 5  96714960.789 6                  23294528.555    23294528.199
  23294534.605                          35.100          36.500
 110794174.319 7  86333140.90545                  21083423.656
  21083429.441                          45.300          35.900
 127409580.162 5  99280130.06843                  24245212.055
  24245218.910                          34.700          19.900
 105274964.779 7  81880570.963 6                  19693850.391    19693849.129
  19693856.160                          42.300          40.100
 123263793.659 6  96049645.57943                  23456293.906
  23456300.496                          38.800          22.200
 108794431.892 7  84774922.62246                  20702884.273
  20702887.418                          45.800          40.300
 103492908.433 7  80494583.408 6                  19346900.430    19346899.910
  19346907.496                          46.400          40.000
 107637301.542 7  83873311.42846                  20482691.547
  20482697.000                          47.100          40.100
 123267333.846 6                  92050295.074 7  23456993.797
                  23456996.445          39.700                          43.000
 123421871.591 7                  92165730.050 8  23486390.219
                  23486394.430          45.700                          51.000
 113488376.774 7                  84747824.090 7  21596118.492
                  21596119.602          42.300                          45.900
 134543355.400 6                 100470710.857 7  25602747.852
                  25602755.063          39.700                          43.900
 141451682.470 5                 105629534.532 5  26917355.891
                  26917360.809          31.700                          35.000
 114010655.954 7                  85137843.487 8  21695507.281
                  21695511.980          45.700                          48.400
 119833664.830 7                  89486228.709 7  22803580.172
                  22803586.266          44.600                          47.600
 19  7  9 10 30 17.0000000  0 21G06G29R24R08R02G30R22G13G07R01G15G02
                                R23G05E12E04E11E36E19E14E09
 121695908.722 5  94828086.73143  90876913.274 7  23157971.852
  23157981.207    23157981.367          35.000          22.800          44.500
 117292052.614 7  91396563.26544                  22319966.734
  22319973.309                          42.200          29.400
 107910223.375 6  83930136.746 5                  20179757.172    20179756.324
  20179760.184                          38.600          32.200
 110624320.045 6  86041166.537 7                  20658302.305    20658302.613
  20658306.543                          40.600          42.600
 123769023.89315  96264805.09215                  23194260.820    23194259.992
  23194266.844                          34.800          35.900
 122425392.082 6  95396406.50944  91421563.988 7  23296763.523
  23296772.594    23296772.469          37.100          24.100          46.200
 124352142.768 5  96718347.500 6                  23295346.898    23295344.406
  23295350.500                          35.200          36.200
 110791793.543 7  86331285.75845                  21082970.430
  21082975.746                          45.300          35.600
 127410005.324 5  99280461.31743                  24245293.133
  24245299.711                          35.200          19.600
 105274766.933 7  81880417.073 6                  19693813.297    19693812.504
  19693819.324                          42.600          40.400
 123260243.421 6  96046879.15843                  23455618.297
  23455625.125                          38.900          22.500
 108795007.043 7  84775370.79146                  20702994.078
  20702996.895                          46.100          39.900
 103494505.619 7  80495825.695 6                  19347199.977    19347198.543
  19347205.781                          46.700          40.200
 107637308.722 7  83873317.02046                  20482692.906
  20482698.488                          47.000          39.900
 123269804.339 6                  92052139.889 7  23457464.172
                  23457466.367          39.800                          42.800
 123422577.993 7                  92166257.568 8  23486524.484
                  23486528.840          45.500                          50.200
 113488401.089 7                  84747842.226 7  21596123.188
                  21596124.355          42.300                          45.800
 134540989.760 6                 100468944.294 7  25602298.273
                  25602304.938          39.800                          43.800
 141454188.79015                 105631406.187 5  26917832.813
                  26917837.711          32.500                          35.400
 114015771.989 7                  85141663.901 8  21696481.023
                  21696485.375          46.000                          48.300
 119831982.119 7                  89484972.151 7  22803260.211
                  22803266.051          44.600                          47.500
 19  7  9 10 30 18.0000000  0 21G06G29R24R08R02G30R22G13G07R01G15G02
                                R23G05E12E04E11E36E19E14E09
 121698836.298 5  94830367.94143  90879099.438 7  23158529.031
  23158537.941    23158538.547          35.300          22.800          44.100
 117290905.248 7  91395669.22044                  22319747.906
  22319754.520                          42.200          29.200
 107907967.862 6  83928382.416 5                  20179335.695    20179334.848
  20179338.422                          38.700          32.800
 110626771.399 6  86043073.151 7                  20658760.641    20658760.504
  20658764.434                          40.600          42.700
 123766070.211 5  96262507.774 6                  23193707.711    23193706.273
  23193713.461                          34.400          36.500
 122424233.126 6  95395503.42543  91420698.528 7  23296542.773
  23296551.734    23296552.133          37.200          23.200          46.200
 124356497.263 5  96721734.370 6                  23296162.195    23296159.914
  23296165.855                          35.400          36.100
 110789413.282 7  86329431.01045                  21082517.531
  21082523.035                          45.400          35.700
 127410430.986 5  99280793.05843                  24245374.352
  24245380.641                          35.400          18.600
 105274569.543 7  81880263.560 6                  19693776.953    19693775.668
  19693781.992                          42.300          40.200
 123256693.454 6  96044112.94543                  23454942.391
  23454949.930                          38.200          22.800
 108795582.682 7  84775819.34746                  20703103.367
  20703106.539                          45.800          40.200
 103496103.666 7  80497068.609 6                  19347498.508    19347497.426
  19347504.574                          46.800          40.200
 107637316.186 7  83873322.83946                  20482694.305
  20482700.285                          47.200          39.800
 123272275.038 6                  92053984.924 7  23457934.219
                  23457936.543          39.300                          42.600
 123423284.698 7                  92166785.295 8  23486659.047
                  23486663.242          45.600                          50.200
 113488425.803 7                  84747860.681 7  21596127.500
                  21596129.203          42.500                          46.000
 134538624.318 6                 100467177.908 7  25601848.055
                  25601854.832          39.700                          43.500
 141456695.189 5                 105633277.832 5  26918309.891
                  26918314.230          31.800                          35.000
 114020888.554 7                  85145484.714 8  21697454.492
                  21697459.191          45.500                          48.200
 119830299.695 7                  89483715.775 7  22802940.156
                  22802946.004          44.700                          47.300
 19  7  9 10 30 19.0000000  0 21G06G29R24R08R02G30R22G13G07R01G15G02
                                R23G05E12E04E11E36E19E14E09
 121701764.209 5  94832649.42543  90881285.840 7  23159086.164
  23159095.016    23159095.785          35.000          22.800          44.400
 117289758.577 7  91394775.71544                  22319530.000
  22319536.238                          42.500          29.300
 107905713.113 6  83926628.738 5                  20178914.531    20178912.887
  20178916.539                          38.500          31.900
 110629223.017 6  86044979.953 7                  20659219.219    20659217.887
  20659222.211                          40.500          43.100
 123763116.859 5  96260210.725 6                  23193152.898    23193153.105
  23193159.945                          34.600          36.600
 122423074.704 6  95394600.76543  91419833.464 7  23296322.258
  23296331.559    23296331.691          36.900          23.600          45.800
 124360851.963 5  96725121.362 6                  23296976.844    23296975.691
  23296981.895                          35.700          36.100
 110787033.560 7  86327576.68345                  21082064.688
  21082070.402                          45.600          35.700
 127410857.258 5  99281125.21443                  24245455.500
  24245461.645                          35.400          18.300
