% program   : RTKLIB ver.2.4.2
% inp file  : D:\mycode\vscode\rtklib-v2\rtklib-v2\new data\bjfs0100.19n
% inp file  : D:\mycode\vscode\rtklib-v2\rtklib-v2\new data\bjfs0100.19o
% inp file  : D:\mycode\vscode\rtklib-v2\rtklib-v2\new data\igs20354.clk
% inp file  : D:\mycode\vscode\rtklib-v2\rtklib-v2\new data\igs20354.sp3
% inp file  : D:\mycode\vscode\rtklib-v2\rtklib-v2\new data\igsg0100.19i
% inp file  : D:\mycode\vscode\rtklib-v2\rtklib-v2\new data\igs20427.erp
% inp file  : D:\mycode\vscode\rtklib-v2\rtklib-v2\new data\igs14.atx
% obs start : 2019/01/10 00:10:00.0 GPST (week2035 346200.0s)
% obs end   : 2019/01/10 03:30:00.0 GPST (week2035 358200.0s)
% pos mode  : ppp-static
% solution  : forward
% elev mask : 15.0 deg
% dynamics  : off
% tidecorr  : off
% tropo opt : est ztd
% ephemeris : precise
% antenna1  :                       ( 0.0000  0.0000  0.0000)
%
% (x/y/z-ecef=WGS84,Q=1:fix,2:float,3:sbas,4:dgps,5:single,6:ppp,ns=# of satellites)
%  GPST                      x-ecef(m)      y-ecef(m)      z-ecef(m)   Q  ns   sdx(m)   sdy(m)   sdz(m)  sdxy(m)  sdyz(m)  sdzx(m) age(s)  ratio
2019/01/10 00:10:00.000  -2148745.1462   4426642.4486   4044655.4165   6   7   1.6894   2.3900   2.6054  -1.4927   1.9277  -1.1475   0.00    0.0
2019/01/10 00:10:30.000  -2148744.9769   4426641.9914   4044655.7654   6   7   1.1826   1.6592   1.7621  -1.0323   1.3086  -0.7779   0.00    0.0
2019/01/10 00:11:00.000  -2148745.0924   4426642.1735   4044656.5500   6   7   0.9611   1.3446   1.4074  -0.8347   1.0487  -0.6232   0.00    0.0
2019/01/10 00:11:30.000  -2148745.2853   4426642.1635   4044656.5940   6   7   0.8305   1.1611   1.2033  -0.7199   0.8996  -0.5349   0.00    0.0
2019/01/10 00:12:00.000  -2148745.3814   4426642.5344   4044656.9292   6   7   0.7423   1.0381   1.0676  -0.6433   0.8009  -0.4767   0.00    0.0
2019/01/10 00:12:30.000  -2148745.3982   4426642.3995   4044656.7563   6   7   0.6778   0.9486   0.9696  -0.5877   0.7299  -0.4350   0.00    0.0
2019/01/10 00:13:00.000  -2148745.3034   4426642.1204   4044656.5327   6   7   0.6237   0.8707   0.8762  -0.5378   0.6627  -0.3949   0.00    0.0
2019/01/10 00:13:30.000  -2148745.3736   4426642.2814   4044656.6502   6   7   0.5743   0.7958   0.7767  -0.4876   0.5919  -0.3526   0.00    0.0
2019/01/10 00:14:00.000  -2148745.5009   4426642.4453   4044656.7301   6   7   0.5236   0.7145   0.6593  -0.4300   0.5106  -0.3048   0.00    0.0
2019/01/10 00:14:30.000  -2148745.4365   4426642.3136   4044656.6315   6   7   0.4656   0.6158   0.5173  -0.3565   0.4172  -0.2546   0.00    0.0
2019/01/10 00:15:00.000  -2148745.0994   4426641.7574   4044656.1402   6   7   0.4109   0.5156   0.3959  -0.2851   0.3412  -0.2215   0.00    0.0
2019/01/10 00:15:30.000  -2148745.0832   4426641.6947   4044656.1411   6   7   0.3914   0.4914   0.3759  -0.2725   0.3273  -0.2157   0.00    0.0
2019/01/10 00:16:00.000  -2148745.1283   4426641.7577   4044656.1687   6   7   0.3786   0.4783   0.3672  -0.2676   0.3211  -0.2127   0.00    0.0
2019/01/10 00:16:30.000  -2148745.1067   4426641.7829   4044656.1524   6   7   0.3682   0.4685   0.3615  -0.2646   0.3168  -0.2103   0.00    0.0
2019/01/10 00:17:00.000  -2148745.1117   4426641.7778   4044656.1521   6   7   0.3592   0.4601   0.3569  -0.2622   0.3134  -0.2082   0.00    0.0
2019/01/10 00:17:30.000  -2148745.0833   4426641.8308   4044656.1884   6   7   0.3511   0.4528   0.3531  -0.2601   0.3104  -0.2063   0.00    0.0
2019/01/10 00:18:00.000  -2148745.0749   4426641.8186   4044656.1983   6   7   0.3430   0.4445   0.3478  -0.2570   0.3066  -0.2043   0.00    0.0
2019/01/10 00:18:30.000  -2148745.0480   4426641.8286   4044656.1803   6   7   0.3340   0.4339   0.3397  -0.2520   0.3008  -0.2017   0.00    0.0
2019/01/10 00:19:00.000  -2148744.9640   4426641.8224   4044656.1851   6   7   0.3228   0.4174   0.3253  -0.2429   0.2906  -0.1980   0.00    0.0
2019/01/10 00:19:30.000  -2148744.8705   4426641.6971   4044656.1460   6   7   0.3056   0.3837   0.2953  -0.2230   0.2687  -0.1909   0.00    0.0
2019/01/10 00:20:00.000  -2148744.7637   4426641.5441   4044656.0274   6   7   0.2813   0.3240   0.2469  -0.1880   0.2296  -0.1770   0.00    0.0
2019/01/10 00:20:30.000  -2148744.7428   4426641.4968   4044656.0165   6   7   0.2731   0.3113   0.2375  -0.1819   0.2216  -0.1739   0.00    0.0
2019/01/10 00:21:00.000  -2148744.7028   4426641.4872   4044656.0058   6   7   0.2681   0.3059   0.2338  -0.1799   0.2184  -0.1720   0.00    0.0
2019/01/10 00:21:30.000  -2148744.7233   4426641.5213   4044656.0195   6   7   0.2641   0.3025   0.2316  -0.1789   0.2165  -0.1705   0.00    0.0
2019/01/10 00:22:00.000  -2148744.7129   4426641.5419   4044656.0217   6   7   0.2605   0.2998   0.2300  -0.1782   0.2152  -0.1692   0.00    0.0
2019/01/10 00:22:30.000  -2148744.7191   4426641.5648   4044656.0367   6   7   0.2573   0.2976   0.2287  -0.1776   0.2141  -0.1680   0.00    0.0
2019/01/10 00:23:00.000  -2148744.7362   4426641.5959   4044656.0490   6   7   0.2539   0.2946   0.2268  -0.1766   0.2124  -0.1667   0.00    0.0
2019/01/10 00:23:30.000  -2148744.7641   4426641.6284   4044656.0707   6   7   0.2500   0.2899   0.2236  -0.1745   0.2095  -0.1649   0.00    0.0
2019/01/10 00:24:00.000  -2148744.7929   4426641.6705   4044656.0787   6   7   0.2447   0.2812   0.2173  -0.1699   0.2036  -0.1621   0.00    0.0
2019/01/10 00:24:30.000  -2148744.7988   4426641.6799   4044656.0457   6   7   0.2354   0.2605   0.2022  -0.1578   0.1890  -0.1556   0.00    0.0
2019/01/10 00:25:00.000  -2148744.7190   4426641.5421   4044655.9877   6   7   0.2189   0.2192   0.1730  -0.1319   0.1599  -0.1415   0.00    0.0
2019/01/10 00:25:30.000  -2148744.7199   4426641.5168   4044655.9969   6   7   0.2133   0.2102   0.1663  -0.1267   0.1532  -0.1378   0.00    0.0
2019/01/10 00:26:00.000  -2148744.7109   4426641.5097   4044655.9899   6   7   0.2101   0.2068   0.1637  -0.1248   0.1508  -0.1360   0.00    0.0
2019/01/10 00:26:30.000  -2148744.7125   4426641.5119   4044655.9918   6   7   0.2077   0.2048   0.1623  -0.1239   0.1495  -0.1347   0.00    0.0
2019/01/10 00:27:00.000  -2148744.7192   4426641.5108   4044655.9926   6   7   0.2056   0.2034   0.1612  -0.1233   0.1486  -0.1337   0.00    0.0
2019/01/10 00:27:30.000  -2148744.7169   4426641.5112   4044655.9911   6   7   0.2037   0.2023   0.1604  -0.1229   0.1479  -0.1327   0.00    0.0
2019/01/10 00:28:00.000  -2148744.7140   4426641.5119   4044655.9872   6   7   0.2017   0.2007   0.1592  -0.1221   0.1468  -0.1316   0.00    0.0
2019/01/10 00:28:30.000  -2148744.7148   4426641.5177   4044655.9854   6   7   0.1992   0.1981   0.1572  -0.1206   0.1448  -0.1300   0.00    0.0
2019/01/10 00:29:00.000  -2148744.7117   4426641.5295   4044655.9936   6   7   0.1956   0.1928   0.1532  -0.1172   0.1407  -0.1274   0.00    0.0
2019/01/10 00:29:30.000  -2148744.7068   4426641.5049   4044655.9956   6   7   0.1888   0.1801   0.1439  -0.1083   0.1309  -0.1216   0.00    0.0
2019/01/10 00:30:00.000  -2148744.6621   4426641.4233   4044655.9515   6   7   0.1764   0.1536   0.1251  -0.0893   0.1112  -0.1100   0.00    0.0
2019/01/10 00:30:30.000  -2148744.6536   4426641.4417   4044655.9278   6   8   0.1720   0.1475   0.1203  -0.0849   0.1064  -0.1067   0.00    0.0
2019/01/10 00:31:00.000  -2148744.6575   4426641.4448   4044655.9221   6   8   0.1697   0.1453   0.1185  -0.0834   0.1046  -0.1052   0.00    0.0
2019/01/10 00:31:30.000  -2148744.6641   4426641.4512   4044655.9253   6   8   0.1680   0.1440   0.1174  -0.0826   0.1037  -0.1042   0.00    0.0
2019/01/10 00:32:00.000  -2148744.6754   4426641.4567   4044655.9330   6   8   0.1666   0.1432   0.1167  -0.0821   0.1030  -0.1033   0.00    0.0
2019/01/10 00:32:30.000  -2148744.6891   4426641.4608   4044655.9387   6   8   0.1653   0.1426   0.1161  -0.0818   0.1026  -0.1026   0.00    0.0
2019/01/10 00:33:00.000  -2148744.6978   4426641.4652   4044655.9439   6   8   0.1639   0.1416   0.1153  -0.0811   0.1018  -0.1017   0.00    0.0
2019/01/10 00:33:30.000  -2148744.6877   4426641.4520   4044655.9409   6   8   0.1619   0.1400   0.1138  -0.0798   0.1004  -0.1003   0.00    0.0
2019/01/10 00:34:00.000  -2148744.6779   4426641.4283   4044655.9426   6   8   0.1590   0.1367   0.1110  -0.0769   0.0976  -0.0979   0.00    0.0
2019/01/10 00:34:30.000  -2148744.6606   4426641.3898   4044655.9441   6   8   0.1535   0.1290   0.1047  -0.0702   0.0911  -0.0930   0.00    0.0
2019/01/10 00:35:00.000  -2148744.6356   4426641.3336   4044655.9260   6   8   0.1438   0.1119   0.0923  -0.0561   0.0783  -0.0840   0.00    0.0
2019/01/10 00:35:30.000  -2148744.6270   4426641.3330   4044655.9335   6   8   0.1403   0.1080   0.0889  -0.0525   0.0750  -0.0813   0.00    0.0
2019/01/10 00:36:00.000  -2148744.6339   4426641.3379   4044655.9421   6   7   0.1391   0.1069   0.0880  -0.0523   0.0742  -0.0808   0.00    0.0
2019/01/10 00:36:30.000  -2148744.6410   4426641.3402   4044655.9458   6   7   0.1382   0.1063   0.0875  -0.0522   0.0738  -0.0804   0.00    0.0
2019/01/10 00:37:00.000  -2148744.6563   4426641.3362   4044655.9485   6   7   0.1375   0.1059   0.0871  -0.0523   0.0736  -0.0800   0.00    0.0
2019/01/10 00:37:30.000  -2148744.6696   4426641.3331   4044655.9496   6   6   0.1369   0.1056   0.0869  -0.0523   0.0734  -0.0797   0.00    0.0
2019/01/10 00:38:00.000  -2148744.6704   4426641.3302   4044655.9484   6   6   0.1363   0.1052   0.0866  -0.0521   0.0732  -0.0793   0.00    0.0
2019/01/10 00:38:30.000  -2148744.6753   4426641.3213   4044655.9448   6   6   0.1354   0.1046   0.0861  -0.0518   0.0728  -0.0787   0.00    0.0
2019/01/10 00:39:00.000  -2148744.6778   4426641.3057   4044655.9390   6   6   0.1342   0.1032   0.0851  -0.0508   0.0719  -0.0778   0.00    0.0
2019/01/10 00:39:30.000  -2148744.6795   4426641.2696   4044655.9262   6   6   0.1318   0.0995   0.0825  -0.0480   0.0695  -0.0756   0.00    0.0
2019/01/10 00:40:00.000  -2148744.6790   4426641.2678   4044655.9121   6   6   0.1266   0.0898   0.0759  -0.0399   0.0633  -0.0705   0.00    0.0
2019/01/10 00:40:30.000  -2148744.6711   4426641.2588   4044655.9123   6   6   0.1249   0.0877   0.0744  -0.0383   0.0619  -0.0691   0.00    0.0
2019/01/10 00:41:00.000  -2148744.6754   4426641.2512   4044655.9107   6   6   0.1241   0.0870   0.0739  -0.0379   0.0615  -0.0686   0.00    0.0
2019/01/10 00:41:30.000  -2148744.6764   4426641.2494   4044655.9081   6   6   0.1235   0.0866   0.0736  -0.0377   0.0613  -0.0682   0.00    0.0
2019/01/10 00:42:00.000  -2148744.6789   4426641.2487   4044655.9066   6   6   0.1230   0.0864   0.0734  -0.0377   0.0611  -0.0679   0.00    0.0
2019/01/10 00:42:30.000  -2148744.6818   4426641.2465   4044655.9054   6   6   0.1225   0.0862   0.0732  -0.0377   0.0611  -0.0677   0.00    0.0
2019/01/10 00:43:00.000  -2148744.6837   4426641.2466   4044655.9054   6   6   0.1220   0.0859   0.0730  -0.0376   0.0609  -0.0674   0.00    0.0
2019/01/10 00:43:30.000  -2148744.6844   4426641.2481   4044655.9054   6   6   0.1213   0.0855   0.0727  -0.0374   0.0606  -0.0670   0.00    0.0
2019/01/10 00:44:00.000  -2148744.6938   4426641.2446   4044655.9031   6   7   0.1203   0.0846   0.0720  -0.0367   0.0601  -0.0662   0.00    0.0
2019/01/10 00:44:30.000  -2148744.6881   4426641.2395   4044655.8905   6   7   0.1182   0.0821   0.0702  -0.0344   0.0585  -0.0645   0.00    0.0
2019/01/10 00:45:00.000  -2148744.6860   4426641.2321   4044655.8802   6   7   0.1135   0.0752   0.0655  -0.0273   0.0541  -0.0603   0.00    0.0
2019/01/10 00:45:30.000  -2148744.6952   4426641.2452   4044655.8816   6   7   0.1121   0.0737   0.0644  -0.0259   0.0531  -0.0592   0.00    0.0
2019/01/10 00:46:00.000  -2148744.6947   4426641.2480   4044655.8809   6   7   0.1113   0.0732   0.0639  -0.0255   0.0528  -0.0587   0.00    0.0
2019/01/10 00:46:30.000  -2148744.6979   4426641.2467   4044655.8812   6   7   0.1108   0.0729   0.0637  -0.0254   0.0526  -0.0584   0.00    0.0
2019/01/10 00:47:00.000  -2148744.7033   4426641.2442   4044655.8819   6   7   0.1104   0.0727   0.0636  -0.0254   0.0525  -0.0582   0.00    0.0
2019/01/10 00:47:30.000  -2148744.7075   4426641.2436   4044655.8820   6   7   0.1100   0.0726   0.0635  -0.0254   0.0525  -0.0580   0.00    0.0
2019/01/10 00:48:00.000  -2148744.7193   4426641.2406   4044655.8836   6   7   0.1095   0.0724   0.0633  -0.0254   0.0524  -0.0578   0.00    0.0
2019/01/10 00:48:30.000  -2148744.7207   4426641.2400   4044655.8838   6   7   0.1090   0.0721   0.0631  -0.0252   0.0522  -0.0574   0.00    0.0
2019/01/10 00:49:00.000  -2148744.7358   4426641.2380   4044655.8865   6   7   0.1081   0.0714   0.0626  -0.0245   0.0517  -0.0568   0.00    0.0
2019/01/10 00:49:30.000  -2148744.7353   4426641.2349   4044655.8877   6   7   0.1063   0.0696   0.0612  -0.0223   0.0505  -0.0553   0.00    0.0
2019/01/10 00:50:00.000  -2148744.7187   4426641.2210   4044655.8722   6   7   0.1023   0.0644   0.0575  -0.0144   0.0471  -0.0517   0.00    0.0
2019/01/10 00:50:30.000  -2148744.7061   4426641.2158   4044655.8663   6   7   0.1011   0.0632   0.0566  -0.0125   0.0464  -0.0507   0.00    0.0
2019/01/10 00:51:00.000  -2148744.7042   4426641.2148   4044655.8665   6   7   0.1005   0.0628   0.0563  -0.0120   0.0461  -0.0503   0.00    0.0
2019/01/10 00:51:30.000  -2148744.7054   4426641.2151   4044655.8674   6   7   0.1001   0.0626   0.0562  -0.0119   0.0460  -0.0501   0.00    0.0
2019/01/10 00:52:00.000  -2148744.7097   4426641.2138   4044655.8671   6   7   0.0997   0.0625   0.0561  -0.0120   0.0459  -0.0499   0.00    0.0
2019/01/10 00:52:30.000  -2148744.7134   4426641.2119   4044655.8659   6   7   0.0994   0.0624   0.0560  -0.0121   0.0459  -0.0498   0.00    0.0
2019/01/10 00:53:00.000  -2148744.7212   4426641.2096   4044655.8662   6   7   0.0991   0.0622   0.0559  -0.0121   0.0458  -0.0496   0.00    0.0
2019/01/10 00:53:30.000  -2148744.7207   4426641.2065   4044655.8652   6   7   0.0986   0.0620   0.0557  -0.0119   0.0456  -0.0493   0.00    0.0
2019/01/10 00:54:00.000  -2148744.7238   4426641.1951   4044655.8613   6   7   0.0980   0.0615   0.0553  -0.0111   0.0453  -0.0489   0.00    0.0
2019/01/10 00:54:30.000  -2148744.7204   4426641.1693   4044655.8488   6   7   0.0966   0.0601   0.0542  -0.0077   0.0444  -0.0477   0.00    0.0
2019/01/10 00:55:00.000  -2148744.7142   4426641.1736   4044655.8415   6   7   0.0933   0.0562   0.0514   0.0111   0.0418  -0.0446   0.00    0.0
2019/01/10 00:55:30.000  -2148744.7090   4426641.1865   4044655.8456   6   7   0.0924   0.0553   0.0507   0.0125   0.0412  -0.0438   0.00    0.0
2019/01/10 00:56:00.000  -2148744.7088   4426641.1893   4044655.8463   6   7   0.0919   0.0550   0.0504   0.0127   0.0410  -0.0435   0.00    0.0
2019/01/10 00:56:30.000  -2148744.7080   4426641.1903   4044655.8461   6   7   0.0916   0.0548   0.0503   0.0127   0.0409  -0.0434   0.00    0.0
2019/01/10 00:57:00.000  -2148744.7130   4426641.1895   4044655.8465   6   7   0.0913   0.0547   0.0502   0.0126   0.0408  -0.0432   0.00    0.0
2019/01/10 00:57:30.000  -2148744.7189   4426641.1889   4044655.8473   6   7   0.0911   0.0546   0.0502   0.0125   0.0408  -0.0431   0.00    0.0
2019/01/10 00:58:00.000  -2148744.7218   4426641.1872   4044655.8467   6   7   0.0908   0.0545   0.0501   0.0124   0.0407  -0.0430   0.00    0.0
2019/01/10 00:58:30.000  -2148744.7251   4426641.1874   4044655.8474   6   7   0.0905   0.0543   0.0499   0.0125   0.0406  -0.0428   0.00    0.0
2019/01/10 00:59:00.000  -2148744.7270   4426641.1876   4044655.8486   6   7   0.0899   0.0539   0.0496   0.0129   0.0403  -0.0424   0.00    0.0
2019/01/10 00:59:30.000  -2148744.7324   4426641.1811   4044655.8461   6   7   0.0889   0.0528   0.0488   0.0143   0.0396  -0.0415   0.00    0.0
2019/01/10 01:00:00.000  -2148744.7211   4426641.1663   4044655.8305   6   7   0.0863   0.0497   0.0466   0.0178   0.0376  -0.0390   0.00    0.0
2019/01/10 01:00:30.000  -2148744.7216   4426641.1572   4044655.8265   6   7   0.0856   0.0489   0.0460   0.0183   0.0371  -0.0384   0.00    0.0
2019/01/10 01:01:00.000  -2148744.7262   4426641.1522   4044655.8255   6   7   0.0852   0.0487   0.0458   0.0184   0.0369  -0.0382   0.00    0.0
2019/01/10 01:01:30.000  -2148744.7319   4426641.1493   4044655.8242   6   7   0.0849   0.0485   0.0457   0.0184   0.0368  -0.0380   0.00    0.0
2019/01/10 01:02:00.000  -2148744.7384   4426641.1467   4044655.8231   6   7   0.0847   0.0484   0.0457   0.0183   0.0367  -0.0379   0.00    0.0
2019/01/10 01:02:30.000  -2148744.7435   4426641.1452   4044655.8224   6   7   0.0845   0.0484   0.0456   0.0182   0.0367  -0.0379   0.00    0.0
2019/01/10 01:03:00.000  -2148744.7454   4426641.1439   4044655.8211   6   7   0.0843   0.0483   0.0456   0.0181   0.0366  -0.0378   0.00    0.0
2019/01/10 01:03:30.000  -2148744.7469   4426641.1418   4044655.8195   6   7   0.0841   0.0481   0.0454   0.0181   0.0365  -0.0376   0.00    0.0
2019/01/10 01:04:00.000  -2148744.7468   4426641.1384   4044655.8162   6   7   0.0837   0.0478   0.0452   0.0182   0.0363  -0.0373   0.00    0.0
2019/01/10 01:04:30.000  -2148744.7476   4426641.1354   4044655.8120   6   7   0.0828   0.0469   0.0445   0.0188   0.0357  -0.0366   0.00    0.0
2019/01/10 01:05:00.000  -2148744.7438   4426641.1307   4044655.8042   6   7   0.0808   0.0443   0.0427   0.0206   0.0341  -0.0345   0.00    0.0
2019/01/10 01:05:30.000  -2148744.7566   4426641.1287   4044655.8071   6   7   0.0801   0.0437   0.0422   0.0208   0.0336  -0.0340   0.00    0.0
2019/01/10 01:06:00.000  -2148744.7641   4426641.1304   4044655.8090   6   7   0.0798   0.0435   0.0420   0.0208   0.0335  -0.0338   0.00    0.0
2019/01/10 01:06:30.000  -2148744.7702   4426641.1315   4044655.8105   6   7   0.0796   0.0434   0.0419   0.0208   0.0334  -0.0337   0.00    0.0
2019/01/10 01:07:00.000  -2148744.7743   4426641.1324   4044655.8117   6   7   0.0795   0.0433   0.0419   0.0207   0.0333  -0.0336   0.00    0.0
2019/01/10 01:07:30.000  -2148744.7806   4426641.1317   4044655.8124   6   7   0.0793   0.0432   0.0418   0.0206   0.0333  -0.0336   0.00    0.0
2019/01/10 01:08:00.000  -2148744.7869   4426641.1307   4044655.8129   6   7   0.0791   0.0431   0.0418   0.0206   0.0333  -0.0335   0.00    0.0
2019/01/10 01:08:30.000  -2148744.7939   4426641.1291   4044655.8133   6   7   0.0789   0.0430   0.0417   0.0205   0.0332  -0.0334   0.00    0.0
2019/01/10 01:09:00.000  -2148744.8018   4426641.1277   4044655.8129   6   7   0.0786   0.0427   0.0415   0.0206   0.0330  -0.0332   0.00    0.0
2019/01/10 01:09:30.000  -2148744.8030   4426641.1268   4044655.8101   6   7   0.0780   0.0420   0.0409   0.0208   0.0324  -0.0326   0.00    0.0
2019/01/10 01:10:00.000  -2148744.7907   4426641.1200   4044655.7997   6   7   0.0762   0.0399   0.0394   0.0217   0.0311  -0.0308   0.00    0.0
2019/01/10 01:10:30.000  -2148744.7925   4426641.1140   4044655.7990   6   7   0.0757   0.0394   0.0389   0.0218   0.0307  -0.0304   0.00    0.0
2019/01/10 01:11:00.000  -2148744.7968   4426641.1123   4044655.7987   6   7   0.0755   0.0392   0.0388   0.0218   0.0305  -0.0303   0.00    0.0
2019/01/10 01:11:30.000  -2148744.7984   4426641.1111   4044655.7974   6   7   0.0753   0.0391   0.0387   0.0218   0.0305  -0.0302   0.00    0.0
2019/01/10 01:12:00.000  -2148744.8042   4426641.1089   4044655.7964   6   7   0.0752   0.0390   0.0386   0.0217   0.0304  -0.0301   0.00    0.0
2019/01/10 01:12:30.000  -2148744.8087   4426641.1071   4044655.7958   6   7   0.0750   0.0390   0.0386   0.0216   0.0304  -0.0301   0.00    0.0
2019/01/10 01:13:00.000  -2148744.8100   4426641.1060   4044655.7950   6   7   0.0749   0.0389   0.0385   0.0216   0.0303  -0.0300   0.00    0.0
2019/01/10 01:13:30.000  -2148744.8132   4426641.1048   4044655.7952   6   7   0.0747   0.0388   0.0384   0.0216   0.0302  -0.0299   0.00    0.0
2019/01/10 01:14:00.000  -2148744.8181   4426641.1033   4044655.7969   6   7   0.0744   0.0385   0.0382   0.0216   0.0300  -0.0297   0.00    0.0
2019/01/10 01:14:30.000  -2148744.8178   4426641.1030   4044655.7999   6   6   0.0739   0.0381   0.0379   0.0216   0.0298  -0.0293   0.00    0.0
2019/01/10 01:15:00.000  -2148744.8074   4426641.1045   4044655.7941   6   6   0.0724   0.0366   0.0368   0.0218   0.0290  -0.0279   0.00    0.0
2019/01/10 01:15:30.000  -2148744.8130   4426641.1076   4044655.7946   6   6   0.0719   0.0362   0.0366   0.0218   0.0288  -0.0276   0.00    0.0
2019/01/10 01:16:00.000  -2148744.8157   4426641.1082   4044655.7943   6   6   0.0717   0.0361   0.0365   0.0217   0.0287  -0.0275   0.00    0.0
2019/01/10 01:16:30.000  -2148744.8203   4426641.1072   4044655.7938   6   6   0.0716   0.0361   0.0364   0.0216   0.0287  -0.0275   0.00    0.0
2019/01/10 01:17:00.000  -2148744.8260   4426641.1060   4044655.7940   6   6   0.0714   0.0360   0.0364   0.0216   0.0286  -0.0274   0.00    0.0
2019/01/10 01:17:30.000  -2148744.8286   4426641.1053   4044655.7939   6   6   0.0713   0.0360   0.0364   0.0215   0.0286  -0.0274   0.00    0.0
2019/01/10 01:18:00.000  -2148744.8306   4426641.1047   4044655.7938   6   6   0.0712   0.0359   0.0364   0.0214   0.0286  -0.0274   0.00    0.0
2019/01/10 01:18:30.000  -2148744.8351   4426641.1040   4044655.7940   6   6   0.0711   0.0359   0.0363   0.0214   0.0286  -0.0273   0.00    0.0
2019/01/10 01:19:00.000  -2148744.8408   4426641.1004   4044655.7923   6   6   0.0708   0.0357   0.0362   0.0213   0.0285  -0.0272   0.00    0.0
2019/01/10 01:19:30.000  -2148744.8453   4426641.0949   4044655.7861   6   6   0.0704   0.0353   0.0360   0.0212   0.0283  -0.0269   0.00    0.0
2019/01/10 01:20:00.000  -2148744.8368   4426641.0973   4044655.7812   6   6   0.0689   0.0341   0.0351   0.0211   0.0277  -0.0257   0.00    0.0
2019/01/10 01:20:30.000  -2148744.8369   4426641.0967   4044655.7802   6   6   0.0686   0.0338   0.0349   0.0210   0.0276  -0.0254   0.00    0.0
2019/01/10 01:21:00.000  -2148744.8371   4426641.0963   4044655.7801   6   6   0.0684   0.0337   0.0349   0.0210   0.0275  -0.0253   0.00    0.0
2019/01/10 01:21:30.000  -2148744.8373   4426641.0956   4044655.7797   6   6   0.0682   0.0337   0.0348   0.0209   0.0275  -0.0253   0.00    0.0
2019/01/10 01:22:00.000  -2148744.8445   4426641.0934   4044655.7794   6   6   0.0681   0.0336   0.0348   0.0209   0.0275  -0.0253   0.00    0.0
2019/01/10 01:22:30.000  -2148744.8483   4426641.0922   4044655.7792   6   6   0.0680   0.0336   0.0348   0.0208   0.0275  -0.0252   0.00    0.0
2019/01/10 01:23:00.000  -2148744.8543   4426641.0905   4044655.7789   6   6   0.0679   0.0336   0.0348   0.0207   0.0274  -0.0252   0.00    0.0
2019/01/10 01:23:30.000  -2148744.8569   4426641.0897   4044655.7786   6   6   0.0678   0.0335   0.0347   0.0207   0.0274  -0.0252   0.00    0.0
2019/01/10 01:24:00.000  -2148744.8575   4426641.0891   4044655.7783   6   6   0.0676   0.0334   0.0347   0.0206   0.0274  -0.0251   0.00    0.0
2019/01/10 01:24:30.000  -2148744.8514   4426641.0878   4044655.7761   6   6   0.0671   0.0331   0.0344   0.0204   0.0272  -0.0248   0.00    0.0
2019/01/10 01:25:00.000  -2148744.8391   4426641.0930   4044655.7750   6   6   0.0657   0.0320   0.0338   0.0200   0.0267  -0.0238   0.00    0.0
2019/01/10 01:25:30.000  -2148744.8425   4426641.0924   4044655.7790   6   6   0.0653   0.0318   0.0336   0.0199   0.0266  -0.0236   0.00    0.0
2019/01/10 01:26:00.000  -2148744.8462   4426641.0929   4044655.7811   6   6   0.0652   0.0317   0.0336   0.0198   0.0266  -0.0235   0.00    0.0
2019/01/10 01:26:30.000  -2148744.8519   4426641.0925   4044655.7822   6   6   0.0650   0.0316   0.0335   0.0198   0.0266  -0.0235   0.00    0.0
2019/01/10 01:27:00.000  -2148744.8556   4426641.0921   4044655.7826   6   6   0.0649   0.0316   0.0335   0.0197   0.0265  -0.0235   0.00    0.0
2019/01/10 01:27:30.000  -2148744.8605   4426641.0910   4044655.7826   6   6   0.0648   0.0316   0.0335   0.0197   0.0265  -0.0234   0.00    0.0
2019/01/10 01:28:00.000  -2148744.8644   4426641.0900   4044655.7824   6   6   0.0647   0.0316   0.0335   0.0196   0.0265  -0.0234   0.00    0.0
2019/01/10 01:28:30.000  -2148744.8678   4426641.0891   4044655.7819   6   6   0.0646   0.0315   0.0335   0.0195   0.0265  -0.0234   0.00    0.0
2019/01/10 01:29:00.000  -2148744.8695   4426641.0882   4044655.7825   6   6   0.0644   0.0314   0.0334   0.0194   0.0265  -0.0233   0.00    0.0
2019/01/10 01:29:30.000  -2148744.8660   4426641.0909   4044655.7861   6   6   0.0640   0.0311   0.0332   0.0192   0.0263  -0.0231   0.00    0.0
2019/01/10 01:30:00.000  -2148744.8557   4426641.0963   4044655.7841   6   6   0.0626   0.0302   0.0327   0.0186   0.0260  -0.0223   0.00    0.0
2019/01/10 01:30:30.000  -2148744.8517   4426641.1016   4044655.7851   6   6   0.0622   0.0300   0.0326   0.0184   0.0259  -0.0222   0.00    0.0
2019/01/10 01:31:00.000  -2148744.8524   4426641.1032   4044655.7857   6   6   0.0621   0.0299   0.0325   0.0183   0.0258  -0.0221   0.00    0.0
2019/01/10 01:31:30.000  -2148744.8513   4426641.1043   4044655.7857   6   6   0.0620   0.0299   0.0325   0.0182   0.0258  -0.0221   0.00    0.0
2019/01/10 01:32:00.000  -2148744.8539   4426641.1045   4044655.7858   6   6   0.0619   0.0299   0.0325   0.0182   0.0258  -0.0221   0.00    0.0
2019/01/10 01:32:30.000  -2148744.8566   4426641.1043   4044655.7857   6   6   0.0618   0.0298   0.0325   0.0181   0.0258  -0.0221   0.00    0.0
2019/01/10 01:33:00.000  -2148744.8592   4426641.1042   4044655.7859   6   6   0.0617   0.0298   0.0325   0.0181   0.0258  -0.0220   0.00    0.0
2019/01/10 01:33:30.000  -2148744.8618   4426641.1044   4044655.7860   6   6   0.0616   0.0298   0.0324   0.0180   0.0258  -0.0220   0.00    0.0
2019/01/10 01:34:00.000  -2148744.8639   4426641.1044   4044655.7860   6   6   0.0614   0.0297   0.0324   0.0179   0.0257  -0.0220   0.00    0.0
2019/01/10 01:34:30.000  -2148744.8634   4426641.1039   4044655.7859   6   6   0.0609   0.0294   0.0322   0.0176   0.0256  -0.0218   0.00    0.0
2019/01/10 01:35:00.000  -2148744.8536   4426641.1065   4044655.7840   6   6   0.0596   0.0286   0.0318   0.0167   0.0252  -0.0213   0.00    0.0
2019/01/10 01:35:30.000  -2148744.8578   4426641.1062   4044655.7836   6   6   0.0592   0.0284   0.0317   0.0165   0.0251  -0.0212   0.00    0.0
2019/01/10 01:36:00.000  -2148744.8624   4426641.1056   4044655.7832   6   6   0.0591   0.0283   0.0316   0.0164   0.0251  -0.0212   0.00    0.0
2019/01/10 01:36:30.000  -2148744.8655   4426641.1058   4044655.7835   6   6   0.0590   0.0283   0.0316   0.0163   0.0251  -0.0211   0.00    0.0
2019/01/10 01:37:00.000  -2148744.8685   4426641.1062   4044655.7842   6   6   0.0589   0.0283   0.0316   0.0163   0.0251  -0.0211   0.00    0.0
2019/01/10 01:37:30.000  -2148744.8702   4426641.1062   4044655.7844   6   6   0.0588   0.0282   0.0316   0.0162   0.0251  -0.0211   0.00    0.0
2019/01/10 01:38:00.000  -2148744.8731   4426641.1059   4044655.7844   6   6   0.0587   0.0282   0.0316   0.0162   0.0251  -0.0211   0.00    0.0
2019/01/10 01:38:30.000  -2148744.8739   4426641.1066   4044655.7842   6   6   0.0586   0.0282   0.0315   0.0161   0.0250  -0.0211   0.00    0.0
2019/01/10 01:39:00.000  -2148744.8744   4426641.1078   4044655.7843   6   6   0.0584   0.0281   0.0315   0.0160   0.0250  -0.0211   0.00    0.0
2019/01/10 01:39:30.000  -2148744.8710   4426641.1090   4044655.7853   6   6   0.0580   0.0278   0.0313   0.0156   0.0249  -0.0210   0.00    0.0
2019/01/10 01:40:00.000  -2148744.8545   4426641.1139   4044655.7872   6   6   0.0566   0.0271   0.0309   0.0146   0.0245  -0.0207   0.00    0.0
2019/01/10 01:40:30.000  -2148744.8561   4426641.1103   4044655.7834   6   6   0.0563   0.0269   0.0308   0.0143   0.0244  -0.0206   0.00    0.0
2019/01/10 01:41:00.000  -2148744.8584   4426641.1094   4044655.7825   6   6   0.0561   0.0268   0.0307   0.0142   0.0243  -0.0206   0.00    0.0
2019/01/10 01:41:30.000  -2148744.8609   4426641.1092   4044655.7823   6   6   0.0560   0.0268   0.0307   0.0141   0.0243  -0.0206   0.00    0.0
2019/01/10 01:42:00.000  -2148744.8625   4426641.1092   4044655.7824   6   6   0.0559   0.0267   0.0307   0.0140   0.0243  -0.0206   0.00    0.0
2019/01/10 01:42:30.000  -2148744.8653   4426641.1091   4044655.7825   6   6   0.0559   0.0267   0.0307   0.0140   0.0243  -0.0206   0.00    0.0
2019/01/10 01:43:00.000  -2148744.8685   4426641.1090   4044655.7826   6   6   0.0558   0.0267   0.0306   0.0139   0.0243  -0.0205   0.00    0.0
2019/01/10 01:43:30.000  -2148744.8692   4426641.1095   4044655.7828   6   6   0.0557   0.0267   0.0306   0.0139   0.0243  -0.0205   0.00    0.0
2019/01/10 01:44:00.000  -2148744.8698   4426641.1094   4044655.7826   6   6   0.0555   0.0266   0.0306   0.0137   0.0242  -0.0205   0.00    0.0
2019/01/10 01:44:30.000  -2148744.8615   4426641.1138   4044655.7849   6   6   0.0551   0.0263   0.0304   0.0133   0.0241  -0.0205   0.00    0.0
2019/01/10 01:45:00.000  -2148744.8472   4426641.1182   4044655.7879   6   6   0.0538   0.0256   0.0299   0.0120   0.0236  -0.0203   0.00    0.0
2019/01/10 01:45:30.000  -2148744.8472   4426641.1208   4044655.7922   6   6   0.0534   0.0254   0.0298   0.0117   0.0235  -0.0203   0.00    0.0
2019/01/10 01:46:00.000  -2148744.8455   4426641.1232   4044655.7959   6   6   0.0533   0.0253   0.0297   0.0116   0.0235  -0.0203   0.00    0.0
2019/01/10 01:46:30.000  -2148744.8461   4426641.1243   4044655.7977   6   6   0.0532   0.0253   0.0297   0.0115   0.0234  -0.0203   0.00    0.0
2019/01/10 01:47:00.000  -2148744.8478   4426641.1247   4044655.7987   6   6   0.0531   0.0253   0.0297   0.0115   0.0234  -0.0203   0.00    0.0
2019/01/10 01:47:30.000  -2148744.8493   4426641.1248   4044655.7991   6   6   0.0531   0.0252   0.0297   0.0114   0.0234  -0.0203   0.00    0.0
2019/01/10 01:48:00.000  -2148744.8518   4426641.1252   4044655.7998   6   6   0.0530   0.0252   0.0296   0.0114   0.0234  -0.0203   0.00    0.0
2019/01/10 01:48:30.000  -2148744.8520   4426641.1260   4044655.8007   6   6   0.0529   0.0252   0.0296   0.0113   0.0234  -0.0202   0.00    0.0
2019/01/10 01:49:00.000  -2148744.8519   4426641.1270   4044655.8020   6   6   0.0527   0.0251   0.0295   0.0111   0.0233  -0.0202   0.00    0.0
2019/01/10 01:49:30.000  -2148744.8523   4426641.1265   4044655.8025   6   6   0.0523   0.0248   0.0294   0.0107   0.0231  -0.0202   0.00    0.0
2019/01/10 01:50:00.000  -2148744.8363   4426641.1334   4044655.8076   6   6   0.0510   0.0241   0.0288   0.0092   0.0226  -0.0201   0.00    0.0
2019/01/10 01:50:30.000  -2148744.8344   4426641.1361   4044655.8116   6   6   0.0507   0.0239   0.0286   0.0089   0.0225  -0.0201   0.00    0.0
2019/01/10 01:51:00.000  -2148744.8348   4426641.1377   4044655.8135   6   6   0.0506   0.0239   0.0286   0.0087   0.0224  -0.0200   0.00    0.0
2019/01/10 01:51:30.000  -2148744.8360   4426641.1389   4044655.8150   6   6   0.0505   0.0238   0.0285   0.0087   0.0224  -0.0200   0.00    0.0
2019/01/10 01:52:00.000  -2148744.8370   4426641.1394   4044655.8157   6   6   0.0504   0.0238   0.0285   0.0086   0.0224  -0.0200   0.00    0.0
2019/01/10 01:52:30.000  -2148744.8387   4426641.1395   4044655.8160   6   6   0.0504   0.0238   0.0285   0.0086   0.0224  -0.0200   0.00    0.0
2019/01/10 01:53:00.000  -2148744.8400   4426641.1400   4044655.8168   6   6   0.0503   0.0237   0.0285   0.0085   0.0223  -0.0200   0.00    0.0
2019/01/10 01:53:30.000  -2148744.8418   4426641.1411   4044655.8184   6   5   0.0502   0.0237   0.0284   0.0084   0.0223  -0.0200   0.00    0.0
2019/01/10 01:54:00.000  -2148744.8431   4426641.1427   4044655.8214   6   5   0.0501   0.0237   0.0284   0.0083   0.0223  -0.0200   0.00    0.0
2019/01/10 01:54:30.000  -2148744.8420   4426641.1461   4044655.8268   6   5   0.0497   0.0235   0.0282   0.0078   0.0222  -0.0200   0.00    0.0
2019/01/10 01:55:00.000  -2148744.8264   4426641.1509   4044655.8298   6   5   0.0484   0.0230   0.0278   0.0058   0.0218  -0.0199   0.00    0.0
2019/01/10 01:55:30.000  -2148744.8205   4426641.1513   4044655.8295   6   6   0.0481   0.0228   0.0276   0.0053   0.0217  -0.0199   0.00    0.0
2019/01/10 01:56:00.000  -2148744.8215   4426641.1512   4044655.8295   6   6   0.0480   0.0228   0.0276   0.0051   0.0217  -0.0199   0.00    0.0
2019/01/10 01:56:30.000  -2148744.8223   4426641.1512   4044655.8297   6   6   0.0479   0.0228   0.0276   0.0050   0.0217  -0.0199   0.00    0.0
2019/01/10 01:57:00.000  -2148744.8228   4426641.1511   4044655.8298   6   6   0.0478   0.0227   0.0276   0.0049   0.0216  -0.0199   0.00    0.0
2019/01/10 01:57:30.000  -2148744.8237   4426641.1511   4044655.8301   6   6   0.0478   0.0227   0.0275   0.0048   0.0216  -0.0198   0.00    0.0
2019/01/10 01:58:00.000  -2148744.8248   4426641.1509   4044655.8302   6   6   0.0477   0.0227   0.0275   0.0047   0.0216  -0.0198   0.00    0.0
2019/01/10 01:58:30.000  -2148744.8246   4426641.1510   4044655.8306   6   6   0.0477   0.0227   0.0275   0.0046   0.0216  -0.0198   0.00    0.0
2019/01/10 01:59:00.000  -2148744.8221   4426641.1518   4044655.8322   6   6   0.0475   0.0226   0.0275   0.0043   0.0216  -0.0198   0.00    0.0
2019/01/10 01:59:30.000  -2148744.8174   4426641.1544   4044655.8372   6   6   0.0471   0.0225   0.0273   0.0035   0.0215  -0.0198   0.00    0.0
2019/01/10 02:00:00.000  -2148744.7998   4426641.1578   4044655.8382   6   6   0.0459   0.0220   0.0268  -0.0035   0.0211  -0.0198   0.00    0.0
2019/01/10 02:00:30.000  -2148744.7998   4426641.1569   4044655.8371   6   6   0.0456   0.0219   0.0267  -0.0041   0.0210  -0.0197   0.00    0.0
2019/01/10 02:01:00.000  -2148744.8008   4426641.1569   4044655.8376   6   6   0.0455   0.0219   0.0266  -0.0043   0.0210  -0.0197   0.00    0.0
2019/01/10 02:01:30.000  -2148744.8025   4426641.1565   4044655.8374   6   6   0.0454   0.0218   0.0266  -0.0044   0.0210  -0.0197   0.00    0.0
2019/01/10 02:02:00.000  -2148744.8042   4426641.1563   4044655.8375   6   6   0.0453   0.0218   0.0266  -0.0045   0.0210  -0.0197   0.00    0.0
2019/01/10 02:02:30.000  -2148744.8058   4426641.1560   4044655.8374   6   6   0.0453   0.0218   0.0266  -0.0046   0.0209  -0.0197   0.00    0.0
2019/01/10 02:03:00.000  -2148744.8066   4426641.1557   4044655.8373   6   6   0.0452   0.0218   0.0266  -0.0046   0.0209  -0.0197   0.00    0.0
2019/01/10 02:03:30.000  -2148744.8088   4426641.1556   4044655.8376   6   6   0.0452   0.0218   0.0265  -0.0048   0.0209  -0.0197   0.00    0.0
2019/01/10 02:04:00.000  -2148744.8075   4426641.1561   4044655.8381   6   6   0.0450   0.0217   0.0265  -0.0049   0.0209  -0.0197   0.00    0.0
2019/01/10 02:04:30.000  -2148744.8016   4426641.1571   4044655.8385   6   6   0.0447   0.0216   0.0263  -0.0055   0.0208  -0.0196   0.00    0.0
2019/01/10 02:05:00.000  -2148744.7838   4426641.1610   4044655.8406   6   6   0.0435   0.0212   0.0258  -0.0070   0.0204  -0.0195   0.00    0.0
2019/01/10 02:05:30.000  -2148744.7845   4426641.1606   4044655.8405   6   6   0.0432   0.0211   0.0257  -0.0073   0.0203  -0.0195   0.00    0.0
2019/01/10 02:06:00.000  -2148744.7842   4426641.1613   4044655.8415   6   6   0.0431   0.0210   0.0257  -0.0074   0.0203  -0.0195   0.00    0.0
2019/01/10 02:06:30.000  -2148744.7836   4426641.1617   4044655.8420   6   6   0.0430   0.0210   0.0256  -0.0075   0.0203  -0.0195   0.00    0.0
2019/01/10 02:07:00.000  -2148744.7849   4426641.1620   4044655.8427   6   6   0.0429   0.0210   0.0256  -0.0075   0.0203  -0.0195   0.00    0.0
2019/01/10 02:07:30.000  -2148744.7856   4426641.1622   4044655.8432   6   6   0.0429   0.0210   0.0256  -0.0075   0.0203  -0.0195   0.00    0.0
2019/01/10 02:08:00.000  -2148744.7874   4426641.1624   4044655.8440   6   6   0.0429   0.0210   0.0256  -0.0075   0.0203  -0.0194   0.00    0.0
2019/01/10 02:08:30.000  -2148744.7889   4426641.1624   4044655.8444   6   6   0.0428   0.0210   0.0256  -0.0076   0.0202  -0.0194   0.00    0.0
2019/01/10 02:09:00.000  -2148744.7909   4426641.1624   4044655.8449   6   6   0.0426   0.0209   0.0255  -0.0077   0.0202  -0.0194   0.00    0.0
2019/01/10 02:09:30.000  -2148744.7830   4426641.1656   4044655.8471   6   6   0.0423   0.0208   0.0253  -0.0080   0.0201  -0.0194   0.00    0.0
2019/01/10 02:10:00.000  -2148744.7685   4426641.1698   4044655.8503   6   6   0.0412   0.0204   0.0248  -0.0089   0.0197  -0.0192   0.00    0.0
2019/01/10 02:10:30.000  -2148744.7649   4426641.1713   4044655.8517   6   6   0.0409   0.0203   0.0247  -0.0090   0.0197  -0.0192   0.00    0.0
2019/01/10 02:11:00.000  -2148744.7664   4426641.1709   4044655.8514   6   6   0.0408   0.0203   0.0246  -0.0091   0.0196  -0.0192   0.00    0.0
2019/01/10 02:11:30.000  -2148744.7669   4426641.1710   4044655.8516   6   6   0.0407   0.0203   0.0246  -0.0091   0.0196  -0.0191   0.00    0.0
2019/01/10 02:12:00.000  -2148744.7677   4426641.1708   4044655.8518   6   6   0.0407   0.0203   0.0246  -0.0091   0.0196  -0.0191   0.00    0.0
2019/01/10 02:12:30.000  -2148744.7691   4426641.1709   4044655.8521   6   6   0.0406   0.0203   0.0246  -0.0092   0.0196  -0.0191   0.00    0.0
2019/01/10 02:13:00.000  -2148744.7699   4426641.1711   4044655.8527   6   6   0.0406   0.0203   0.0246  -0.0092   0.0196  -0.0191   0.00    0.0
2019/01/10 02:13:30.000  -2148744.7712   4426641.1714   4044655.8534   6   6   0.0405   0.0202   0.0246  -0.0092   0.0196  -0.0191   0.00    0.0
2019/01/10 02:14:00.000  -2148744.7707   4426641.1722   4044655.8542   6   6   0.0404   0.0202   0.0245  -0.0093   0.0195  -0.0191   0.00    0.0
2019/01/10 02:14:30.000  -2148744.7687   4426641.1720   4044655.8529   6   6   0.0401   0.0201   0.0243  -0.0094   0.0194  -0.0190   0.00    0.0
2019/01/10 02:15:00.000  -2148744.7522   4426641.1747   4044655.8544   6   6   0.0390   0.0198   0.0238  -0.0100   0.0191  -0.0188   0.00    0.0
2019/01/10 02:15:30.000  -2148744.7502   4426641.1739   4044655.8531   6   6   0.0387   0.0197   0.0237  -0.0101   0.0190  -0.0187   0.00    0.0
2019/01/10 02:16:00.000  -2148744.7513   4426641.1734   4044655.8529   6   6   0.0386   0.0197   0.0237  -0.0101   0.0190  -0.0187   0.00    0.0
2019/01/10 02:16:30.000  -2148744.7512   4426641.1733   4044655.8531   6   6   0.0386   0.0197   0.0236  -0.0101   0.0190  -0.0187   0.00    0.0
2019/01/10 02:17:00.000  -2148744.7505   4426641.1734   4044655.8532   6   6   0.0385   0.0197   0.0236  -0.0102   0.0190  -0.0187   0.00    0.0
2019/01/10 02:17:30.000  -2148744.7511   4426641.1733   4044655.8532   6   6   0.0385   0.0197   0.0236  -0.0102   0.0190  -0.0187   0.00    0.0
2019/01/10 02:18:00.000  -2148744.7512   4426641.1732   4044655.8531   6   6   0.0385   0.0196   0.0236  -0.0102   0.0189  -0.0187   0.00    0.0
2019/01/10 02:18:30.000  -2148744.7514   4426641.1734   4044655.8536   6   6   0.0384   0.0196   0.0236  -0.0102   0.0189  -0.0187   0.00    0.0
2019/01/10 02:19:00.000  -2148744.7500   4426641.1751   4044655.8558   6   6   0.0383   0.0196   0.0235  -0.0102   0.0189  -0.0186   0.00    0.0
2019/01/10 02:19:30.000  -2148744.7448   4426641.1777   4044655.8591   6   6   0.0380   0.0195   0.0234  -0.0103   0.0188  -0.0186   0.00    0.0
2019/01/10 02:20:00.000  -2148744.7295   4426641.1795   4044655.8605   6   6   0.0369   0.0192   0.0228  -0.0107   0.0185  -0.0183   0.00    0.0
2019/01/10 02:20:30.000  -2148744.7258   4426641.1803   4044655.8613   6   6   0.0367   0.0191   0.0227  -0.0108   0.0184  -0.0183   0.00    0.0
2019/01/10 02:21:00.000  -2148744.7244   4426641.1802   4044655.8609   6   6   0.0366   0.0191   0.0227  -0.0108   0.0183  -0.0182   0.00    0.0
2019/01/10 02:21:30.000  -2148744.7238   4426641.1798   4044655.8604   6   6   0.0365   0.0191   0.0226  -0.0108   0.0183  -0.0182   0.00    0.0
2019/01/10 02:22:00.000  -2148744.7242   4426641.1795   4044655.8601   6   6   0.0365   0.0191   0.0226  -0.0108   0.0183  -0.0182   0.00    0.0
2019/01/10 02:22:30.000  -2148744.7248   4426641.1793   4044655.8599   6   6   0.0365   0.0191   0.0226  -0.0108   0.0183  -0.0182   0.00    0.0
2019/01/10 02:23:00.000  -2148744.7255   4426641.1789   4044655.8597   6   6   0.0364   0.0191   0.0226  -0.0108   0.0183  -0.0182   0.00    0.0
2019/01/10 02:23:30.000  -2148744.7255   4426641.1787   4044655.8597   6   6   0.0364   0.0191   0.0226  -0.0108   0.0183  -0.0182   0.00    0.0
2019/01/10 02:24:00.000  -2148744.7252   4426641.1788   4044655.8604   6   6   0.0363   0.0190   0.0225  -0.0108   0.0183  -0.0181   0.00    0.0
2019/01/10 02:24:30.000  -2148744.7199   4426641.1791   4044655.8617   6   6   0.0360   0.0189   0.0224  -0.0109   0.0182  -0.0181   0.00    0.0
2019/01/10 02:25:00.000  -2148744.7047   4426641.1805   4044655.8624   6   6   0.0350   0.0187   0.0219  -0.0111   0.0178  -0.0178   0.00    0.0
2019/01/10 02:25:30.000  -2148744.7029   4426641.1798   4044655.8618   6   6   0.0348   0.0186   0.0218  -0.0111   0.0178  -0.0177   0.00    0.0
2019/01/10 02:26:00.000  -2148744.7023   4426641.1798   4044655.8624   6   6   0.0347   0.0186   0.0217  -0.0111   0.0177  -0.0177   0.00    0.0
2019/01/10 02:26:30.000  -2148744.7019   4426641.1797   4044655.8626   6   6   0.0346   0.0186   0.0217  -0.0111   0.0177  -0.0177   0.00    0.0
2019/01/10 02:27:00.000  -2148744.7031   4426641.1797   4044655.8628   6   6   0.0346   0.0186   0.0217  -0.0112   0.0177  -0.0177   0.00    0.0
2019/01/10 02:27:30.000  -2148744.7030   4426641.1796   4044655.8627   6   6   0.0346   0.0186   0.0217  -0.0112   0.0177  -0.0176   0.00    0.0
2019/01/10 02:28:00.000  -2148744.7037   4426641.1795   4044655.8625   6   6   0.0346   0.0186   0.0217  -0.0112   0.0177  -0.0176   0.00    0.0
2019/01/10 02:28:30.000  -2148744.7037   4426641.1792   4044655.8621   6   6   0.0345   0.0185   0.0216  -0.0112   0.0177  -0.0176   0.00    0.0
2019/01/10 02:29:00.000  -2148744.7020   4426641.1787   4044655.8610   6   6   0.0344   0.0185   0.0216  -0.0112   0.0177  -0.0176   0.00    0.0
2019/01/10 02:29:30.000  -2148744.6997   4426641.1771   4044655.8589   6   6   0.0341   0.0184   0.0214  -0.0112   0.0176  -0.0175   0.00    0.0
2019/01/10 02:30:00.000  -2148744.6875   4426641.1791   4044655.8602   6   6   0.0332   0.0182   0.0209  -0.0112   0.0172  -0.0172   0.00    0.0
2019/01/10 02:30:30.000  -2148744.6833   4426641.1801   4044655.8606   6   6   0.0329   0.0181   0.0208  -0.0113   0.0172  -0.0171   0.00    0.0
2019/01/10 02:31:00.000  -2148744.6834   4426641.1798   4044655.8600   6   6   0.0329   0.0181   0.0208  -0.0113   0.0171  -0.0170   0.00    0.0
2019/01/10 02:31:30.000  -2148744.6826   4426641.1801   4044655.8602   6   6   0.0328   0.0181   0.0207  -0.0113   0.0171  -0.0170   0.00    0.0
2019/01/10 02:32:00.000  -2148744.6825   4426641.1801   4044655.8603   6   6   0.0328   0.0181   0.0207  -0.0113   0.0171  -0.0170   0.00    0.0
2019/01/10 02:32:30.000  -2148744.6825   4426641.1802   4044655.8605   6   6   0.0328   0.0181   0.0207  -0.0113   0.0171  -0.0170   0.00    0.0
2019/01/10 02:33:00.000  -2148744.6824   4426641.1805   4044655.8609   6   6   0.0327   0.0180   0.0207  -0.0113   0.0171  -0.0170   0.00    0.0
2019/01/10 02:33:30.000  -2148744.6821   4426641.1809   4044655.8616   6   6   0.0327   0.0180   0.0207  -0.0113   0.0171  -0.0170   0.00    0.0
2019/01/10 02:34:00.000  -2148744.6816   4426641.1815   4044655.8628   6   6   0.0326   0.0180   0.0206  -0.0113   0.0170  -0.0169   0.00    0.0
2019/01/10 02:34:30.000  -2148744.6804   4426641.1819   4044655.8630   6   6   0.0323   0.0179   0.0205  -0.0112   0.0169  -0.0168   0.00    0.0
2019/01/10 02:35:00.000  -2148744.6707   4426641.1829   4044655.8641   6   6   0.0314   0.0177   0.0200  -0.0112   0.0166  -0.0165   0.00    0.0
2019/01/10 02:35:30.000  -2148744.6689   4426641.1832   4044655.8651   6   6   0.0312   0.0176   0.0199  -0.0112   0.0165  -0.0164   0.00    0.0
2019/01/10 02:36:00.000  -2148744.6695   4426641.1830   4044655.8654   6   6   0.0311   0.0176   0.0198  -0.0112   0.0165  -0.0164   0.00    0.0
2019/01/10 02:36:30.000  -2148744.6700   4426641.1828   4044655.8653   6   6   0.0311   0.0176   0.0198  -0.0112   0.0165  -0.0163   0.00    0.0
2019/01/10 02:37:00.000  -2148744.6711   4426641.1825   4044655.8651   6   6   0.0311   0.0176   0.0198  -0.0112   0.0165  -0.0163   0.00    0.0
2019/01/10 02:37:30.000  -2148744.6717   4426641.1822   4044655.8649   6   6   0.0310   0.0176   0.0198  -0.0112   0.0165  -0.0163   0.00    0.0
2019/01/10 02:38:00.000  -2148744.6723   4426641.1818   4044655.8645   6   6   0.0310   0.0175   0.0198  -0.0111   0.0164  -0.0163   0.00    0.0
2019/01/10 02:38:30.000  -2148744.6722   4426641.1811   4044655.8635   6   6   0.0310   0.0175   0.0197  -0.0111   0.0164  -0.0163   0.00    0.0
2019/01/10 02:39:00.000  -2148744.6712   4426641.1800   4044655.8624   6   6   0.0309   0.0175   0.0197  -0.0111   0.0164  -0.0162   0.00    0.0
2019/01/10 02:39:30.000  -2148744.6686   4426641.1781   4044655.8589   6   6   0.0306   0.0174   0.0195  -0.0111   0.0163  -0.0161   0.00    0.0
2019/01/10 02:40:00.000  -2148744.6576   4426641.1793   4044655.8597   6   6   0.0297   0.0172   0.0190  -0.0109   0.0159  -0.0157   0.00    0.0
2019/01/10 02:40:30.000  -2148744.6580   4426641.1797   4044655.8601   6   6   0.0295   0.0171   0.0189  -0.0109   0.0158  -0.0156   0.00    0.0
2019/01/10 02:41:00.000  -2148744.6605   4426641.1804   4044655.8616   6   6   0.0294   0.0171   0.0189  -0.0109   0.0158  -0.0156   0.00    0.0
2019/01/10 02:41:30.000  -2148744.6619   4426641.1807   4044655.8624   6   6   0.0294   0.0170   0.0188  -0.0108   0.0158  -0.0156   0.00    0.0
2019/01/10 02:42:00.000  -2148744.6627   4426641.1809   4044655.8628   6   6   0.0294   0.0170   0.0188  -0.0108   0.0158  -0.0155   0.00    0.0
2019/01/10 02:42:30.000  -2148744.6636   4426641.1809   4044655.8630   6   6   0.0294   0.0170   0.0188  -0.0108   0.0158  -0.0155   0.00    0.0
2019/01/10 02:43:00.000  -2148744.6646   4426641.1810   4044655.8634   6   6   0.0293   0.0170   0.0188  -0.0108   0.0158  -0.0155   0.00    0.0
2019/01/10 02:43:30.000  -2148744.6657   4426641.1810   4044655.8638   6   6   0.0293   0.0170   0.0188  -0.0108   0.0158  -0.0155   0.00    0.0
2019/01/10 02:44:00.000  -2148744.6669   4426641.1811   4044655.8640   6   6   0.0292   0.0170   0.0188  -0.0108   0.0157  -0.0155   0.00    0.0
2019/01/10 02:44:30.000  -2148744.6672   4426641.1819   4044655.8652   6   6   0.0290   0.0169   0.0186  -0.0108   0.0157  -0.0154   0.00    0.0
2019/01/10 02:45:00.000  -2148744.6567   4426641.1831   4044655.8664   6   5   0.0282   0.0167   0.0183  -0.0106   0.0154  -0.0150   0.00    0.0
2019/01/10 02:45:30.000  -2148744.6524   4426641.1823   4044655.8660   6   5   0.0280   0.0167   0.0182  -0.0106   0.0153  -0.0150   0.00    0.0
2019/01/10 02:46:00.000  -2148744.6513   4426641.1819   4044655.8656   6   5   0.0279   0.0167   0.0182  -0.0106   0.0153  -0.0149   0.00    0.0
2019/01/10 02:46:30.000  -2148744.6510   4426641.1819   4044655.8657   6   5   0.0279   0.0167   0.0181  -0.0106   0.0153  -0.0149   0.00    0.0
2019/01/10 02:47:00.000  -2148744.6513   4426641.1818   4044655.8657   6   5   0.0279   0.0167   0.0181  -0.0106   0.0153  -0.0149   0.00    0.0
2019/01/10 02:47:30.000  -2148744.6514   4426641.1817   4044655.8658   6   5   0.0279   0.0167   0.0181  -0.0106   0.0153  -0.0149   0.00    0.0
2019/01/10 02:48:00.000  -2148744.6516   4426641.1816   4044655.8658   6   5   0.0278   0.0167   0.0181  -0.0106   0.0153  -0.0149   0.00    0.0
2019/01/10 02:48:30.000  -2148744.6520   4426641.1814   4044655.8658   6   5   0.0278   0.0166   0.0181  -0.0106   0.0153  -0.0149   0.00    0.0
2019/01/10 02:49:00.000  -2148744.6521   4426641.1814   4044655.8656   6   5   0.0277   0.0166   0.0181  -0.0106   0.0153  -0.0149   0.00    0.0
2019/01/10 02:49:30.000  -2148744.6491   4426641.1821   4044655.8662   6   5   0.0275   0.0166   0.0180  -0.0105   0.0152  -0.0148   0.00    0.0
2019/01/10 02:50:00.000  -2148744.6396   4426641.1822   4044655.8665   6   5   0.0268   0.0164   0.0176  -0.0103   0.0150  -0.0144   0.00    0.0
2019/01/10 02:50:30.000  -2148744.6409   4426641.1823   4044655.8667   6   5   0.0266   0.0163   0.0175  -0.0103   0.0149  -0.0144   0.00    0.0
2019/01/10 02:51:00.000  -2148744.6420   4426641.1823   4044655.8670   6   5   0.0266   0.0163   0.0175  -0.0103   0.0149  -0.0143   0.00    0.0
2019/01/10 02:51:30.000  -2148744.6436   4426641.1824   4044655.8676   6   5   0.0265   0.0163   0.0175  -0.0103   0.0149  -0.0143   0.00    0.0
2019/01/10 02:52:00.000  -2148744.6440   4426641.1825   4044655.8680   6   5   0.0265   0.0163   0.0175  -0.0103   0.0149  -0.0143   0.00    0.0
2019/01/10 02:52:30.000  -2148744.6445   4426641.1825   4044655.8682   6   5   0.0265   0.0163   0.0175  -0.0103   0.0149  -0.0143   0.00    0.0
2019/01/10 02:53:00.000  -2148744.6446   4426641.1825   4044655.8684   6   5   0.0265   0.0163   0.0175  -0.0103   0.0149  -0.0143   0.00    0.0
2019/01/10 02:53:30.000  -2148744.6448   4426641.1827   4044655.8687   6   5   0.0264   0.0163   0.0175  -0.0103   0.0149  -0.0143   0.00    0.0
2019/01/10 02:54:00.000  -2148744.6436   4426641.1831   4044655.8696   6   5   0.0264   0.0163   0.0174  -0.0103   0.0148  -0.0143   0.00    0.0
2019/01/10 02:54:30.000  -2148744.6398   4426641.1846   4044655.8720   6   5   0.0262   0.0162   0.0174  -0.0102   0.0148  -0.0142   0.00    0.0
2019/01/10 02:55:00.000  -2148744.6313   4426641.1846   4044655.8718   6   5   0.0255   0.0161   0.0171  -0.0100   0.0146  -0.0139   0.00    0.0
2019/01/10 02:55:30.000  -2148744.6285   4426641.1838   4044655.8706   6   5   0.0253   0.0160   0.0170  -0.0100   0.0145  -0.0138   0.00    0.0
2019/01/10 02:56:00.000  -2148744.6271   4426641.1834   4044655.8702   6   5   0.0253   0.0160   0.0170  -0.0100   0.0145  -0.0138   0.00    0.0
2019/01/10 02:56:30.000  -2148744.6269   4426641.1833   4044655.8702   6   5   0.0252   0.0160   0.0169  -0.0100   0.0145  -0.0138   0.00    0.0
2019/01/10 02:57:00.000  -2148744.6270   4426641.1832   4044655.8701   6   5   0.0252   0.0160   0.0169  -0.0100   0.0145  -0.0138   0.00    0.0
2019/01/10 02:57:30.000  -2148744.6268   4426641.1831   4044655.8700   6   5   0.0252   0.0160   0.0169  -0.0100   0.0145  -0.0137   0.00    0.0
2019/01/10 02:58:00.000  -2148744.6269   4426641.1830   4044655.8700   6   5   0.0252   0.0160   0.0169  -0.0099   0.0145  -0.0137   0.00    0.0
2019/01/10 02:58:30.000  -2148744.6262   4426641.1830   4044655.8698   6   5   0.0252   0.0160   0.0169  -0.0099   0.0145  -0.0137   0.00    0.0
2019/01/10 02:59:00.000  -2148744.6245   4426641.1834   4044655.8699   6   5   0.0251   0.0160   0.0169  -0.0099   0.0145  -0.0137   0.00    0.0
2019/01/10 02:59:30.000  -2148744.6213   4426641.1842   4044655.8712   6   5   0.0249   0.0159   0.0168  -0.0099   0.0144  -0.0136   0.00    0.0
2019/01/10 03:00:00.000  -2148744.6142   4426641.1844   4044655.8713   6   5   0.0243   0.0158   0.0165  -0.0097   0.0142  -0.0133   0.00    0.0
2019/01/10 03:00:30.000  -2148744.6109   4426641.1844   4044655.8714   6   5   0.0241   0.0158   0.0165  -0.0096   0.0142  -0.0133   0.00    0.0
2019/01/10 03:01:00.000  -2148744.6106   4426641.1843   4044655.8714   6   5   0.0241   0.0157   0.0165  -0.0096   0.0142  -0.0132   0.00    0.0
2019/01/10 03:01:30.000  -2148744.6104   4426641.1842   4044655.8716   6   6   0.0241   0.0157   0.0165  -0.0096   0.0142  -0.0132   0.00    0.0
2019/01/10 03:02:00.000  -2148744.6107   4426641.1841   4044655.8717   6   6   0.0241   0.0157   0.0164  -0.0096   0.0142  -0.0132   0.00    0.0
2019/01/10 03:02:30.000  -2148744.6109   4426641.1841   4044655.8718   6   6   0.0240   0.0157   0.0164  -0.0096   0.0142  -0.0132   0.00    0.0
2019/01/10 03:03:00.000  -2148744.6112   4426641.1840   4044655.8719   6   6   0.0240   0.0157   0.0164  -0.0096   0.0142  -0.0132   0.00    0.0
2019/01/10 03:03:30.000  -2148744.6110   4426641.1839   4044655.8718   6   6   0.0240   0.0157   0.0164  -0.0096   0.0142  -0.0132   0.00    0.0
2019/01/10 03:04:00.000  -2148744.6103   4426641.1839   4044655.8717   6   6   0.0239   0.0157   0.0164  -0.0096   0.0141  -0.0132   0.00    0.0
2019/01/10 03:04:30.000  -2148744.6096   4426641.1839   4044655.8725   6   6   0.0238   0.0157   0.0163  -0.0095   0.0141  -0.0131   0.00    0.0
2019/01/10 03:05:00.000  -2148744.6039   4426641.1841   4044655.8727   6   6   0.0232   0.0155   0.0161  -0.0093   0.0139  -0.0128   0.00    0.0
2019/01/10 03:05:30.000  -2148744.5991   4426641.1837   4044655.8711   6   6   0.0231   0.0155   0.0161  -0.0093   0.0139  -0.0128   0.00    0.0
2019/01/10 03:06:00.000  -2148744.5966   4426641.1832   4044655.8704   6   6   0.0230   0.0155   0.0160  -0.0092   0.0139  -0.0128   0.00    0.0
2019/01/10 03:06:30.000  -2148744.5955   4426641.1829   4044655.8700   6   6   0.0230   0.0155   0.0160  -0.0092   0.0139  -0.0128   0.00    0.0
2019/01/10 03:07:00.000  -2148744.5951   4426641.1828   4044655.8698   6   6   0.0230   0.0155   0.0160  -0.0092   0.0139  -0.0127   0.00    0.0
2019/01/10 03:07:30.000  -2148744.5946   4426641.1827   4044655.8697   6   6   0.0230   0.0155   0.0160  -0.0092   0.0139  -0.0127   0.00    0.0
2019/01/10 03:08:00.000  -2148744.5943   4426641.1826   4044655.8695   6   6   0.0230   0.0155   0.0160  -0.0092   0.0139  -0.0127   0.00    0.0
2019/01/10 03:08:30.000  -2148744.5937   4426641.1824   4044655.8692   6   6   0.0229   0.0155   0.0160  -0.0092   0.0139  -0.0127   0.00    0.0
2019/01/10 03:09:00.000  -2148744.5933   4426641.1820   4044655.8683   6   6   0.0229   0.0155   0.0160  -0.0092   0.0138  -0.0127   0.00    0.0
2019/01/10 03:09:30.000  -2148744.5916   4426641.1821   4044655.8682   6   6   0.0227   0.0154   0.0159  -0.0091   0.0138  -0.0126   0.00    0.0
2019/01/10 03:10:00.000  -2148744.5888   4426641.1826   4044655.8694   6   6   0.0222   0.0153   0.0157  -0.0089   0.0137  -0.0124   0.00    0.0
2019/01/10 03:10:30.000  -2148744.5859   4426641.1833   4044655.8701   6   6   0.0221   0.0153   0.0157  -0.0089   0.0136  -0.0123   0.00    0.0
2019/01/10 03:11:00.000  -2148744.5848   4426641.1838   4044655.8709   6   6   0.0221   0.0153   0.0157  -0.0089   0.0136  -0.0123   0.00    0.0
2019/01/10 03:11:30.000  -2148744.5842   4426641.1840   4044655.8711   6   6   0.0220   0.0153   0.0157  -0.0088   0.0136  -0.0123   0.00    0.0
2019/01/10 03:12:00.000  -2148744.5840   4426641.1841   4044655.8713   6   6   0.0220   0.0153   0.0156  -0.0088   0.0136  -0.0123   0.00    0.0
2019/01/10 03:12:30.000  -2148744.5842   4426641.1841   4044655.8715   6   6   0.0220   0.0153   0.0156  -0.0088   0.0136  -0.0123   0.00    0.0
2019/01/10 03:13:00.000  -2148744.5840   4426641.1842   4044655.8719   6   6   0.0220   0.0153   0.0156  -0.0088   0.0136  -0.0123   0.00    0.0
2019/01/10 03:13:30.000  -2148744.5839   4426641.1843   4044655.8724   6   6   0.0220   0.0152   0.0156  -0.0088   0.0136  -0.0123   0.00    0.0
2019/01/10 03:14:00.000  -2148744.5829   4426641.1842   4044655.8726   6   6   0.0219   0.0152   0.0156  -0.0088   0.0136  -0.0122   0.00    0.0
2019/01/10 03:14:30.000  -2148744.5839   4426641.1843   4044655.8735   6   6   0.0218   0.0152   0.0156  -0.0087   0.0135  -0.0122   0.00    0.0
2019/01/10 03:15:00.000  -2148744.5799   4426641.1839   4044655.8729   6   6   0.0213   0.0151   0.0154  -0.0085   0.0134  -0.0120   0.00    0.0
2019/01/10 03:15:30.000  -2148744.5791   4426641.1844   4044655.8736   6   6   0.0212   0.0151   0.0153  -0.0085   0.0134  -0.0119   0.00    0.0
2019/01/10 03:16:00.000  -2148744.5792   4426641.1842   4044655.8736   6   6   0.0212   0.0151   0.0153  -0.0085   0.0134  -0.0119   0.00    0.0
2019/01/10 03:16:30.000  -2148744.5793   4426641.1841   4044655.8735   6   6   0.0212   0.0150   0.0153  -0.0084   0.0134  -0.0119   0.00    0.0
2019/01/10 03:17:00.000  -2148744.5796   4426641.1840   4044655.8736   6   6   0.0211   0.0150   0.0153  -0.0084   0.0134  -0.0119   0.00    0.0
2019/01/10 03:17:30.000  -2148744.5796   4426641.1840   4044655.8737   6   6   0.0211   0.0150   0.0153  -0.0084   0.0134  -0.0119   0.00    0.0
2019/01/10 03:18:00.000  -2148744.5801   4426641.1839   4044655.8739   6   6   0.0211   0.0150   0.0153  -0.0084   0.0134  -0.0119   0.00    0.0
2019/01/10 03:18:30.000  -2148744.5803   4426641.1838   4044655.8741   6   7   0.0211   0.0150   0.0153  -0.0084   0.0134  -0.0118   0.00    0.0
2019/01/10 03:19:00.000  -2148744.5804   4426641.1835   4044655.8740   6   7   0.0211   0.0150   0.0153  -0.0084   0.0133  -0.0118   0.00    0.0
2019/01/10 03:19:30.000  -2148744.5813   4426641.1833   4044655.8738   6   7   0.0209   0.0150   0.0152  -0.0083   0.0133  -0.0118   0.00    0.0
2019/01/10 03:20:00.000  -2148744.5788   4426641.1830   4044655.8738   6   7   0.0205   0.0149   0.0151  -0.0081   0.0132  -0.0116   0.00    0.0
2019/01/10 03:20:30.000  -2148744.5799   4426641.1832   4044655.8750   6   7   0.0204   0.0149   0.0151  -0.0081   0.0132  -0.0115   0.00    0.0
2019/01/10 03:21:00.000  -2148744.5808   4426641.1833   4044655.8756   6   7   0.0204   0.0149   0.0150  -0.0080   0.0132  -0.0115   0.00    0.0
2019/01/10 03:21:30.000  -2148744.5809   4426641.1833   4044655.8757   6   7   0.0204   0.0148   0.0150  -0.0080   0.0132  -0.0115   0.00    0.0
2019/01/10 03:22:00.000  -2148744.5809   4426641.1833   4044655.8759   6   7   0.0204   0.0148   0.0150  -0.0080   0.0132  -0.0115   0.00    0.0
2019/01/10 03:22:30.000  -2148744.5811   4426641.1833   4044655.8759   6   7   0.0203   0.0148   0.0150  -0.0080   0.0132  -0.0115   0.00    0.0
2019/01/10 03:23:00.000  -2148744.5807   4426641.1833   4044655.8759   6   7   0.0203   0.0148   0.0150  -0.0080   0.0132  -0.0115   0.00    0.0
2019/01/10 03:23:30.000  -2148744.5806   4426641.1832   4044655.8758   6   7   0.0203   0.0148   0.0150  -0.0080   0.0131  -0.0115   0.00    0.0
2019/01/10 03:24:00.000  -2148744.5801   4426641.1832   4044655.8758   6   7   0.0203   0.0148   0.0150  -0.0080   0.0131  -0.0114   0.00    0.0
2019/01/10 03:24:30.000  -2148744.5772   4426641.1835   4044655.8763   6   7   0.0202   0.0148   0.0150  -0.0079   0.0131  -0.0114   0.00    0.0
2019/01/10 03:25:00.000  -2148744.5746   4426641.1834   4044655.8762   6   7   0.0198   0.0147   0.0148  -0.0077   0.0130  -0.0112   0.00    0.0
2019/01/10 03:25:30.000  -2148744.5762   4426641.1837   4044655.8770   6   7   0.0197   0.0147   0.0148  -0.0076   0.0130  -0.0112   0.00    0.0
2019/01/10 03:26:00.000  -2148744.5768   4426641.1839   4044655.8773   6   7   0.0197   0.0147   0.0148  -0.0076   0.0130  -0.0111   0.00    0.0
2019/01/10 03:26:30.000  -2148744.5772   4426641.1839   4044655.8773   6   7   0.0196   0.0147   0.0148  -0.0076   0.0130  -0.0111   0.00    0.0
2019/01/10 03:27:00.000  -2148744.5774   4426641.1839   4044655.8773   6   7   0.0196   0.0147   0.0148  -0.0076   0.0130  -0.0111   0.00    0.0
2019/01/10 03:27:30.000  -2148744.5775   4426641.1839   4044655.8774   6   7   0.0196   0.0146   0.0148  -0.0076   0.0130  -0.0111   0.00    0.0
2019/01/10 03:28:00.000  -2148744.5778   4426641.1840   4044655.8775   6   7   0.0196   0.0146   0.0148  -0.0076   0.0130  -0.0111   0.00    0.0
2019/01/10 03:28:30.000  -2148744.5783   4426641.1841   4044655.8777   6   7   0.0196   0.0146   0.0148  -0.0076   0.0129  -0.0111   0.00    0.0
2019/01/10 03:29:00.000  -2148744.5785   4426641.1843   4044655.8780   6   7   0.0196   0.0146   0.0148  -0.0076   0.0129  -0.0111   0.00    0.0
2019/01/10 03:29:30.000  -2148744.5786   4426641.1842   4044655.8782   6   7   0.0195   0.0146   0.0147  -0.0075   0.0129  -0.0110   0.00    0.0
2019/01/10 03:30:00.000  -2148744.5767   4426641.1840   4044655.8781   6   7   0.0191   0.0145   0.0146  -0.0073   0.0128  -0.0109   0.00    0.0
