% program   : RTKLIB ver.2.4.2
% inp file  : D:\mycode\vscode\rtklib-v2\rtklib-v2\new data\bjfs0100.19n
% inp file  : D:\mycode\vscode\rtklib-v2\rtklib-v2\new data\bjfs0100.19o
% inp file  : D:\mycode\vscode\rtklib-v2\rtklib-v2\new data\igs20354.clk
% inp file  : D:\mycode\vscode\rtklib-v2\rtklib-v2\new data\igs20354.sp3
% inp file  : D:\mycode\vscode\rtklib-v2\rtklib-v2\new data\igsg0100.19i
% inp file  : D:\mycode\vscode\rtklib-v2\rtklib-v2\new data\igs20427.erp
% inp file  : D:\mycode\vscode\rtklib-v2\rtklib-v2\new data\igs14.atx
% obs start : 2019/01/10 00:10:00.0 GPST (week2035 346200.0s)
% obs end   : 2019/01/10 03:30:00.0 GPST (week2035 358200.0s)
% pos mode  : ppp-static
% solution  : forward
% elev mask : 15.0 deg
% dynamics  : off
% tidecorr  : off
% tropo opt : est ztd
% ephemeris : precise
% antenna1  :                       ( 0.0000  0.0000  0.0000)
%
% (x/y/z-ecef=WGS84,Q=1:fix,2:float,3:sbas,4:dgps,5:single,6:ppp,ns=# of satellites)
%  GPST                      x-ecef(m)      y-ecef(m)      z-ecef(m)   Q  ns   sdx(m)   sdy(m)   sdz(m)  sdxy(m)  sdyz(m)  sdzx(m) age(s)  ratio
2019/01/10 00:10:00.000  -2148745.1462   4426642.4486   4044655.4165   6   7   1.6894   2.3900   2.6054  -1.4927   1.9277  -1.1475   0.00    0.0
2019/01/10 00:10:30.000  -2148744.9769   4426641.9914   4044655.7654   6   7   1.1826   1.6592   1.7621  -1.0323   1.3086  -0.7779   0.00    0.0
2019/01/10 00:11:00.000  -2148745.0924   4426642.1735   4044656.5500   6   7   0.9611   1.3446   1.4074  -0.8347   1.0487  -0.6232   0.00    0.0
2019/01/10 00:11:30.000  -2148745.2853   4426642.1635   4044656.5940   6   7   0.8305   1.1611   1.2033  -0.7199   0.8996  -0.5349   0.00    0.0
2019/01/10 00:12:00.000  -2148745.3814   4426642.5344   4044656.9292   6   7   0.7423   1.0381   1.0676  -0.6433   0.8009  -0.4767   0.00    0.0
2019/01/10 00:12:30.000  -2148745.3982   4426642.3995   4044656.7563   6   7   0.6778   0.9486   0.9696  -0.5877   0.7299  -0.4350   0.00    0.0
2019/01/10 00:13:00.000  -2148745.3034   4426642.1204   4044656.5327   6   7   0.6237   0.8707   0.8762  -0.5378   0.6627  -0.3949   0.00    0.0
2019/01/10 00:13:30.000  -2148745.3736   4426642.2814   4044656.6502   6   7   0.5743   0.7958   0.7767  -0.4876   0.5919  -0.3526   0.00    0.0
2019/01/10 00:14:00.000  -2148745.5009   4426642.4453   4044656.7301   6   7   0.5236   0.7145   0.6593  -0.4300   0.5106  -0.3048   0.00    0.0
2019/01/10 00:14:30.000  -2148745.4365   4426642.3136   4044656.6315   6   7   0.4656   0.6158   0.5173  -0.3565   0.4172  -0.2546   0.00    0.0
2019/01/10 00:15:00.000  -2148745.0994   4426641.7574   4044656.1402   6   7   0.4109   0.5156   0.3959  -0.2851   0.3412  -0.2215   0.00    0.0
2019/01/10 00:15:30.000  -2148745.0832   4426641.6947   4044656.1411   6   7   0.3914   0.4914   0.3759  -0.2725   0.3273  -0.2157   0.00    0.0
2019/01/10 00:16:00.000  -2148745.1283   4426641.7577   4044656.1687   6   7   0.3786   0.4783   0.3672  -0.2676   0.3211  -0.2127   0.00    0.0
2019/01/10 00:16:30.000  -2148745.1067   4426641.7829   4044656.1524   6   7   0.3682   0.4685   0.3615  -0.2646   0.3168  -0.2103   0.00    0.0
2019/01/10 00:17:00.000  -2148745.1117   4426641.7778   4044656.1521   6   7   0.3592   0.4601   0.3569  -0.2622   0.3134  -0.2082   0.00    0.0
2019/01/10 00:17:30.000  -2148745.0833   4426641.8308   4044656.1884   6   7   0.3511   0.4528   0.3531  -0.2601   0.3104  -0.2063   0.00    0.0
2019/01/10 00:18:00.000  -2148745.0476   4426641.7999   4044656.1692   1   7   0.1053   0.2263   0.1656  -0.1516   0.1930  -0.1296   0.00    9.2
2019/01/10 00:18:30.000  -2148745.0888   4426641.8933   4044656.2367   1   7   0.0563   0.0809   0.0668  -0.0647   0.0724  -0.0576   0.00   21.0
2019/01/10 00:19:00.000  -2148745.0943   4426641.9017   4044656.2430   1   7   0.0556   0.0797   0.0659  -0.0638   0.0713  -0.0568   0.00  999.9
2019/01/10 00:19:30.000  -2148745.1084   4426641.9220   4044656.2591   1   7   0.0537   0.0767   0.0636  -0.0615   0.0687  -0.0549   0.00  999.9
2019/01/10 00:20:00.000  -2148745.1237   4426641.9355   4044656.2730   1   7   0.0486   0.0686   0.0573  -0.0554   0.0617  -0.0496   0.00  999.9
2019/01/10 00:20:30.000  -2148745.1336   4426641.9473   4044656.2834   1   7   0.0474   0.0667   0.0558  -0.0539   0.0600  -0.0484   0.00  999.9
2019/01/10 00:21:00.000  -2148745.1368   4426641.9515   4044656.2868   1   7   0.0469   0.0660   0.0553  -0.0535   0.0595  -0.0480   0.00  999.9
2019/01/10 00:21:30.000  -2148745.1371   4426641.9518   4044656.2868   1   7   0.0467   0.0657   0.0550  -0.0532   0.0592  -0.0478   0.00  999.9
2019/01/10 00:22:00.000  -2148745.1371   4426641.9516   4044656.2866   1   7   0.0466   0.0655   0.0549  -0.0531   0.0590  -0.0476   0.00  999.9
2019/01/10 00:22:30.000  -2148745.1308   4426641.9447   4044656.2807   1   7   0.0255   0.0485   0.0397  -0.0332   0.0426  -0.0281   0.00  563.9
2019/01/10 00:23:00.000  -2148745.1315   4426641.9455   4044656.2814   1   7   0.0254   0.0483   0.0395  -0.0330   0.0424  -0.0280   0.00  999.9
2019/01/10 00:23:30.000  -2148745.1318   4426641.9458   4044656.2820   1   7   0.0252   0.0480   0.0392  -0.0328   0.0421  -0.0278   0.00  999.9
2019/01/10 00:24:00.000  -2148745.1312   4426641.9439   4044656.2809   1   7   0.0249   0.0473   0.0387  -0.0323   0.0416  -0.0274   0.00  999.9
2019/01/10 00:24:30.000  -2148745.1288   4426641.9377   4044656.2762   1   7   0.0240   0.0456   0.0373  -0.0312   0.0401  -0.0264   0.00  999.9
2019/01/10 00:25:00.000  -2148745.1275   4426641.9337   4044656.2758   1   7   0.0220   0.0413   0.0340  -0.0284   0.0363  -0.0239   0.00  999.9
2019/01/10 00:25:30.000  -2148745.1297   4426641.9367   4044656.2787   1   7   0.0214   0.0401   0.0331  -0.0275   0.0353  -0.0232   0.00  999.9
2019/01/10 00:26:00.000  -2148745.1292   4426641.9377   4044656.2796   1   7   0.0212   0.0397   0.0327  -0.0272   0.0349  -0.0230   0.00  999.9
2019/01/10 00:26:30.000  -2148745.1297   4426641.9392   4044656.2806   1   7   0.0211   0.0395   0.0326  -0.0271   0.0347  -0.0228   0.00  999.9
2019/01/10 00:27:00.000  -2148745.1298   4426641.9395   4044656.2808   1   7   0.0210   0.0394   0.0324  -0.0270   0.0346  -0.0228   0.00  999.9
2019/01/10 00:27:30.000  -2148745.1297   4426641.9395   4044656.2808   1   7   0.0210   0.0393   0.0324  -0.0269   0.0345  -0.0227   0.00  999.9
2019/01/10 00:28:00.000  -2148745.1290   4426641.9383   4044656.2801   1   7   0.0209   0.0391   0.0323  -0.0268   0.0344  -0.0226   0.00  999.9
2019/01/10 00:28:30.000  -2148745.1282   4426641.9371   4044656.2796   1   7   0.0208   0.0389   0.0321  -0.0266   0.0342  -0.0225   0.00  999.9
2019/01/10 00:29:00.000  -2148745.1273   4426641.9368   4044656.2800   1   7   0.0205   0.0384   0.0317  -0.0263   0.0338  -0.0222   0.00  999.9
2019/01/10 00:29:30.000  -2148745.1248   4426641.9333   4044656.2790   1   7   0.0199   0.0371   0.0307  -0.0255   0.0327  -0.0215   0.00  999.9
2019/01/10 00:30:00.000  -2148745.1207   4426641.9236   4044656.2751   1   7   0.0186   0.0342   0.0284  -0.0236   0.0301  -0.0198   0.00  999.9
2019/01/10 00:30:30.000  -2148745.1173   4426641.9193   4044656.2708   1   8   0.0182   0.0333   0.0277  -0.0229   0.0293  -0.0192   0.00  999.9
2019/01/10 00:31:00.000  -2148745.1167   4426641.9191   4044656.2699   1   8   0.0180   0.0329   0.0274  -0.0227   0.0290  -0.0190   0.00  999.9
2019/01/10 00:31:30.000  -2148745.1167   4426641.9200   4044656.2703   1   8   0.0179   0.0328   0.0273  -0.0226   0.0289  -0.0189   0.00  999.9
2019/01/10 00:32:00.000  -2148745.1172   4426641.9216   4044656.2714   1   8   0.0179   0.0327   0.0272  -0.0225   0.0288  -0.0189   0.00  999.9
2019/01/10 00:32:30.000  -2148745.1176   4426641.9223   4044656.2718   1   8   0.0178   0.0326   0.0272  -0.0224   0.0287  -0.0188   0.00  999.9
2019/01/10 00:33:00.000  -2148745.1178   4426641.9229   4044656.2723   1   8   0.0178   0.0325   0.0271  -0.0223   0.0286  -0.0187   0.00  999.9
2019/01/10 00:33:30.000  -2148745.1179   4426641.9233   4044656.2733   1   8   0.0177   0.0322   0.0269  -0.0222   0.0284  -0.0186   0.00  999.9
2019/01/10 00:34:00.000  -2148745.1185   4426641.9248   4044656.2757   1   8   0.0175   0.0318   0.0266  -0.0219   0.0280  -0.0184   0.00  999.9
2019/01/10 00:34:30.000  -2148745.1040   4426641.9087   4044656.2713   1   8   0.0121   0.0278   0.0252  -0.0171   0.0258  -0.0158   0.00   22.9
2019/01/10 00:35:00.000  -2148745.1108   4426641.9111   4044656.2734   1   8   0.0113   0.0259   0.0236  -0.0159   0.0240  -0.0147   0.00  999.9
2019/01/10 00:35:30.000  -2148745.1131   4426641.9141   4044656.2768   1   8   0.0111   0.0252   0.0230  -0.0155   0.0234  -0.0144   0.00  999.9
2019/01/10 00:36:00.000  -2148745.1141   4426641.9157   4044656.2788   1   7   0.0110   0.0250   0.0228  -0.0154   0.0232  -0.0143   0.00  999.9
2019/01/10 00:36:30.000  -2148745.1145   4426641.9161   4044656.2794   1   7   0.0110   0.0250   0.0227  -0.0154   0.0231  -0.0142   0.00  999.9
2019/01/10 00:37:00.000  -2148745.1147   4426641.9162   4044656.2796   1   7   0.0110   0.0249   0.0227  -0.0153   0.0231  -0.0142   0.00  999.9
2019/01/10 00:37:30.000  -2148745.1149   4426641.9161   4044656.2793   1   6   0.0110   0.0249   0.0227  -0.0153   0.0230  -0.0142   0.00  999.9
2019/01/10 00:38:00.000  -2148745.1151   4426641.9159   4044656.2791   6   6   0.0109   0.0248   0.0226  -0.0153   0.0230  -0.0141   0.00    0.0
2019/01/10 00:38:30.000  -2148745.1154   4426641.9155   4044656.2785   1   6   0.0109   0.0248   0.0226  -0.0153   0.0230  -0.0141   0.00  999.9
2019/01/10 00:39:00.000  -2148745.1159   4426641.9147   4044656.2775   6   6   0.0109   0.0247   0.0225  -0.0152   0.0229  -0.0141   0.00    0.0
2019/01/10 00:39:30.000  -2148745.1176   4426641.9125   4044656.2747   1   6   0.0108   0.0244   0.0222  -0.0151   0.0226  -0.0139   0.00  999.9
2019/01/10 00:40:00.000  -2148745.1197   4426641.9055   4044656.2671   6   6   0.0104   0.0234   0.0214  -0.0145   0.0217  -0.0134   0.00    0.0
2019/01/10 00:40:30.000  -2148745.1215   4426641.9072   4044656.2676   6   6   0.0103   0.0231   0.0212  -0.0144   0.0214  -0.0133   0.00    0.0
2019/01/10 00:41:00.000  -2148745.1222   4426641.9078   4044656.2674   6   6   0.0103   0.0230   0.0211  -0.0143   0.0213  -0.0132   0.00    0.0
2019/01/10 00:41:30.000  -2148745.1223   4426641.9077   4044656.2668   6   6   0.0103   0.0230   0.0211  -0.0143   0.0213  -0.0132   0.00    0.0
2019/01/10 00:42:00.000  -2148745.1223   4426641.9074   4044656.2662   6   6   0.0103   0.0230   0.0210  -0.0143   0.0213  -0.0132   0.00    0.0
2019/01/10 00:42:30.000  -2148745.1223   4426641.9071   4044656.2659   1   6   0.0103   0.0230   0.0210  -0.0143   0.0213  -0.0132   0.00  999.9
2019/01/10 00:43:00.000  -2148745.1224   4426641.9070   4044656.2656   6   6   0.0103   0.0229   0.0210  -0.0143   0.0212  -0.0132   0.00    0.0
2019/01/10 00:43:30.000  -2148745.1224   4426641.9067   4044656.2651   6   6   0.0103   0.0229   0.0210  -0.0143   0.0212  -0.0131   0.00    0.0
2019/01/10 00:44:00.000  -2148745.1224   4426641.9046   4044656.2630   6   7   0.0102   0.0228   0.0209  -0.0142   0.0211  -0.0131   0.00    0.0
2019/01/10 00:44:30.000  -2148745.1219   4426641.8979   4044656.2566   6   7   0.0102   0.0225   0.0207  -0.0141   0.0209  -0.0130   0.00    0.0
2019/01/10 00:45:00.000  -2148745.1249   4426641.8922   4044656.2500   6   7   0.0099   0.0218   0.0200  -0.0137   0.0202  -0.0126   0.00    0.0
2019/01/10 00:45:30.000  -2148745.1248   4426641.8899   4044656.2475   6   7   0.0098   0.0216   0.0198  -0.0136   0.0200  -0.0125   0.00    0.0
2019/01/10 00:46:00.000  -2148745.1248   4426641.8890   4044656.2464   6   7   0.0098   0.0215   0.0198  -0.0135   0.0199  -0.0125   0.00    0.0
2019/01/10 00:46:30.000  -2148745.1250   4426641.8888   4044656.2460   6   7   0.0098   0.0215   0.0198  -0.0135   0.0199  -0.0124   0.00    0.0
2019/01/10 00:47:00.000  -2148745.1252   4426641.8887   4044656.2458   6   7   0.0098   0.0214   0.0197  -0.0135   0.0199  -0.0124   0.00    0.0
2019/01/10 00:47:30.000  -2148745.1253   4426641.8885   4044656.2455   6   7   0.0098   0.0214   0.0197  -0.0135   0.0199  -0.0124   0.00    0.0
2019/01/10 00:48:00.000  -2148745.1254   4426641.8883   4044656.2452   6   7   0.0098   0.0214   0.0197  -0.0135   0.0198  -0.0124   0.00    0.0
2019/01/10 00:48:30.000  -2148745.1257   4426641.8881   4044656.2450   6   7   0.0098   0.0214   0.0197  -0.0135   0.0198  -0.0124   0.00    0.0
2019/01/10 00:49:00.000  -2148745.1260   4426641.8872   4044656.2437   1   7   0.0097   0.0213   0.0196  -0.0134   0.0197  -0.0124   0.00  999.9
2019/01/10 00:49:30.000  -2148745.1274   4426641.8867   4044656.2428   1   7   0.0097   0.0211   0.0194  -0.0133   0.0195  -0.0122   0.00  999.9
2019/01/10 00:50:00.000  -2148745.1312   4426641.8825   4044656.2372   1   7   0.0095   0.0204   0.0188  -0.0130   0.0189  -0.0119   0.00  999.9
2019/01/10 00:50:30.000  -2148745.1321   4426641.8817   4044656.2358   1   7   0.0094   0.0202   0.0187  -0.0129   0.0187  -0.0119   0.00  999.9
2019/01/10 00:51:00.000  -2148745.1327   4426641.8823   4044656.2358   1   7   0.0094   0.0201   0.0186  -0.0128   0.0187  -0.0118   0.00  999.9
2019/01/10 00:51:30.000  -2148745.1331   4426641.8828   4044656.2360   1   7   0.0094   0.0201   0.0186  -0.0128   0.0187  -0.0118   0.00  999.9
2019/01/10 00:52:00.000  -2148745.1331   4426641.8827   4044656.2357   1   7   0.0094   0.0201   0.0186  -0.0128   0.0186  -0.0118   0.00  999.9
2019/01/10 00:52:30.000  -2148745.1332   4426641.8825   4044656.2354   1   7   0.0094   0.0201   0.0186  -0.0128   0.0186  -0.0118   0.00  999.9
2019/01/10 00:53:00.000  -2148745.1333   4426641.8824   4044656.2352   1   7   0.0094   0.0201   0.0186  -0.0128   0.0186  -0.0118   0.00  999.9
2019/01/10 00:53:30.000  -2148745.1337   4426641.8825   4044656.2352   1   7   0.0094   0.0200   0.0185  -0.0128   0.0186  -0.0118   0.00  999.9
2019/01/10 00:54:00.000  -2148745.1345   4426641.8820   4044656.2344   1   7   0.0093   0.0200   0.0185  -0.0127   0.0185  -0.0117   0.00  999.9
2019/01/10 00:54:30.000  -2148745.1362   4426641.8801   4044656.2318   1   7   0.0093   0.0198   0.0183  -0.0127   0.0183  -0.0117   0.00  999.9
2019/01/10 00:55:00.000  -2148745.1401   4426641.8766   4044656.2277   1   7   0.0091   0.0192   0.0179  -0.0124   0.0178  -0.0114   0.00  999.9
2019/01/10 00:55:30.000  -2148745.1410   4426641.8778   4044656.2284   1   7   0.0091   0.0190   0.0177  -0.0123   0.0177  -0.0113   0.00  999.9
2019/01/10 00:56:00.000  -2148745.1414   4426641.8782   4044656.2286   1   7   0.0091   0.0190   0.0177  -0.0123   0.0176  -0.0113   0.00  999.9
2019/01/10 00:56:30.000  -2148745.1416   4426641.8785   4044656.2287   1   7   0.0091   0.0189   0.0177  -0.0122   0.0176  -0.0113   0.00  999.9
2019/01/10 00:57:00.000  -2148745.1418   4426641.8786   4044656.2287   1   7   0.0091   0.0189   0.0177  -0.0122   0.0176  -0.0113   0.00  999.9
2019/01/10 00:57:30.000  -2148745.1419   4426641.8787   4044656.2287   1   7   0.0090   0.0189   0.0177  -0.0122   0.0176  -0.0113   0.00  999.9
2019/01/10 00:58:00.000  -2148745.1421   4426641.8787   4044656.2285   1   7   0.0090   0.0189   0.0176  -0.0122   0.0176  -0.0113   0.00  999.9
2019/01/10 00:58:30.000  -2148745.1423   4426641.8787   4044656.2284   1   7   0.0090   0.0189   0.0176  -0.0122   0.0175  -0.0112   0.00  999.9
2019/01/10 00:59:00.000  -2148745.1428   4426641.8787   4044656.2283   1   7   0.0090   0.0188   0.0176  -0.0122   0.0175  -0.0112   0.00  999.9
2019/01/10 00:59:30.000  -2148745.1441   4426641.8772   4044656.2270   1   7   0.0090   0.0186   0.0174  -0.0121   0.0173  -0.0111   0.00  999.9
2019/01/10 01:00:00.000  -2148745.1481   4426641.8720   4044656.2222   1   7   0.0088   0.0181   0.0170  -0.0118   0.0169  -0.0109   0.00  999.9
2019/01/10 01:00:30.000  -2148745.1500   4426641.8721   4044656.2216   1   7   0.0088   0.0180   0.0169  -0.0118   0.0167  -0.0108   0.00  999.9
2019/01/10 01:01:00.000  -2148745.1507   4426641.8721   4044656.2213   1   7   0.0088   0.0179   0.0169  -0.0117   0.0167  -0.0108   0.00  999.9
2019/01/10 01:01:30.000  -2148745.1509   4426641.8716   4044656.2207   1   7   0.0088   0.0179   0.0168  -0.0117   0.0167  -0.0108   0.00  999.9
2019/01/10 01:02:00.000  -2148745.1510   4426641.8709   4044656.2201   1   7   0.0088   0.0179   0.0168  -0.0117   0.0166  -0.0108   0.00  999.9
2019/01/10 01:02:30.000  -2148745.1509   4426641.8704   4044656.2195   1   7   0.0088   0.0179   0.0168  -0.0117   0.0166  -0.0108   0.00  999.9
2019/01/10 01:03:00.000  -2148745.1509   4426641.8699   4044656.2190   1   7   0.0087   0.0178   0.0168  -0.0117   0.0166  -0.0108   0.00  999.9
2019/01/10 01:03:30.000  -2148745.1510   4426641.8693   4044656.2183   1   7   0.0087   0.0178   0.0168  -0.0117   0.0166  -0.0108   0.00  999.9
2019/01/10 01:04:00.000  -2148745.1512   4426641.8682   4044656.2173   1   7   0.0087   0.0177   0.0167  -0.0116   0.0165  -0.0107   0.00  999.9
2019/01/10 01:04:30.000  -2148745.1526   4426641.8673   4044656.2163   1   7   0.0087   0.0176   0.0166  -0.0116   0.0164  -0.0107   0.00  999.9
2019/01/10 01:05:00.000  -2148745.1577   4426641.8628   4044656.2089   1   7   0.0085   0.0171   0.0160  -0.0113   0.0160  -0.0105   0.00   32.5
2019/01/10 01:05:30.000  -2148745.1592   4426641.8636   4044656.2112   1   7   0.0085   0.0170   0.0159  -0.0112   0.0158  -0.0105   0.00  999.9
2019/01/10 01:06:00.000  -2148745.1597   4426641.8642   4044656.2125   1   7   0.0085   0.0169   0.0158  -0.0112   0.0158  -0.0104   0.00  999.9
2019/01/10 01:06:30.000  -2148745.1599   4426641.8647   4044656.2135   1   7   0.0085   0.0169   0.0158  -0.0112   0.0157  -0.0104   0.00  999.9
2019/01/10 01:07:00.000  -2148745.1601   4426641.8651   4044656.2141   1   7   0.0085   0.0169   0.0158  -0.0112   0.0157  -0.0104   0.00  999.9
2019/01/10 01:07:30.000  -2148745.1603   4426641.8653   4044656.2145   1   7   0.0085   0.0168   0.0158  -0.0112   0.0157  -0.0104   0.00  999.9
2019/01/10 01:08:00.000  -2148745.1604   4426641.8654   4044656.2148   1   7   0.0084   0.0168   0.0158  -0.0112   0.0157  -0.0104   0.00  999.9
2019/01/10 01:08:30.000  -2148745.1607   4426641.8655   4044656.2153   1   7   0.0084   0.0168   0.0157  -0.0112   0.0156  -0.0104   0.00  999.9
2019/01/10 01:09:00.000  -2148745.1612   4426641.8654   4044656.2158   1   7   0.0084   0.0167   0.0157  -0.0111   0.0156  -0.0104   0.00  999.9
2019/01/10 01:09:30.000  -2148745.1619   4426641.8641   4044656.2160   1   7   0.0084   0.0165   0.0155  -0.0110   0.0154  -0.0103   0.00  999.9
2019/01/10 01:10:00.000  -2148745.1648   4426641.8583   4044656.2155   1   7   0.0083   0.0161   0.0151  -0.0108   0.0150  -0.0101   0.00  999.9
2019/01/10 01:10:30.000  -2148745.1664   4426641.8588   4044656.2173   1   7   0.0082   0.0160   0.0149  -0.0107   0.0148  -0.0100   0.00  999.9
2019/01/10 01:11:00.000  -2148745.1669   4426641.8590   4044656.2180   1   7   0.0082   0.0159   0.0149  -0.0107   0.0148  -0.0099   0.00  999.9
2019/01/10 01:11:30.000  -2148745.1670   4426641.8585   4044656.2176   1   7   0.0082   0.0159   0.0148  -0.0107   0.0147  -0.0099   0.00  999.9
2019/01/10 01:12:00.000  -2148745.1671   4426641.8580   4044656.2173   1   7   0.0082   0.0158   0.0148  -0.0107   0.0147  -0.0099   0.00  999.9
2019/01/10 01:12:30.000  -2148745.1671   4426641.8578   4044656.2171   1   7   0.0082   0.0158   0.0148  -0.0107   0.0147  -0.0099   0.00  999.9
2019/01/10 01:13:00.000  -2148745.1671   4426641.8573   4044656.2167   1   7   0.0082   0.0158   0.0148  -0.0107   0.0147  -0.0099   0.00  999.9
2019/01/10 01:13:30.000  -2148745.1673   4426641.8572   4044656.2167   1   7   0.0082   0.0158   0.0147  -0.0107   0.0146  -0.0099   0.00  999.9
2019/01/10 01:14:00.000  -2148745.1679   4426641.8575   4044656.2175   1   7   0.0082   0.0157   0.0147  -0.0106   0.0146  -0.0098   0.00  999.9
2019/01/10 01:14:30.000  -2148745.1691   4426641.8573   4044656.2193   1   6   0.0081   0.0156   0.0146  -0.0106   0.0145  -0.0098   0.00  999.9
2019/01/10 01:15:00.000  -2148745.1715   4426641.8509   4044656.2196   1   6   0.0081   0.0154   0.0143  -0.0105   0.0143  -0.0097   0.00  999.9
2019/01/10 01:15:30.000  -2148745.1723   4426641.8501   4044656.2209   1   6   0.0080   0.0153   0.0143  -0.0104   0.0142  -0.0096   0.00  999.9
2019/01/10 01:16:00.000  -2148745.1725   4426641.8498   4044656.2215   1   6   0.0080   0.0153   0.0143  -0.0104   0.0142  -0.0096   0.00  999.9
2019/01/10 01:16:30.000  -2148745.1726   4426641.8495   4044656.2216   1   6   0.0080   0.0153   0.0142  -0.0104   0.0142  -0.0096   0.00  999.9
2019/01/10 01:17:00.000  -2148745.1726   4426641.8493   4044656.2217   1   6   0.0080   0.0153   0.0142  -0.0104   0.0142  -0.0096   0.00  999.9
2019/01/10 01:17:30.000  -2148745.1727   4426641.8493   4044656.2218   1   6   0.0080   0.0153   0.0142  -0.0104   0.0142  -0.0096   0.00  999.9
2019/01/10 01:18:00.000  -2148745.1727   4426641.8492   4044656.2220   1   6   0.0080   0.0153   0.0142  -0.0104   0.0141  -0.0096   0.00  999.9
2019/01/10 01:18:30.000  -2148745.1728   4426641.8492   4044656.2225   1   6   0.0080   0.0153   0.0142  -0.0104   0.0141  -0.0096   0.00  999.9
2019/01/10 01:19:00.000  -2148745.1731   4426641.8489   4044656.2236   1   6   0.0080   0.0153   0.0142  -0.0104   0.0141  -0.0096   0.00  999.9
2019/01/10 01:19:30.000  -2148745.1737   4426641.8472   4044656.2257   1   6   0.0080   0.0152   0.0141  -0.0104   0.0141  -0.0096   0.00  999.9
2019/01/10 01:20:00.000  -2148745.1757   4426641.8404   4044656.2269   1   6   0.0079   0.0150   0.0139  -0.0102   0.0139  -0.0095   0.00  999.9
2019/01/10 01:20:30.000  -2148745.1761   4426641.8385   4044656.2270   1   6   0.0079   0.0150   0.0139  -0.0102   0.0138  -0.0094   0.00  999.9
2019/01/10 01:21:00.000  -2148745.1762   4426641.8379   4044656.2273   1   6   0.0079   0.0150   0.0139  -0.0102   0.0138  -0.0094   0.00  999.9
2019/01/10 01:21:30.000  -2148745.1762   4426641.8374   4044656.2272   1   6   0.0079   0.0149   0.0139  -0.0102   0.0138  -0.0094   0.00  999.9
2019/01/10 01:22:00.000  -2148745.1763   4426641.8372   4044656.2272   1   6   0.0079   0.0149   0.0139  -0.0102   0.0138  -0.0094   0.00  999.9
2019/01/10 01:22:30.000  -2148745.1763   4426641.8370   4044656.2273   1   6   0.0079   0.0149   0.0139  -0.0102   0.0138  -0.0094   0.00  999.9
2019/01/10 01:23:00.000  -2148745.1764   4426641.8368   4044656.2274   1   6   0.0079   0.0149   0.0138  -0.0102   0.0138  -0.0094   0.00  999.9
2019/01/10 01:23:30.000  -2148745.1764   4426641.8365   4044656.2275   1   6   0.0079   0.0149   0.0138  -0.0102   0.0138  -0.0094   0.00  999.9
2019/01/10 01:24:00.000  -2148745.1764   4426641.8356   4044656.2275   1   6   0.0079   0.0149   0.0138  -0.0102   0.0138  -0.0094   0.00  999.9
2019/01/10 01:24:30.000  -2148745.1766   4426641.8329   4044656.2276   1   6   0.0079   0.0149   0.0138  -0.0102   0.0137  -0.0094   0.00  999.9
2019/01/10 01:25:00.000  -2148745.1787   4426641.8272   4044656.2309   1   6   0.0078   0.0147   0.0136  -0.0101   0.0136  -0.0093   0.00  999.9
2019/01/10 01:25:30.000  -2148745.1797   4426641.8269   4044656.2328   1   6   0.0078   0.0147   0.0136  -0.0101   0.0136  -0.0093   0.00  999.9
2019/01/10 01:26:00.000  -2148745.1801   4426641.8269   4044656.2335   1   6   0.0078   0.0147   0.0136  -0.0100   0.0135  -0.0093   0.00  999.9
2019/01/10 01:26:30.000  -2148745.1803   4426641.8269   4044656.2339   1   6   0.0078   0.0147   0.0136  -0.0100   0.0135  -0.0093   0.00  999.9
2019/01/10 01:27:00.000  -2148745.1803   4426641.8269   4044656.2342   1   6   0.0078   0.0147   0.0136  -0.0100   0.0135  -0.0093   0.00  999.9
2019/01/10 01:27:30.000  -2148745.1804   4426641.8268   4044656.2343   1   6   0.0078   0.0147   0.0136  -0.0100   0.0135  -0.0093   0.00  999.9
2019/01/10 01:28:00.000  -2148745.1805   4426641.8268   4044656.2346   1   6   0.0078   0.0146   0.0135  -0.0100   0.0135  -0.0093   0.00  999.9
2019/01/10 01:28:30.000  -2148745.1806   4426641.8266   4044656.2351   1   6   0.0078   0.0146   0.0135  -0.0100   0.0135  -0.0093   0.00  999.9
2019/01/10 01:29:00.000  -2148745.1808   4426641.8261   4044656.2355   1   6   0.0078   0.0146   0.0135  -0.0100   0.0135  -0.0093   0.00  999.9
2019/01/10 01:29:30.000  -2148745.1813   4426641.8246   4044656.2363   1   6   0.0078   0.0146   0.0135  -0.0100   0.0135  -0.0092   0.00  999.9
2019/01/10 01:30:00.000  -2148745.1800   4426641.8188   4044656.2432   1   6   0.0075   0.0145   0.0132  -0.0099   0.0134  -0.0093   0.00   30.2
2019/01/10 01:30:30.000  -2148745.1806   4426641.8171   4044656.2433   1   6   0.0075   0.0144   0.0132  -0.0099   0.0133  -0.0093   0.00  999.9
2019/01/10 01:31:00.000  -2148745.1807   4426641.8166   4044656.2434   1   6   0.0075   0.0144   0.0132  -0.0099   0.0133  -0.0093   0.00  999.9
2019/01/10 01:31:30.000  -2148745.1808   4426641.8163   4044656.2434   1   6   0.0075   0.0144   0.0132  -0.0099   0.0133  -0.0093   0.00  999.9
2019/01/10 01:32:00.000  -2148745.1809   4426641.8162   4044656.2435   1   6   0.0075   0.0144   0.0132  -0.0099   0.0133  -0.0093   0.00  999.9
2019/01/10 01:32:30.000  -2148745.1810   4426641.8162   4044656.2436   1   6   0.0075   0.0144   0.0132  -0.0099   0.0133  -0.0093   0.00  999.9
2019/01/10 01:33:00.000  -2148745.1811   4426641.8162   4044656.2438   1   6   0.0075   0.0144   0.0132  -0.0099   0.0133  -0.0093   0.00  999.9
2019/01/10 01:33:30.000  -2148745.1814   4426641.8162   4044656.2442   1   6   0.0075   0.0144   0.0132  -0.0099   0.0133  -0.0093   0.00  999.9
2019/01/10 01:34:00.000  -2148745.1822   4426641.8164   4044656.2452   1   6   0.0075   0.0144   0.0132  -0.0099   0.0133  -0.0093   0.00  999.9
2019/01/10 01:34:30.000  -2148745.1835   4426641.8155   4044656.2468   1   6   0.0075   0.0144   0.0131  -0.0099   0.0133  -0.0093   0.00  999.9
2019/01/10 01:35:00.000  -2148745.1859   4426641.8097   4044656.2503   1   6   0.0074   0.0143   0.0131  -0.0098   0.0132  -0.0092   0.00  999.9
2019/01/10 01:35:30.000  -2148745.1868   4426641.8087   4044656.2519   1   6   0.0074   0.0142   0.0130  -0.0098   0.0132  -0.0092   0.00  999.9
2019/01/10 01:36:00.000  -2148745.1872   4426641.8084   4044656.2527   1   6   0.0074   0.0142   0.0130  -0.0098   0.0132  -0.0092   0.00  999.9
2019/01/10 01:36:30.000  -2148745.1873   4426641.8083   4044656.2529   1   6   0.0074   0.0142   0.0130  -0.0098   0.0131  -0.0092   0.00  999.9
2019/01/10 01:37:00.000  -2148745.1874   4426641.8083   4044656.2530   1   6   0.0074   0.0142   0.0130  -0.0097   0.0131  -0.0092   0.00  999.9
2019/01/10 01:37:30.000  -2148745.1874   4426641.8082   4044656.2531   1   6   0.0074   0.0142   0.0130  -0.0097   0.0131  -0.0092   0.00  999.9
2019/01/10 01:38:00.000  -2148745.1875   4426641.8081   4044656.2532   1   6   0.0074   0.0142   0.0130  -0.0097   0.0131  -0.0092   0.00  999.9
2019/01/10 01:38:30.000  -2148745.1876   4426641.8079   4044656.2535   1   6   0.0074   0.0142   0.0130  -0.0097   0.0131  -0.0092   0.00  999.9
2019/01/10 01:39:00.000  -2148745.1879   4426641.8074   4044656.2538   1   6   0.0073   0.0142   0.0130  -0.0097   0.0131  -0.0092   0.00  999.9
2019/01/10 01:39:30.000  -2148745.1884   4426641.8054   4044656.2544   1   6   0.0073   0.0142   0.0130  -0.0097   0.0131  -0.0091   0.00  999.9
2019/01/10 01:40:00.000  -2148745.1908   4426641.7995   4044656.2574   1   6   0.0073   0.0141   0.0129  -0.0096   0.0130  -0.0091   0.00  999.9
2019/01/10 01:40:30.000  -2148745.1910   4426641.7971   4044656.2584   1   6   0.0072   0.0140   0.0129  -0.0096   0.0130  -0.0090   0.00  999.9
2019/01/10 01:41:00.000  -2148745.1912   4426641.7964   4044656.2589   1   6   0.0072   0.0140   0.0129  -0.0096   0.0130  -0.0090   0.00  999.9
2019/01/10 01:41:30.000  -2148745.1914   4426641.7963   4044656.2592   1   6   0.0072   0.0140   0.0129  -0.0096   0.0130  -0.0090   0.00  999.9
2019/01/10 01:42:00.000  -2148745.1914   4426641.7962   4044656.2594   1   6   0.0072   0.0140   0.0129  -0.0096   0.0130  -0.0090   0.00  999.9
2019/01/10 01:42:30.000  -2148745.1915   4426641.7962   4044656.2595   1   6   0.0072   0.0140   0.0128  -0.0096   0.0130  -0.0090   0.00  999.9
2019/01/10 01:43:00.000  -2148745.1916   4426641.7961   4044656.2597   1   6   0.0072   0.0140   0.0128  -0.0096   0.0130  -0.0090   0.00  999.9
2019/01/10 01:43:30.000  -2148745.1917   4426641.7959   4044656.2598   1   6   0.0072   0.0140   0.0128  -0.0096   0.0130  -0.0090   0.00  999.9
2019/01/10 01:44:00.000  -2148745.1919   4426641.7952   4044656.2602   1   6   0.0072   0.0140   0.0128  -0.0096   0.0130  -0.0090   0.00  999.9
2019/01/10 01:44:30.000  -2148745.1925   4426641.7935   4044656.2609   1   6   0.0072   0.0140   0.0128  -0.0095   0.0129  -0.0090   0.00  999.9
2019/01/10 01:45:00.000  -2148745.1944   4426641.7870   4044656.2636   1   6   0.0071   0.0139   0.0127  -0.0095   0.0128  -0.0089   0.00  999.9
2019/01/10 01:45:30.000  -2148745.1955   4426641.7860   4044656.2649   1   6   0.0071   0.0138   0.0127  -0.0094   0.0128  -0.0089   0.00  999.9
2019/01/10 01:46:00.000  -2148745.1959   4426641.7858   4044656.2651   1   6   0.0071   0.0138   0.0127  -0.0094   0.0128  -0.0089   0.00  999.9
2019/01/10 01:46:30.000  -2148745.1961   4426641.7856   4044656.2651   1   6   0.0071   0.0138   0.0127  -0.0094   0.0128  -0.0089   0.00  999.9
2019/01/10 01:47:00.000  -2148745.1962   4426641.7855   4044656.2651   1   6   0.0071   0.0138   0.0127  -0.0094   0.0128  -0.0089   0.00  999.9
2019/01/10 01:47:30.000  -2148745.1962   4426641.7853   4044656.2651   1   6   0.0071   0.0138   0.0127  -0.0094   0.0128  -0.0089   0.00  999.9
2019/01/10 01:48:00.000  -2148745.1963   4426641.7852   4044656.2651   1   6   0.0071   0.0138   0.0127  -0.0094   0.0128  -0.0089   0.00  999.9
2019/01/10 01:48:30.000  -2148745.1965   4426641.7850   4044656.2654   1   6   0.0071   0.0138   0.0127  -0.0094   0.0128  -0.0089   0.00  999.9
2019/01/10 01:49:00.000  -2148745.1967   4426641.7845   4044656.2656   1   6   0.0070   0.0138   0.0126  -0.0094   0.0128  -0.0089   0.00  999.9
2019/01/10 01:49:30.000  -2148745.1968   4426641.7817   4044656.2656   1   6   0.0070   0.0137   0.0126  -0.0093   0.0127  -0.0088   0.00  999.9
2019/01/10 01:50:00.000  -2148745.1984   4426641.7747   4044656.2674   1   6   0.0069   0.0136   0.0125  -0.0093   0.0126  -0.0088   0.00  999.9
2019/01/10 01:50:30.000  -2148745.1987   4426641.7725   4044656.2675   1   6   0.0069   0.0136   0.0125  -0.0092   0.0126  -0.0087   0.00  999.9
2019/01/10 01:51:00.000  -2148745.1990   4426641.7721   4044656.2678   1   6   0.0069   0.0135   0.0125  -0.0092   0.0126  -0.0087   0.00  999.9
2019/01/10 01:51:30.000  -2148745.1991   4426641.7719   4044656.2679   1   6   0.0069   0.0135   0.0125  -0.0092   0.0126  -0.0087   0.00  999.9
2019/01/10 01:52:00.000  -2148745.1992   4426641.7718   4044656.2679   1   6   0.0069   0.0135   0.0125  -0.0092   0.0126  -0.0087   0.00  999.9
2019/01/10 01:52:30.000  -2148745.1992   4426641.7717   4044656.2680   1   6   0.0069   0.0135   0.0125  -0.0092   0.0126  -0.0087   0.00  999.9
2019/01/10 01:53:00.000  -2148745.1992   4426641.7714   4044656.2679   1   6   0.0069   0.0135   0.0125  -0.0092   0.0126  -0.0087   0.00  999.9
2019/01/10 01:53:30.000  -2148745.1994   4426641.7712   4044656.2680   1   5   0.0069   0.0135   0.0125  -0.0092   0.0126  -0.0087   0.00  999.9
2019/01/10 01:54:00.000  -2148745.1997   4426641.7708   4044656.2682   1   5   0.0069   0.0135   0.0125  -0.0092   0.0126  -0.0087   0.00  999.9
2019/01/10 01:54:30.000  -2148745.2002   4426641.7688   4044656.2683   1   5   0.0069   0.0135   0.0125  -0.0092   0.0126  -0.0087   0.00  999.9
2019/01/10 01:55:00.000  -2148745.2011   4426641.7608   4044656.2688   1   5   0.0068   0.0134   0.0124  -0.0091   0.0125  -0.0087   0.00  999.9
2019/01/10 01:55:30.000  -2148745.2014   4426641.7582   4044656.2686   1   6   0.0068   0.0134   0.0124  -0.0091   0.0125  -0.0087   0.00  999.9
2019/01/10 01:56:00.000  -2148745.2014   4426641.7574   4044656.2686   1   6   0.0068   0.0134   0.0124  -0.0091   0.0125  -0.0087   0.00  999.9
2019/01/10 01:56:30.000  -2148745.2015   4426641.7570   4044656.2686   1   6   0.0068   0.0134   0.0124  -0.0091   0.0125  -0.0087   0.00  999.9
2019/01/10 01:57:00.000  -2148745.2015   4426641.7567   4044656.2686   1   6   0.0068   0.0134   0.0124  -0.0091   0.0125  -0.0087   0.00  999.9
2019/01/10 01:57:30.000  -2148745.2015   4426641.7566   4044656.2686   1   6   0.0068   0.0134   0.0124  -0.0091   0.0125  -0.0087   0.00  999.9
2019/01/10 01:58:00.000  -2148745.2015   4426641.7562   4044656.2685   1   6   0.0068   0.0134   0.0124  -0.0091   0.0125  -0.0087   0.00  999.9
2019/01/10 01:58:30.000  -2148745.2016   4426641.7558   4044656.2685   1   6   0.0068   0.0134   0.0124  -0.0091   0.0125  -0.0087   0.00  999.9
2019/01/10 01:59:00.000  -2148745.2019   4426641.7551   4044656.2685   1   6   0.0068   0.0134   0.0124  -0.0091   0.0125  -0.0087   0.00  999.9
2019/01/10 01:59:30.000  -2148745.2025   4426641.7529   4044656.2685   1   6   0.0068   0.0134   0.0124  -0.0091   0.0125  -0.0087   0.00  999.9
2019/01/10 02:00:00.000  -2148745.2031   4426641.7444   4044656.2681   1   6   0.0068   0.0134   0.0124  -0.0091   0.0125  -0.0086   0.00  999.9
2019/01/10 02:00:30.000  -2148745.2031   4426641.7415   4044656.2677   1   6   0.0068   0.0133   0.0124  -0.0091   0.0125  -0.0086   0.00  999.9
2019/01/10 02:01:00.000  -2148745.2031   4426641.7406   4044656.2676   1   6   0.0068   0.0133   0.0124  -0.0091   0.0125  -0.0086   0.00  999.9
2019/01/10 02:01:30.000  -2148745.2032   4426641.7404   4044656.2679   1   6   0.0067   0.0131   0.0121  -0.0090   0.0122  -0.0085   0.00  678.4
2019/01/10 02:02:00.000  -2148745.2032   4426641.7401   4044656.2678   1   6   0.0067   0.0131   0.0121  -0.0090   0.0122  -0.0085   0.00  999.9
2019/01/10 02:02:30.000  -2148745.2031   4426641.7399   4044656.2678   1   6   0.0067   0.0131   0.0121  -0.0090   0.0122  -0.0085   0.00  999.9
2019/01/10 02:03:00.000  -2148745.2031   4426641.7394   4044656.2676   1   6   0.0067   0.0131   0.0121  -0.0089   0.0122  -0.0085   0.00  999.9
2019/01/10 02:03:30.000  -2148745.2030   4426641.7389   4044656.2675   1   6   0.0067   0.0131   0.0121  -0.0089   0.0122  -0.0085   0.00  999.9
2019/01/10 02:04:00.000  -2148745.2030   4426641.7377   4044656.2671   1   6   0.0067   0.0131   0.0121  -0.0089   0.0122  -0.0085   0.00  999.9
2019/01/10 02:04:30.000  -2148745.2029   4426641.7345   4044656.2662   1   6   0.0067   0.0130   0.0121  -0.0089   0.0122  -0.0085   0.00  999.9
2019/01/10 02:05:00.000  -2148745.2038   4426641.7269   4044656.2657   1   6   0.0067   0.0130   0.0121  -0.0089   0.0121  -0.0085   0.00  999.9
2019/01/10 02:05:30.000  -2148745.2037   4426641.7241   4044656.2652   1   6   0.0067   0.0129   0.0120  -0.0089   0.0121  -0.0085   0.00  999.9
2019/01/10 02:06:00.000  -2148745.2038   4426641.7234   4044656.2650   1   6   0.0067   0.0129   0.0120  -0.0089   0.0121  -0.0085   0.00  999.9
2019/01/10 02:06:30.000  -2148745.2039   4426641.7230   4044656.2650   1   6   0.0067   0.0129   0.0120  -0.0089   0.0121  -0.0085   0.00  999.9
2019/01/10 02:07:00.000  -2148745.2039   4426641.7228   4044656.2649   1   6   0.0067   0.0129   0.0120  -0.0089   0.0121  -0.0085   0.00  999.9
2019/01/10 02:07:30.000  -2148745.2040   4426641.7226   4044656.2649   1   6   0.0067   0.0129   0.0120  -0.0089   0.0121  -0.0085   0.00  999.9
2019/01/10 02:08:00.000  -2148745.2040   4426641.7224   4044656.2649   1   6   0.0067   0.0129   0.0120  -0.0089   0.0121  -0.0085   0.00  999.9
2019/01/10 02:08:30.000  -2148745.2040   4426641.7220   4044656.2648   1   6   0.0067   0.0129   0.0120  -0.0089   0.0121  -0.0085   0.00  999.9
2019/01/10 02:09:00.000  -2148745.2040   4426641.7210   4044656.2646   1   6   0.0067   0.0129   0.0120  -0.0089   0.0121  -0.0085   0.00  999.9
2019/01/10 02:09:30.000  -2148745.2041   4426641.7187   4044656.2640   1   6   0.0066   0.0129   0.0120  -0.0089   0.0121  -0.0084   0.00  999.9
2019/01/10 02:10:00.000  -2148745.2049   4426641.7113   4044656.2626   1   6   0.0066   0.0129   0.0120  -0.0088   0.0120  -0.0084   0.00  999.9
2019/01/10 02:10:30.000  -2148745.2051   4426641.7090   4044656.2620   1   6   0.0066   0.0128   0.0120  -0.0088   0.0120  -0.0084   0.00  999.9
2019/01/10 02:11:00.000  -2148745.2050   4426641.7079   4044656.2617   1   6   0.0066   0.0128   0.0120  -0.0088   0.0120  -0.0084   0.00  999.9
2019/01/10 02:11:30.000  -2148745.2050   4426641.7075   4044656.2615   1   6   0.0066   0.0128   0.0120  -0.0088   0.0120  -0.0084   0.00  999.9
2019/01/10 02:12:00.000  -2148745.2050   4426641.7072   4044656.2615   1   6   0.0066   0.0128   0.0120  -0.0088   0.0120  -0.0084   0.00  999.9
2019/01/10 02:12:30.000  -2148745.2050   4426641.7070   4044656.2614   1   6   0.0066   0.0128   0.0120  -0.0088   0.0120  -0.0084   0.00  999.9
2019/01/10 02:13:00.000  -2148745.2051   4426641.7068   4044656.2614   1   6   0.0066   0.0128   0.0120  -0.0088   0.0120  -0.0084   0.00  999.9
2019/01/10 02:13:30.000  -2148745.2051   4426641.7065   4044656.2613   1   6   0.0066   0.0128   0.0120  -0.0088   0.0120  -0.0084   0.00  999.9
2019/01/10 02:14:00.000  -2148745.2052   4426641.7057   4044656.2611   1   6   0.0066   0.0128   0.0120  -0.0088   0.0120  -0.0084   0.00  999.9
2019/01/10 02:14:30.000  -2148745.2050   4426641.7030   4044656.2601   1   6   0.0066   0.0128   0.0120  -0.0088   0.0120  -0.0084   0.00  999.9
2019/01/10 02:15:00.000  -2148745.2059   4426641.6965   4044656.2586   1   6   0.0066   0.0128   0.0120  -0.0088   0.0120  -0.0084   0.00  999.9
2019/01/10 02:15:30.000  -2148745.2059   4426641.6942   4044656.2578   1   6   0.0066   0.0128   0.0120  -0.0088   0.0120  -0.0084   0.00  999.9
2019/01/10 02:16:00.000  -2148745.2060   4426641.6932   4044656.2575   1   6   0.0066   0.0128   0.0120  -0.0088   0.0120  -0.0084   0.00  999.9
2019/01/10 02:16:30.000  -2148745.2060   4426641.6929   4044656.2573   1   6   0.0066   0.0128   0.0120  -0.0088   0.0120  -0.0084   0.00  999.9
2019/01/10 02:17:00.000  -2148745.2061   4426641.6927   4044656.2573   1   6   0.0066   0.0128   0.0120  -0.0088   0.0120  -0.0084   0.00  999.9
2019/01/10 02:17:30.000  -2148745.2061   4426641.6925   4044656.2572   1   6   0.0066   0.0128   0.0120  -0.0088   0.0120  -0.0084   0.00  999.9
2019/01/10 02:18:00.000  -2148745.2061   4426641.6923   4044656.2571   1   6   0.0066   0.0128   0.0120  -0.0088   0.0120  -0.0084   0.00  999.9
2019/01/10 02:18:30.000  -2148745.2061   4426641.6920   4044656.2570   1   6   0.0066   0.0127   0.0120  -0.0088   0.0120  -0.0084   0.00  999.9
2019/01/10 02:19:00.000  -2148745.2065   4426641.6917   4044656.2571   1   6   0.0065   0.0127   0.0120  -0.0088   0.0120  -0.0084   0.00  999.9
2019/01/10 02:19:30.000  -2148745.2070   4426641.6903   4044656.2569   1   6   0.0065   0.0127   0.0119  -0.0087   0.0120  -0.0084   0.00  999.9
2019/01/10 02:20:00.000  -2148745.2082   4426641.6847   4044656.2553   1   6   0.0065   0.0127   0.0119  -0.0087   0.0119  -0.0083   0.00  999.9
2019/01/10 02:20:30.000  -2148745.2087   4426641.6833   4044656.2549   1   6   0.0065   0.0127   0.0119  -0.0087   0.0119  -0.0083   0.00  999.9
2019/01/10 02:21:00.000  -2148745.2088   4426641.6827   4044656.2547   1   6   0.0065   0.0127   0.0119  -0.0087   0.0119  -0.0083   0.00  999.9
2019/01/10 02:21:30.000  -2148745.2088   4426641.6823   4044656.2545   1   6   0.0065   0.0127   0.0119  -0.0087   0.0119  -0.0083   0.00  999.9
2019/01/10 02:22:00.000  -2148745.2088   4426641.6821   4044656.2544   1   6   0.0065   0.0127   0.0119  -0.0087   0.0119  -0.0083   0.00  999.9
2019/01/10 02:22:30.000  -2148745.2088   4426641.6819   4044656.2543   1   6   0.0065   0.0127   0.0119  -0.0087   0.0119  -0.0083   0.00  999.9
2019/01/10 02:23:00.000  -2148745.2088   4426641.6817   4044656.2542   1   6   0.0065   0.0127   0.0119  -0.0087   0.0119  -0.0083   0.00  999.9
2019/01/10 02:23:30.000  -2148745.2089   4426641.6813   4044656.2541   1   6   0.0065   0.0127   0.0119  -0.0087   0.0119  -0.0083   0.00  999.9
2019/01/10 02:24:00.000  -2148745.2092   4426641.6808   4044656.2540   1   6   0.0065   0.0127   0.0119  -0.0087   0.0119  -0.0083   0.00  999.9
2019/01/10 02:24:30.000  -2148745.2100   4426641.6796   4044656.2538   1   6   0.0065   0.0127   0.0119  -0.0087   0.0119  -0.0083   0.00  999.9
2019/01/10 02:25:00.000  -2148745.2114   4426641.6753   4044656.2523   1   6   0.0064   0.0126   0.0119  -0.0086   0.0119  -0.0083   0.00  999.9
2019/01/10 02:25:30.000  -2148745.2119   4426641.6738   4044656.2519   1   6   0.0064   0.0126   0.0118  -0.0086   0.0119  -0.0083   0.00  999.9
2019/01/10 02:26:00.000  -2148745.2121   4426641.6735   4044656.2520   1   6   0.0064   0.0126   0.0118  -0.0086   0.0119  -0.0083   0.00  999.9
2019/01/10 02:26:30.000  -2148745.2123   4426641.6733   4044656.2520   1   6   0.0064   0.0126   0.0118  -0.0086   0.0119  -0.0083   0.00  999.9
2019/01/10 02:27:00.000  -2148745.2124   4426641.6732   4044656.2520   1   6   0.0064   0.0126   0.0118  -0.0086   0.0119  -0.0083   0.00  999.9
2019/01/10 02:27:30.000  -2148745.2124   4426641.6732   4044656.2519   1   6   0.0064   0.0126   0.0118  -0.0086   0.0119  -0.0083   0.00  999.9
2019/01/10 02:28:00.000  -2148745.2124   4426641.6730   4044656.2519   1   6   0.0064   0.0126   0.0118  -0.0086   0.0119  -0.0083   0.00  999.9
2019/01/10 02:28:30.000  -2148745.2125   4426641.6728   4044656.2517   1   6   0.0064   0.0126   0.0118  -0.0086   0.0119  -0.0083   0.00  999.9
2019/01/10 02:29:00.000  -2148745.2126   4426641.6722   4044656.2514   1   6   0.0064   0.0126   0.0118  -0.0086   0.0118  -0.0083   0.00  999.9
2019/01/10 02:29:30.000  -2148745.2129   4426641.6706   4044656.2507   1   6   0.0064   0.0126   0.0118  -0.0086   0.0118  -0.0082   0.00  999.9
2019/01/10 02:30:00.000  -2148745.2142   4426641.6668   4044656.2489   1   6   0.0063   0.0125   0.0118  -0.0085   0.0118  -0.0082   0.00  999.9
2019/01/10 02:30:30.000  -2148745.2147   4426641.6663   4044656.2488   1   6   0.0063   0.0125   0.0118  -0.0085   0.0118  -0.0082   0.00  999.9
2019/01/10 02:31:00.000  -2148745.2148   4426641.6658   4044656.2485   1   6   0.0063   0.0125   0.0117  -0.0085   0.0118  -0.0082   0.00  999.9
2019/01/10 02:31:30.000  -2148745.2149   4426641.6658   4044656.2486   1   6   0.0063   0.0125   0.0117  -0.0085   0.0118  -0.0082   0.00  999.9
2019/01/10 02:32:00.000  -2148745.2150   4426641.6658   4044656.2486   1   6   0.0063   0.0125   0.0117  -0.0085   0.0118  -0.0082   0.00  999.9
2019/01/10 02:32:30.000  -2148745.2151   4426641.6658   4044656.2486   1   6   0.0063   0.0125   0.0117  -0.0085   0.0118  -0.0082   0.00  999.9
2019/01/10 02:33:00.000  -2148745.2152   4426641.6658   4044656.2487   1   6   0.0063   0.0125   0.0117  -0.0085   0.0118  -0.0082   0.00  999.9
2019/01/10 02:33:30.000  -2148745.2154   4426641.6659   4044656.2488   1   6   0.0063   0.0125   0.0117  -0.0085   0.0117  -0.0082   0.00  999.9
2019/01/10 02:34:00.000  -2148745.2158   4426641.6660   4044656.2490   1   6   0.0063   0.0125   0.0117  -0.0085   0.0117  -0.0082   0.00  999.9
2019/01/10 02:34:30.000  -2148745.2161   4426641.6650   4044656.2486   1   6   0.0063   0.0124   0.0117  -0.0085   0.0117  -0.0081   0.00  999.9
2019/01/10 02:35:00.000  -2148745.2167   4426641.6607   4044656.2458   1   6   0.0062   0.0124   0.0116  -0.0084   0.0116  -0.0081   0.00  999.9
2019/01/10 02:35:30.000  -2148745.2170   4426641.6598   4044656.2454   1   6   0.0062   0.0123   0.0116  -0.0084   0.0116  -0.0080   0.00  999.9
2019/01/10 02:36:00.000  -2148745.2170   4426641.6594   4044656.2452   1   6   0.0062   0.0123   0.0116  -0.0084   0.0116  -0.0080   0.00  999.9
2019/01/10 02:36:30.000  -2148745.2170   4426641.6591   4044656.2450   1   6   0.0062   0.0123   0.0116  -0.0084   0.0116  -0.0080   0.00  999.9
2019/01/10 02:37:00.000  -2148745.2169   4426641.6589   4044656.2449   1   6   0.0062   0.0123   0.0116  -0.0084   0.0116  -0.0080   0.00  999.9
2019/01/10 02:37:30.000  -2148745.2169   4426641.6586   4044656.2447   1   6   0.0062   0.0123   0.0116  -0.0084   0.0116  -0.0080   0.00  999.9
2019/01/10 02:38:00.000  -2148745.2168   4426641.6583   4044656.2444   1   6   0.0062   0.0123   0.0116  -0.0084   0.0116  -0.0080   0.00  999.9
2019/01/10 02:38:30.000  -2148745.2166   4426641.6577   4044656.2439   1   6   0.0062   0.0123   0.0116  -0.0084   0.0116  -0.0080   0.00  999.9
2019/01/10 02:39:00.000  -2148745.2162   4426641.6567   4044656.2431   1   6   0.0062   0.0123   0.0116  -0.0084   0.0116  -0.0080   0.00  999.9
2019/01/10 02:39:30.000  -2148745.2154   4426641.6538   4044656.2407   1   6   0.0062   0.0123   0.0115  -0.0083   0.0115  -0.0080   0.00  999.9
2019/01/10 02:40:00.000  -2148745.2152   4426641.6483   4044656.2364   1   6   0.0061   0.0121   0.0114  -0.0082   0.0114  -0.0079   0.00  999.9
2019/01/10 02:40:30.000  -2148745.2150   4426641.6468   4044656.2353   1   6   0.0061   0.0121   0.0114  -0.0082   0.0114  -0.0079   0.00  999.9
2019/01/10 02:41:00.000  -2148745.2151   4426641.6465   4044656.2353   1   6   0.0060   0.0121   0.0114  -0.0082   0.0114  -0.0079   0.00  999.9
2019/01/10 02:41:30.000  -2148745.2151   4426641.6463   4044656.2352   1   6   0.0060   0.0121   0.0114  -0.0082   0.0114  -0.0079   0.00  999.9
2019/01/10 02:42:00.000  -2148745.2151   4426641.6462   4044656.2351   1   6   0.0060   0.0121   0.0114  -0.0082   0.0114  -0.0078   0.00  999.9
2019/01/10 02:42:30.000  -2148745.2151   4426641.6460   4044656.2351   1   6   0.0060   0.0121   0.0114  -0.0082   0.0114  -0.0078   0.00  999.9
2019/01/10 02:43:00.000  -2148745.2151   4426641.6459   4044656.2350   1   6   0.0060   0.0121   0.0114  -0.0082   0.0114  -0.0078   0.00  999.9
2019/01/10 02:43:30.000  -2148745.2150   4426641.6455   4044656.2347   1   6   0.0060   0.0121   0.0114  -0.0082   0.0114  -0.0078   0.00  999.9
2019/01/10 02:44:00.000  -2148745.2148   4426641.6446   4044656.2341   1   6   0.0060   0.0121   0.0114  -0.0082   0.0114  -0.0078   0.00  999.9
2019/01/10 02:44:30.000  -2148745.2143   4426641.6425   4044656.2325   1   6   0.0060   0.0120   0.0113  -0.0082   0.0114  -0.0078   0.00  999.9
2019/01/10 02:45:00.000  -2148745.2131   4426641.6353   4044656.2266   1   5   0.0060   0.0120   0.0113  -0.0081   0.0113  -0.0078   0.00  999.9
2019/01/10 02:45:30.000  -2148745.2127   4426641.6329   4044656.2247   1   5   0.0060   0.0119   0.0113  -0.0081   0.0113  -0.0077   0.00  999.9
2019/01/10 02:46:00.000  -2148745.2125   4426641.6320   4044656.2240   1   5   0.0059   0.0119   0.0112  -0.0081   0.0112  -0.0077   0.00  999.9
2019/01/10 02:46:30.000  -2148745.2124   4426641.6316   4044656.2237   1   5   0.0059   0.0119   0.0112  -0.0081   0.0112  -0.0077   0.00  999.9
2019/01/10 02:47:00.000  -2148745.2123   4426641.6314   4044656.2235   1   5   0.0059   0.0119   0.0112  -0.0081   0.0112  -0.0077   0.00  999.9
2019/01/10 02:47:30.000  -2148745.2123   4426641.6312   4044656.2234   1   5   0.0059   0.0119   0.0112  -0.0081   0.0112  -0.0077   0.00  999.9
2019/01/10 02:48:00.000  -2148745.2122   4426641.6310   4044656.2232   1   5   0.0059   0.0119   0.0112  -0.0081   0.0112  -0.0077   0.00  999.9
2019/01/10 02:48:30.000  -2148745.2121   4426641.6305   4044656.2228   1   5   0.0059   0.0119   0.0112  -0.0081   0.0112  -0.0077   0.00  999.9
2019/01/10 02:49:00.000  -2148745.2118   4426641.6296   4044656.2220   1   5   0.0059   0.0119   0.0112  -0.0081   0.0112  -0.0077   0.00  999.9
2019/01/10 02:49:30.000  -2148745.2114   4426641.6276   4044656.2203   1   5   0.0059   0.0119   0.0112  -0.0080   0.0112  -0.0077   0.00  999.9
2019/01/10 02:50:00.000  -2148745.2101   4426641.6199   4044656.2139   1   5   0.0059   0.0118   0.0111  -0.0080   0.0111  -0.0076   0.00  999.9
2019/01/10 02:50:30.000  -2148745.2096   4426641.6176   4044656.2121   1   5   0.0059   0.0118   0.0111  -0.0080   0.0111  -0.0076   0.00  999.9
2019/01/10 02:51:00.000  -2148745.2094   4426641.6168   4044656.2116   1   5   0.0059   0.0118   0.0111  -0.0080   0.0111  -0.0076   0.00  999.9
2019/01/10 02:51:30.000  -2148745.2094   4426641.6165   4044656.2115   1   5   0.0058   0.0118   0.0111  -0.0080   0.0111  -0.0076   0.00  999.9
2019/01/10 02:52:00.000  -2148745.2094   4426641.6164   4044656.2114   1   5   0.0058   0.0118   0.0111  -0.0080   0.0111  -0.0076   0.00  999.9
2019/01/10 02:52:30.000  -2148745.2094   4426641.6162   4044656.2113   1   5   0.0058   0.0118   0.0111  -0.0080   0.0111  -0.0076   0.00  999.9
2019/01/10 02:53:00.000  -2148745.2093   4426641.6160   4044656.2112   1   5   0.0058   0.0118   0.0111  -0.0080   0.0111  -0.0076   0.00  999.9
2019/01/10 02:53:30.000  -2148745.2093   4426641.6157   4044656.2110   1   5   0.0058   0.0118   0.0111  -0.0079   0.0111  -0.0076   0.00  999.9
2019/01/10 02:54:00.000  -2148745.2094   4426641.6153   4044656.2107   1   5   0.0058   0.0118   0.0111  -0.0079   0.0111  -0.0076   0.00  999.9
2019/01/10 02:54:30.000  -2148745.2095   4426641.6141   4044656.2098   1   5   0.0058   0.0117   0.0111  -0.0079   0.0111  -0.0076   0.00  999.9
2019/01/10 02:55:00.000  -2148745.2080   4426641.6061   4044656.2031   1   5   0.0058   0.0117   0.0110  -0.0079   0.0110  -0.0075   0.00  999.9
2019/01/10 02:55:30.000  -2148745.2074   4426641.6036   4044656.2010   1   5   0.0058   0.0116   0.0110  -0.0079   0.0110  -0.0075   0.00  999.9
2019/01/10 02:56:00.000  -2148745.2072   4426641.6027   4044656.2003   1   5   0.0058   0.0116   0.0110  -0.0078   0.0110  -0.0075   0.00  999.9
2019/01/10 02:56:30.000  -2148745.2072   4426641.6024   4044656.2000   1   5   0.0058   0.0116   0.0110  -0.0078   0.0110  -0.0075   0.00  999.9
2019/01/10 02:57:00.000  -2148745.2071   4426641.6021   4044656.1998   1   5   0.0058   0.0116   0.0110  -0.0078   0.0110  -0.0075   0.00  999.9
2019/01/10 02:57:30.000  -2148745.2071   4426641.6019   4044656.1997   1   5   0.0058   0.0116   0.0110  -0.0078   0.0110  -0.0075   0.00  999.9
2019/01/10 02:58:00.000  -2148745.2070   4426641.6017   4044656.1995   1   5   0.0058   0.0116   0.0110  -0.0078   0.0110  -0.0075   0.00  999.9
2019/01/10 02:58:30.000  -2148745.2069   4426641.6013   4044656.1991   1   5   0.0058   0.0116   0.0109  -0.0078   0.0110  -0.0075   0.00  999.9
2019/01/10 02:59:00.000  -2148745.2068   4426641.6008   4044656.1986   1   5   0.0058   0.0116   0.0109  -0.0078   0.0109  -0.0075   0.00  999.9
2019/01/10 02:59:30.000  -2148745.2068   4426641.5992   4044656.1974   1   5   0.0057   0.0116   0.0109  -0.0078   0.0109  -0.0075   0.00  999.9
2019/01/10 03:00:00.000  -2148745.2054   4426641.5914   4044656.1909   1   5   0.0057   0.0115   0.0108  -0.0078   0.0109  -0.0074   0.00  999.9
2019/01/10 03:00:30.000  -2148745.2053   4426641.5896   4044656.1895   1   5   0.0057   0.0115   0.0108  -0.0077   0.0108  -0.0074   0.00  999.9
2019/01/10 03:01:00.000  -2148745.2051   4426641.5889   4044656.1889   1   5   0.0057   0.0115   0.0108  -0.0077   0.0108  -0.0074   0.00  999.9
2019/01/10 03:01:30.000  -2148745.2051   4426641.5886   4044656.1887   1   6   0.0057   0.0115   0.0108  -0.0077   0.0108  -0.0074   0.00  999.9
2019/01/10 03:02:00.000  -2148745.2051   4426641.5884   4044656.1885   1   6   0.0057   0.0115   0.0108  -0.0077   0.0108  -0.0074   0.00  999.9
2019/01/10 03:02:30.000  -2148745.2051   4426641.5883   4044656.1884   1   6   0.0057   0.0115   0.0108  -0.0077   0.0108  -0.0074   0.00  999.9
2019/01/10 03:03:00.000  -2148745.2050   4426641.5880   4044656.1883   1   6   0.0057   0.0115   0.0108  -0.0077   0.0108  -0.0074   0.00  999.9
2019/01/10 03:03:30.000  -2148745.2049   4426641.5876   4044656.1879   1   6   0.0057   0.0115   0.0108  -0.0077   0.0108  -0.0074   0.00  999.9
2019/01/10 03:04:00.000  -2148745.2047   4426641.5868   4044656.1872   1   6   0.0057   0.0115   0.0108  -0.0077   0.0108  -0.0074   0.00  999.9
2019/01/10 03:04:30.000  -2148745.2043   4426641.5845   4044656.1856   1   6   0.0057   0.0115   0.0108  -0.0077   0.0108  -0.0074   0.00  999.9
2019/01/10 03:05:00.000  -2148745.2027   4426641.5763   4044656.1789   1   6   0.0056   0.0114   0.0107  -0.0077   0.0107  -0.0073   0.00  999.9
2019/01/10 03:05:30.000  -2148745.2021   4426641.5739   4044656.1766   1   6   0.0056   0.0114   0.0107  -0.0077   0.0107  -0.0073   0.00  999.9
2019/01/10 03:06:00.000  -2148745.2019   4426641.5730   4044656.1758   1   6   0.0056   0.0114   0.0107  -0.0077   0.0107  -0.0073   0.00  999.9
2019/01/10 03:06:30.000  -2148745.2018   4426641.5726   4044656.1754   1   6   0.0056   0.0114   0.0107  -0.0077   0.0107  -0.0073   0.00  999.9
2019/01/10 03:07:00.000  -2148745.2017   4426641.5724   4044656.1752   1   6   0.0056   0.0114   0.0107  -0.0076   0.0107  -0.0073   0.00  999.9
2019/01/10 03:07:30.000  -2148745.2017   4426641.5722   4044656.1750   1   6   0.0056   0.0114   0.0107  -0.0076   0.0107  -0.0073   0.00  999.9
2019/01/10 03:08:00.000  -2148745.2016   4426641.5720   4044656.1748   1   6   0.0056   0.0114   0.0107  -0.0076   0.0107  -0.0073   0.00  999.9
2019/01/10 03:08:30.000  -2148745.2007   4426641.5695   4044656.1727   1   6   0.0055   0.0111   0.0105  -0.0075   0.0105  -0.0072   0.00   17.5
2019/01/10 03:09:00.000  -2148745.2003   4426641.5685   4044656.1718   1   6   0.0055   0.0111   0.0105  -0.0075   0.0105  -0.0072   0.00  999.9
2019/01/10 03:09:30.000  -2148745.1999   4426641.5664   4044656.1701   1   6   0.0055   0.0111   0.0105  -0.0075   0.0105  -0.0072   0.00  999.9
2019/01/10 03:10:00.000  -2148745.1984   4426641.5587   4044656.1640   1   6   0.0055   0.0110   0.0104  -0.0074   0.0104  -0.0071   0.00  999.9
2019/01/10 03:10:30.000  -2148745.1983   4426641.5571   4044656.1627   1   6   0.0055   0.0109   0.0104  -0.0074   0.0103  -0.0071   0.00  999.9
2019/01/10 03:11:00.000  -2148745.1984   4426641.5568   4044656.1626   1   6   0.0055   0.0109   0.0104  -0.0074   0.0103  -0.0071   0.00  999.9
2019/01/10 03:11:30.000  -2148745.1984   4426641.5567   4044656.1625   1   6   0.0054   0.0109   0.0104  -0.0074   0.0103  -0.0071   0.00  999.9
2019/01/10 03:12:00.000  -2148745.1984   4426641.5566   4044656.1624   1   6   0.0054   0.0109   0.0104  -0.0074   0.0103  -0.0071   0.00  999.9
2019/01/10 03:12:30.000  -2148745.1985   4426641.5565   4044656.1624   1   6   0.0054   0.0109   0.0104  -0.0074   0.0103  -0.0071   0.00  999.9
2019/01/10 03:13:00.000  -2148745.1985   4426641.5565   4044656.1624   1   6   0.0054   0.0109   0.0104  -0.0074   0.0103  -0.0071   0.00  999.9
2019/01/10 03:13:30.000  -2148745.1986   4426641.5564   4044656.1624   1   6   0.0054   0.0109   0.0103  -0.0074   0.0103  -0.0071   0.00  999.9
2019/01/10 03:14:00.000  -2148745.1986   4426641.5558   4044656.1620   1   6   0.0054   0.0109   0.0103  -0.0074   0.0103  -0.0071   0.00  999.9
2019/01/10 03:14:30.000  -2148745.1984   4426641.5543   4044656.1611   1   6   0.0054   0.0109   0.0103  -0.0073   0.0103  -0.0070   0.00  999.9
2019/01/10 03:15:00.000  -2148745.1969   4426641.5466   4044656.1550   1   6   0.0054   0.0108   0.0102  -0.0073   0.0102  -0.0070   0.00  999.9
2019/01/10 03:15:30.000  -2148745.1968   4426641.5452   4044656.1540   1   6   0.0054   0.0108   0.0102  -0.0073   0.0102  -0.0070   0.00  999.9
2019/01/10 03:16:00.000  -2148745.1967   4426641.5445   4044656.1535   1   6   0.0054   0.0108   0.0102  -0.0073   0.0102  -0.0070   0.00  999.9
2019/01/10 03:16:30.000  -2148745.1967   4426641.5442   4044656.1533   1   6   0.0054   0.0108   0.0102  -0.0073   0.0102  -0.0070   0.00  999.9
2019/01/10 03:17:00.000  -2148745.1967   4426641.5440   4044656.1532   1   6   0.0054   0.0108   0.0102  -0.0073   0.0102  -0.0070   0.00  999.9
2019/01/10 03:17:30.000  -2148745.1967   4426641.5439   4044656.1532   1   6   0.0054   0.0108   0.0102  -0.0073   0.0102  -0.0070   0.00  999.9
2019/01/10 03:18:00.000  -2148745.1967   4426641.5437   4044656.1531   1   6   0.0054   0.0108   0.0102  -0.0073   0.0102  -0.0070   0.00  999.9
2019/01/10 03:18:30.000  -2148745.1966   4426641.5434   4044656.1529   1   7   0.0054   0.0108   0.0102  -0.0073   0.0102  -0.0070   0.00  999.9
2019/01/10 03:19:00.000  -2148745.1965   4426641.5427   4044656.1524   1   7   0.0054   0.0108   0.0102  -0.0073   0.0101  -0.0069   0.00  999.9
2019/01/10 03:19:30.000  -2148745.1961   4426641.5408   4044656.1511   1   7   0.0054   0.0107   0.0102  -0.0072   0.0101  -0.0069   0.00  999.9
2019/01/10 03:20:00.000  -2148745.1945   4426641.5330   4044656.1452   1   7   0.0053   0.0107   0.0101  -0.0072   0.0101  -0.0069   0.00  999.9
2019/01/10 03:20:30.000  -2148745.1944   4426641.5318   4044656.1448   1   7   0.0053   0.0106   0.0101  -0.0072   0.0100  -0.0069   0.00  999.9
2019/01/10 03:21:00.000  -2148745.1944   4426641.5315   4044656.1448   1   7   0.0053   0.0106   0.0101  -0.0072   0.0100  -0.0069   0.00  999.9
2019/01/10 03:21:30.000  -2148745.1944   4426641.5313   4044656.1447   1   7   0.0053   0.0106   0.0101  -0.0072   0.0100  -0.0069   0.00  999.9
2019/01/10 03:22:00.000  -2148745.1944   4426641.5312   4044656.1446   1   7   0.0053   0.0106   0.0101  -0.0072   0.0100  -0.0069   0.00  999.9
2019/01/10 03:22:30.000  -2148745.1944   4426641.5311   4044656.1446   1   7   0.0053   0.0106   0.0101  -0.0072   0.0100  -0.0069   0.00  999.9
2019/01/10 03:23:00.000  -2148745.1943   4426641.5310   4044656.1445   1   7   0.0053   0.0106   0.0101  -0.0072   0.0100  -0.0069   0.00  999.9
2019/01/10 03:23:30.000  -2148745.1943   4426641.5307   4044656.1443   1   7   0.0053   0.0106   0.0101  -0.0072   0.0100  -0.0069   0.00  999.9
2019/01/10 03:24:00.000  -2148745.1941   4426641.5301   4044656.1439   1   7   0.0053   0.0106   0.0101  -0.0072   0.0100  -0.0069   0.00  999.9
2019/01/10 03:24:30.000  -2148745.1938   4426641.5286   4044656.1429   1   7   0.0053   0.0106   0.0101  -0.0072   0.0100  -0.0069   0.00  999.9
2019/01/10 03:25:00.000  -2148745.1918   4426641.5203   4044656.1368   1   7   0.0053   0.0105   0.0100  -0.0071   0.0099  -0.0068   0.00  999.9
2019/01/10 03:25:30.000  -2148745.1917   4426641.5190   4044656.1363   1   7   0.0053   0.0105   0.0100  -0.0071   0.0099  -0.0068   0.00  999.9
2019/01/10 03:26:00.000  -2148745.1916   4426641.5186   4044656.1362   1   7   0.0053   0.0105   0.0100  -0.0071   0.0099  -0.0068   0.00  999.9
2019/01/10 03:26:30.000  -2148745.1915   4426641.5183   4044656.1360   1   7   0.0053   0.0105   0.0100  -0.0071   0.0099  -0.0068   0.00  999.9
2019/01/10 03:27:00.000  -2148745.1915   4426641.5182   4044656.1359   1   7   0.0053   0.0105   0.0100  -0.0071   0.0099  -0.0068   0.00  999.9
2019/01/10 03:27:30.000  -2148745.1915   4426641.5181   4044656.1358   1   7   0.0053   0.0105   0.0100  -0.0071   0.0099  -0.0068   0.00  999.9
2019/01/10 03:28:00.000  -2148745.1914   4426641.5180   4044656.1358   1   7   0.0053   0.0105   0.0100  -0.0071   0.0099  -0.0068   0.00  999.9
2019/01/10 03:28:30.000  -2148745.1914   4426641.5178   4044656.1357   1   7   0.0053   0.0105   0.0100  -0.0071   0.0099  -0.0068   0.00  999.9
2019/01/10 03:29:00.000  -2148745.1913   4426641.5172   4044656.1354   1   7   0.0053   0.0105   0.0100  -0.0071   0.0099  -0.0068   0.00  999.9
2019/01/10 03:29:30.000  -2148745.1907   4426641.5150   4044656.1340   1   7   0.0053   0.0105   0.0099  -0.0071   0.0099  -0.0068   0.00  999.9
2019/01/10 03:30:00.000  -2148745.1880   4426641.5057   4044656.1276   1   7   0.0052   0.0104   0.0099  -0.0071   0.0098  -0.0067   0.00  999.9
