% program   : RTKLIB ver.2.4.3
% inp file  : D:\mycode\vscode\rtklib-v1\rtklib-v1\new data\bjfs0100.19n
% inp file  : D:\mycode\vscode\rtklib-v1\rtklib-v1\new data\bjfs0100.19o
% inp file  : D:\mycode\vscode\rtklib-v1\rtklib-v1\new data\igs20354.clk
% inp file  : D:\mycode\vscode\rtklib-v1\rtklib-v1\new data\igs20354.sp3
% inp file  : D:\mycode\vscode\rtklib-v1\rtklib-v1\new data\igsg0100.19i
% inp file  : D:\mycode\vscode\rtklib-v1\rtklib-v1\new data\igs20427.erp
% inp file  : D:\mycode\vscode\rtklib-v1\rtklib-v1\new data\igs14.atx
% obs start : 2019/01/10 00:10:00.0 GPST (week2035 346200.0s)
% obs end   : 2019/01/10 03:30:00.0 GPST (week2035 358200.0s)
% pos mode  : PPP Static
% solution  : Forward
% elev mask : 15.0 deg
% dynamics  : off
% tidecorr  : off
% tropo opt : Estimate ZTD
% ephemeris : Precise
% navi sys  : GPS
% antenna1  :                       ( 0.0000  0.0000  0.0000)
%
% (x/y/z-ecef=WGS84,Q=1:fix,2:float,3:sbas,4:dgps,5:single,6:ppp,ns=# of satellites)
%  GPST                      x-ecef(m)      y-ecef(m)      z-ecef(m)   Q  ns   sdx(m)   sdy(m)   sdz(m)  sdxy(m)  sdyz(m)  sdzx(m) age(s)  ratio
2019/01/10 00:10:00.000  -2148745.2359   4426642.6227   4044654.8557   6   7   1.6618   2.3513   2.5640  -1.4653   1.8937  -1.1145   0.00    0.0
2019/01/10 00:10:30.000  -2148745.0923   4426642.2123   4044655.1930   6   7   1.1697   1.6492   1.7705  -1.0259   1.3119  -0.7720   0.00    0.0
2019/01/10 00:11:00.000  -2148745.1878   4426642.3639   4044655.9771   6   7   0.9521   1.3398   1.4212  -0.8323   1.0564  -0.6218   0.00    0.0
2019/01/10 00:11:30.000  -2148745.3780   4426642.3479   4044656.0389   6   7   0.8232   1.1578   1.2167  -0.7186   0.9073  -0.5344   0.00    0.0
2019/01/10 00:12:00.000  -2148745.4833   4426642.7382   4044656.4108   6   7   0.7359   1.0352   1.0797  -0.6422   0.8079  -0.4764   0.00    0.0
2019/01/10 00:12:30.000  -2148745.5031   4426642.6098   4044656.2449   6   7   0.6719   0.9459   0.9802  -0.5868   0.7359  -0.4346   0.00    0.0
2019/01/10 00:13:00.000  -2148745.4138   4426642.3439   4044656.0438   6   7   0.6190   0.8695   0.8883  -0.5380   0.6698  -0.3957   0.00    0.0
2019/01/10 00:13:30.000  -2148745.4976   4426642.5375   4044656.2313   6   7   0.5714   0.7977   0.7935  -0.4906   0.6023  -0.3558   0.00    0.0
2019/01/10 00:14:00.000  -2148745.6396   4426642.7372   4044656.3991   6   7   0.5243   0.7227   0.6855  -0.4384   0.5269  -0.3119   0.00    0.0
2019/01/10 00:14:30.000  -2148745.5872   4426642.6440   4044656.4145   6   7   0.4729   0.6370   0.5588  -0.3757   0.4422  -0.2656   0.00    0.0
2019/01/10 00:15:00.000  -2148745.2682   4426642.1293   4044656.0321   6   7   0.4263   0.5570   0.4523  -0.3184   0.3745  -0.2335   0.00    0.0
2019/01/10 00:15:30.000  -2148745.2512   4426642.0725   4044656.0349   6   7   0.4072   0.5340   0.4321  -0.3056   0.3609  -0.2273   0.00    0.0
2019/01/10 00:16:00.000  -2148745.2984   4426642.1423   4044656.0617   6   7   0.3937   0.5194   0.4217  -0.2992   0.3537  -0.2237   0.00    0.0
2019/01/10 00:16:30.000  -2148745.2736   4426642.1640   4044656.0300   6   7   0.3824   0.5076   0.4140  -0.2944   0.3482  -0.2209   0.00    0.0
2019/01/10 00:17:00.000  -2148745.2792   4426642.1566   4044656.0215   6   7   0.3726   0.4974   0.4077  -0.2904   0.3437  -0.2184   0.00    0.0
2019/01/10 00:17:30.000  -2148745.2533   4426642.2185   4044656.0635   6   7   0.3637   0.4883   0.4021  -0.2868   0.3397  -0.2162   0.00    0.0
2019/01/10 00:18:00.000  -2148745.2424   4426642.1990   4044656.0723   6   7   0.3548   0.4783   0.3949  -0.2822   0.3346  -0.2136   0.00    0.0
2019/01/10 00:18:30.000  -2148745.2124   4426642.2035   4044656.0472   6   7   0.3451   0.4662   0.3841  -0.2757   0.3274  -0.2104   0.00    0.0
2019/01/10 00:19:00.000  -2148745.1155   4426642.1798   4044656.0630   6   7   0.3330   0.4481   0.3658  -0.2648   0.3154  -0.2057   0.00    0.0
2019/01/10 00:19:30.000  -2148744.9943   4426642.0099   4044656.0383   6   7   0.3148   0.4136   0.3297  -0.2430   0.2911  -0.1974   0.00    0.0
2019/01/10 00:20:00.000  -2148744.8505   4426641.7898   4044655.9528   6   7   0.2905   0.3551   0.2756  -0.2071   0.2512  -0.1835   0.00    0.0
2019/01/10 00:20:30.000  -2148744.8253   4426641.7317   4044655.9438   6   7   0.2822   0.3421   0.2652  -0.2006   0.2429  -0.1806   0.00    0.0
2019/01/10 00:21:00.000  -2148744.7824   4426641.7200   4044655.9318   6   7   0.2769   0.3361   0.2609  -0.1983   0.2396  -0.1788   0.00    0.0
2019/01/10 00:21:30.000  -2148744.8060   4426641.7596   4044655.9461   6   7   0.2727   0.3321   0.2583  -0.1969   0.2374  -0.1773   0.00    0.0
2019/01/10 00:22:00.000  -2148744.7968   4426641.7851   4044655.9487   6   7   0.2689   0.3289   0.2564  -0.1960   0.2358  -0.1760   0.00    0.0
2019/01/10 00:22:30.000  -2148744.8053   4426641.8141   4044655.9661   6   7   0.2655   0.3262   0.2547  -0.1952   0.2345  -0.1748   0.00    0.0
2019/01/10 00:23:00.000  -2148744.8252   4426641.8515   4044655.9786   6   7   0.2618   0.3226   0.2524  -0.1938   0.2325  -0.1734   0.00    0.0
2019/01/10 00:23:30.000  -2148744.8557   4426641.8870   4044656.0045   6   7   0.2577   0.3172   0.2485  -0.1913   0.2292  -0.1717   0.00    0.0
2019/01/10 00:24:00.000  -2148744.8847   4426641.9273   4044656.0163   6   7   0.2521   0.3075   0.2410  -0.1861   0.2226  -0.1688   0.00    0.0
2019/01/10 00:24:30.000  -2148744.8800   4426641.9078   4044655.9851   6   7   0.2424   0.2847   0.2233  -0.1725   0.2065  -0.1620   0.00    0.0
2019/01/10 00:25:00.000  -2148744.7688   4426641.6963   4044655.9339   6   7   0.2257   0.2402   0.1901  -0.1446   0.1749  -0.1475   0.00    0.0
2019/01/10 00:25:30.000  -2148744.7643   4426641.6593   4044655.9442   6   7   0.2200   0.2303   0.1826  -0.1389   0.1677  -0.1438   0.00    0.0
2019/01/10 00:26:00.000  -2148744.7566   4426641.6503   4044655.9366   6   7   0.2167   0.2265   0.1798  -0.1369   0.1650  -0.1420   0.00    0.0
2019/01/10 00:26:30.000  -2148744.7591   4426641.6531   4044655.9380   6   7   0.2142   0.2242   0.1781  -0.1358   0.1635  -0.1407   0.00    0.0
2019/01/10 00:27:00.000  -2148744.7667   4426641.6526   4044655.9379   6   7   0.2120   0.2226   0.1769  -0.1352   0.1625  -0.1396   0.00    0.0
2019/01/10 00:27:30.000  -2148744.7652   4426641.6545   4044655.9358   6   7   0.2100   0.2213   0.1760  -0.1347   0.1617  -0.1386   0.00    0.0
2019/01/10 00:28:00.000  -2148744.7631   4426641.6565   4044655.9315   6   7   0.2078   0.2195   0.1746  -0.1338   0.1604  -0.1375   0.00    0.0
2019/01/10 00:28:30.000  -2148744.7646   4426641.6623   4044655.9297   6   7   0.2052   0.2164   0.1723  -0.1320   0.1581  -0.1358   0.00    0.0
2019/01/10 00:29:00.000  -2148744.7603   4426641.6696   4044655.9400   6   7   0.2014   0.2104   0.1677  -0.1282   0.1535  -0.1330   0.00    0.0
2019/01/10 00:29:30.000  -2148744.7460   4426641.6230   4044655.9428   6   7   0.1945   0.1960   0.1569  -0.1183   0.1425  -0.1269   0.00    0.0
2019/01/10 00:30:00.000  -2148744.6828   4426641.4916   4044655.8962   6   7   0.1818   0.1664   0.1356  -0.0974   0.1206  -0.1145   0.00    0.0
2019/01/10 00:30:30.000  -2148744.6757   4426641.5055   4044655.8706   6   8   0.1773   0.1597   0.1303  -0.0926   0.1152  -0.1111   0.00    0.0
2019/01/10 00:31:00.000  -2148744.6801   4426641.5071   4044655.8635   6   8   0.1749   0.1572   0.1283  -0.0910   0.1133  -0.1095   0.00    0.0
2019/01/10 00:31:30.000  -2148744.6877   4426641.5142   4044655.8669   6   8   0.1731   0.1558   0.1271  -0.0901   0.1122  -0.1085   0.00    0.0
2019/01/10 00:32:00.000  -2148744.6996   4426641.5204   4044655.8748   6   8   0.1716   0.1549   0.1263  -0.0896   0.1115  -0.1076   0.00    0.0
2019/01/10 00:32:30.000  -2148744.7145   4426641.5255   4044655.8807   6   8   0.1703   0.1541   0.1256  -0.0892   0.1110  -0.1069   0.00    0.0
2019/01/10 00:33:00.000  -2148744.7243   4426641.5307   4044655.8864   6   8   0.1687   0.1530   0.1247  -0.0885   0.1101  -0.1059   0.00    0.0
2019/01/10 00:33:30.000  -2148744.7135   4426641.5155   4044655.8835   6   8   0.1667   0.1511   0.1230  -0.0870   0.1085  -0.1044   0.00    0.0
2019/01/10 00:34:00.000  -2148744.7023   4426641.4867   4044655.8863   6   8   0.1636   0.1475   0.1199  -0.0839   0.1054  -0.1018   0.00    0.0
2019/01/10 00:34:30.000  -2148744.6809   4426641.4353   4044655.8895   6   8   0.1579   0.1387   0.1128  -0.0765   0.0981  -0.0966   0.00    0.0
2019/01/10 00:35:00.000  -2148744.6481   4426641.3511   4044655.8725   6   8   0.1481   0.1198   0.0989  -0.0610   0.0839  -0.0871   0.00    0.0
2019/01/10 00:35:30.000  -2148744.6402   4426641.3478   4044655.8824   6   8   0.1445   0.1154   0.0952  -0.0573   0.0803  -0.0843   0.00    0.0
2019/01/10 00:36:00.000  -2148744.6479   4426641.3525   4044655.8919   6   7   0.1432   0.1142   0.0942  -0.0569   0.0794  -0.0837   0.00    0.0
2019/01/10 00:36:30.000  -2148744.6554   4426641.3553   4044655.8958   6   7   0.1423   0.1135   0.0936  -0.0569   0.0790  -0.0833   0.00    0.0
2019/01/10 00:37:00.000  -2148744.6717   4426641.3512   4044655.8984   6   7   0.1416   0.1131   0.0932  -0.0569   0.0787  -0.0829   0.00    0.0
2019/01/10 00:37:30.000  -2148744.6861   4426641.3482   4044655.8994   6   6   0.1409   0.1128   0.0929  -0.0569   0.0785  -0.0826   0.00    0.0
2019/01/10 00:38:00.000  -2148744.6868   4426641.3454   4044655.8982   6   6   0.1402   0.1123   0.0926  -0.0567   0.0783  -0.0821   0.00    0.0
2019/01/10 00:38:30.000  -2148744.6919   4426641.3352   4044655.8940   6   6   0.1393   0.1116   0.0920  -0.0563   0.0778  -0.0815   0.00    0.0
2019/01/10 00:39:00.000  -2148744.6939   4426641.3167   4044655.8877   6   6   0.1380   0.1100   0.0908  -0.0552   0.0768  -0.0805   0.00    0.0
2019/01/10 00:39:30.000  -2148744.6925   4426641.2724   4044655.8738   6   6   0.1355   0.1059   0.0879  -0.0521   0.0741  -0.0781   0.00    0.0
2019/01/10 00:40:00.000  -2148744.6878   4426641.2574   4044655.8604   6   6   0.1301   0.0951   0.0806  -0.0431   0.0671  -0.0726   0.00    0.0
2019/01/10 00:40:30.000  -2148744.6788   4426641.2455   4044655.8612   6   6   0.1284   0.0928   0.0789  -0.0413   0.0657  -0.0712   0.00    0.0
2019/01/10 00:41:00.000  -2148744.6835   4426641.2368   4044655.8596   6   6   0.1275   0.0920   0.0783  -0.0408   0.0652  -0.0705   0.00    0.0
2019/01/10 00:41:30.000  -2148744.6846   4426641.2349   4044655.8567   6   6   0.1269   0.0916   0.0779  -0.0407   0.0649  -0.0701   0.00    0.0
2019/01/10 00:42:00.000  -2148744.6875   4426641.2342   4044655.8551   6   6   0.1263   0.0914   0.0777  -0.0406   0.0648  -0.0698   0.00    0.0
2019/01/10 00:42:30.000  -2148744.6906   4426641.2320   4044655.8537   6   6   0.1258   0.0912   0.0776  -0.0406   0.0647  -0.0696   0.00    0.0
2019/01/10 00:43:00.000  -2148744.6926   4426641.2322   4044655.8537   6   6   0.1253   0.0909   0.0773  -0.0405   0.0645  -0.0693   0.00    0.0
2019/01/10 00:43:30.000  -2148744.6933   4426641.2337   4044655.8538   6   6   0.1246   0.0904   0.0769  -0.0403   0.0642  -0.0688   0.00    0.0
2019/01/10 00:44:00.000  -2148744.7030   4426641.2292   4044655.8514   6   7   0.1235   0.0894   0.0762  -0.0395   0.0636  -0.0680   0.00    0.0
2019/01/10 00:44:30.000  -2148744.6957   4426641.2211   4044655.8384   6   7   0.1213   0.0866   0.0742  -0.0370   0.0618  -0.0662   0.00    0.0
2019/01/10 00:45:00.000  -2148744.6905   4426641.2057   4044655.8286   6   7   0.1166   0.0791   0.0690  -0.0293   0.0570  -0.0617   0.00    0.0
2019/01/10 00:45:30.000  -2148744.7003   4426641.2185   4044655.8305   6   7   0.1150   0.0774   0.0678  -0.0277   0.0559  -0.0605   0.00    0.0
2019/01/10 00:46:00.000  -2148744.6998   4426641.2212   4044655.8299   6   7   0.1143   0.0769   0.0673  -0.0273   0.0556  -0.0600   0.00    0.0
2019/01/10 00:46:30.000  -2148744.7033   4426641.2199   4044655.8302   6   7   0.1137   0.0766   0.0671  -0.0272   0.0554  -0.0597   0.00    0.0
2019/01/10 00:47:00.000  -2148744.7094   4426641.2171   4044655.8311   6   7   0.1132   0.0764   0.0669  -0.0272   0.0553  -0.0595   0.00    0.0
2019/01/10 00:47:30.000  -2148744.7143   4426641.2167   4044655.8312   6   7   0.1128   0.0762   0.0668  -0.0272   0.0552  -0.0593   0.00    0.0
2019/01/10 00:48:00.000  -2148744.7272   4426641.2136   4044655.8329   6   7   0.1123   0.0760   0.0666  -0.0272   0.0551  -0.0590   0.00    0.0
2019/01/10 00:48:30.000  -2148744.7290   4426641.2129   4044655.8333   6   7   0.1117   0.0757   0.0664  -0.0269   0.0549  -0.0587   0.00    0.0
2019/01/10 00:49:00.000  -2148744.7445   4426641.2103   4044655.8361   6   7   0.1108   0.0749   0.0658  -0.0262   0.0544  -0.0580   0.00    0.0
2019/01/10 00:49:30.000  -2148744.7434   4426641.2054   4044655.8379   6   7   0.1090   0.0729   0.0643  -0.0238   0.0531  -0.0565   0.00    0.0
2019/01/10 00:50:00.000  -2148744.7234   4426641.1856   4044655.8220   6   7   0.1049   0.0673   0.0603  -0.0154   0.0494  -0.0526   0.00    0.0
2019/01/10 00:50:30.000  -2148744.7106   4426641.1793   4044655.8163   6   7   0.1036   0.0660   0.0594  -0.0135   0.0486  -0.0516   0.00    0.0
2019/01/10 00:51:00.000  -2148744.7090   4426641.1780   4044655.8167   6   7   0.1030   0.0656   0.0590  -0.0129   0.0483  -0.0512   0.00    0.0
2019/01/10 00:51:30.000  -2148744.7108   4426641.1783   4044655.8178   6   7   0.1026   0.0654   0.0588  -0.0128   0.0482  -0.0510   0.00    0.0
2019/01/10 00:52:00.000  -2148744.7161   4426641.1770   4044655.8176   6   7   0.1022   0.0652   0.0587  -0.0129   0.0481  -0.0508   0.00    0.0
2019/01/10 00:52:30.000  -2148744.7206   4426641.1751   4044655.8164   6   7   0.1019   0.0651   0.0586  -0.0131   0.0481  -0.0507   0.00    0.0
2019/01/10 00:53:00.000  -2148744.7295   4426641.1726   4044655.8168   6   7   0.1015   0.0650   0.0585  -0.0131   0.0480  -0.0505   0.00    0.0
2019/01/10 00:53:30.000  -2148744.7292   4426641.1693   4044655.8158   6   7   0.1011   0.0647   0.0583  -0.0128   0.0478  -0.0502   0.00    0.0
2019/01/10 00:54:00.000  -2148744.7325   4426641.1570   4044655.8117   6   7   0.1004   0.0642   0.0579  -0.0120   0.0475  -0.0497   0.00    0.0
2019/01/10 00:54:30.000  -2148744.7281   4426641.1287   4044655.7985   6   7   0.0989   0.0627   0.0568  -0.0086   0.0465  -0.0485   0.00    0.0
2019/01/10 00:55:00.000  -2148744.7196   4426641.1302   4044655.7911   6   7   0.0957   0.0585   0.0537   0.0115   0.0437  -0.0453   0.00    0.0
2019/01/10 00:55:30.000  -2148744.7145   4426641.1434   4044655.7960   6   7   0.0947   0.0575   0.0530   0.0129   0.0430  -0.0445   0.00    0.0
2019/01/10 00:56:00.000  -2148744.7149   4426641.1463   4044655.7969   6   7   0.0942   0.0571   0.0527   0.0132   0.0428  -0.0442   0.00    0.0
2019/01/10 00:56:30.000  -2148744.7144   4426641.1474   4044655.7969   6   7   0.0938   0.0570   0.0525   0.0132   0.0427  -0.0440   0.00    0.0
2019/01/10 00:57:00.000  -2148744.7202   4426641.1465   4044655.7974   6   7   0.0936   0.0568   0.0525   0.0130   0.0426  -0.0438   0.00    0.0
2019/01/10 00:57:30.000  -2148744.7270   4426641.1459   4044655.7982   6   7   0.0933   0.0568   0.0524   0.0129   0.0426  -0.0437   0.00    0.0
2019/01/10 00:58:00.000  -2148744.7305   4426641.1441   4044655.7977   6   7   0.0930   0.0566   0.0523   0.0128   0.0425  -0.0436   0.00    0.0
2019/01/10 00:58:30.000  -2148744.7344   4426641.1443   4044655.7986   6   7   0.0927   0.0564   0.0521   0.0129   0.0424  -0.0434   0.00    0.0
2019/01/10 00:59:00.000  -2148744.7368   4426641.1445   4044655.8002   6   7   0.0921   0.0560   0.0518   0.0133   0.0421  -0.0430   0.00    0.0
2019/01/10 00:59:30.000  -2148744.7420   4426641.1371   4044655.7978   6   7   0.0911   0.0548   0.0510   0.0147   0.0413  -0.0421   0.00    0.0
2019/01/10 01:00:00.000  -2148744.7284   4426641.1194   4044655.7815   6   7   0.0885   0.0515   0.0486   0.0185   0.0392  -0.0395   0.00    0.0
2019/01/10 01:00:30.000  -2148744.7284   4426641.1096   4044655.7775   6   7   0.0877   0.0507   0.0480   0.0191   0.0386  -0.0388   0.00    0.0
2019/01/10 01:01:00.000  -2148744.7337   4426641.1042   4044655.7765   6   7   0.0873   0.0504   0.0478   0.0191   0.0384  -0.0386   0.00    0.0
2019/01/10 01:01:30.000  -2148744.7399   4426641.1012   4044655.7752   6   7   0.0870   0.0502   0.0476   0.0191   0.0383  -0.0385   0.00    0.0
2019/01/10 01:02:00.000  -2148744.7473   4426641.0985   4044655.7741   6   7   0.0868   0.0502   0.0476   0.0190   0.0383  -0.0384   0.00    0.0
2019/01/10 01:02:30.000  -2148744.7532   4426641.0969   4044655.7736   6   7   0.0866   0.0501   0.0475   0.0189   0.0382  -0.0383   0.00    0.0
2019/01/10 01:03:00.000  -2148744.7558   4426641.0956   4044655.7724   6   7   0.0864   0.0500   0.0474   0.0188   0.0382  -0.0382   0.00    0.0
2019/01/10 01:03:30.000  -2148744.7580   4426641.0935   4044655.7709   6   7   0.0861   0.0498   0.0473   0.0188   0.0381  -0.0381   0.00    0.0
2019/01/10 01:04:00.000  -2148744.7584   4426641.0899   4044655.7677   6   7   0.0857   0.0495   0.0471   0.0189   0.0378  -0.0378   0.00    0.0
2019/01/10 01:04:30.000  -2148744.7588   4426641.0866   4044655.7635   6   7   0.0849   0.0485   0.0464   0.0195   0.0372  -0.0370   0.00    0.0
2019/01/10 01:05:00.000  -2148744.7530   4426641.0805   4044655.7557   6   7   0.0828   0.0458   0.0444   0.0213   0.0354  -0.0348   0.00    0.0
2019/01/10 01:05:30.000  -2148744.7662   4426641.0783   4044655.7591   6   7   0.0821   0.0451   0.0439   0.0216   0.0350  -0.0343   0.00    0.0
2019/01/10 01:06:00.000  -2148744.7742   4426641.0801   4044655.7611   6   7   0.0818   0.0449   0.0437   0.0216   0.0348  -0.0341   0.00    0.0
2019/01/10 01:06:30.000  -2148744.7809   4426641.0813   4044655.7628   6   7   0.0816   0.0448   0.0436   0.0215   0.0347  -0.0340   0.00    0.0
2019/01/10 01:07:00.000  -2148744.7856   4426641.0823   4044655.7641   6   7   0.0814   0.0447   0.0435   0.0214   0.0347  -0.0339   0.00    0.0
2019/01/10 01:07:30.000  -2148744.7927   4426641.0815   4044655.7649   6   7   0.0812   0.0446   0.0435   0.0213   0.0346  -0.0339   0.00    0.0
2019/01/10 01:08:00.000  -2148744.7997   4426641.0805   4044655.7656   6   7   0.0810   0.0445   0.0434   0.0213   0.0346  -0.0338   0.00    0.0
2019/01/10 01:08:30.000  -2148744.8074   4426641.0789   4044655.7661   6   7   0.0808   0.0444   0.0433   0.0212   0.0345  -0.0337   0.00    0.0
2019/01/10 01:09:00.000  -2148744.8158   4426641.0776   4044655.7658   6   7   0.0805   0.0441   0.0431   0.0213   0.0342  -0.0335   0.00    0.0
2019/01/10 01:09:30.000  -2148744.8169   4426641.0768   4044655.7634   6   7   0.0798   0.0433   0.0425   0.0215   0.0337  -0.0329   0.00    0.0
2019/01/10 01:10:00.000  -2148744.8025   4426641.0693   4044655.7534   6   7   0.0781   0.0411   0.0409   0.0224   0.0323  -0.0311   0.00    0.0
2019/01/10 01:10:30.000  -2148744.8040   4426641.0633   4044655.7532   6   7   0.0776   0.0406   0.0404   0.0225   0.0318  -0.0307   0.00    0.0
2019/01/10 01:11:00.000  -2148744.8088   4426641.0616   4044655.7531   6   7   0.0773   0.0404   0.0402   0.0225   0.0317  -0.0305   0.00    0.0
2019/01/10 01:11:30.000  -2148744.8110   4426641.0605   4044655.7519   6   7   0.0771   0.0402   0.0401   0.0225   0.0316  -0.0304   0.00    0.0
2019/01/10 01:12:00.000  -2148744.8176   4426641.0581   4044655.7510   6   7   0.0770   0.0402   0.0401   0.0224   0.0315  -0.0304   0.00    0.0
2019/01/10 01:12:30.000  -2148744.8229   4426641.0563   4044655.7505   6   7   0.0768   0.0401   0.0400   0.0223   0.0315  -0.0303   0.00    0.0
2019/01/10 01:13:00.000  -2148744.8247   4426641.0552   4044655.7499   6   7   0.0767   0.0400   0.0400   0.0223   0.0314  -0.0302   0.00    0.0
2019/01/10 01:13:30.000  -2148744.8285   4426641.0541   4044655.7504   6   7   0.0765   0.0399   0.0399   0.0222   0.0313  -0.0301   0.00    0.0
2019/01/10 01:14:00.000  -2148744.8341   4426641.0527   4044655.7525   6   7   0.0762   0.0396   0.0396   0.0222   0.0311  -0.0299   0.00    0.0
2019/01/10 01:14:30.000  -2148744.8333   4426641.0524   4044655.7560   6   6   0.0756   0.0391   0.0393   0.0222   0.0308  -0.0295   0.00    0.0
2019/01/10 01:15:00.000  -2148744.8201   4426641.0537   4044655.7502   6   6   0.0741   0.0376   0.0381   0.0225   0.0300  -0.0281   0.00    0.0
2019/01/10 01:15:30.000  -2148744.8257   4426641.0568   4044655.7509   6   6   0.0736   0.0372   0.0379   0.0224   0.0298  -0.0278   0.00    0.0
2019/01/10 01:16:00.000  -2148744.8287   4426641.0574   4044655.7506   6   6   0.0734   0.0371   0.0378   0.0224   0.0297  -0.0276   0.00    0.0
2019/01/10 01:16:30.000  -2148744.8340   4426641.0563   4044655.7502   6   6   0.0732   0.0370   0.0377   0.0223   0.0297  -0.0276   0.00    0.0
2019/01/10 01:17:00.000  -2148744.8406   4426641.0550   4044655.7506   6   6   0.0731   0.0370   0.0377   0.0222   0.0296  -0.0276   0.00    0.0
2019/01/10 01:17:30.000  -2148744.8439   4426641.0543   4044655.7505   6   6   0.0730   0.0370   0.0377   0.0222   0.0296  -0.0275   0.00    0.0
2019/01/10 01:18:00.000  -2148744.8465   4426641.0536   4044655.7505   6   6   0.0729   0.0369   0.0376   0.0221   0.0296  -0.0275   0.00    0.0
2019/01/10 01:18:30.000  -2148744.8517   4426641.0528   4044655.7508   6   6   0.0727   0.0368   0.0376   0.0220   0.0296  -0.0274   0.00    0.0
2019/01/10 01:19:00.000  -2148744.8578   4426641.0490   4044655.7490   6   6   0.0725   0.0367   0.0375   0.0219   0.0295  -0.0273   0.00    0.0
2019/01/10 01:19:30.000  -2148744.8618   4426641.0432   4044655.7425   6   6   0.0720   0.0363   0.0372   0.0219   0.0293  -0.0270   0.00    0.0
2019/01/10 01:20:00.000  -2148744.8504   4426641.0458   4044655.7377   6   6   0.0705   0.0350   0.0363   0.0218   0.0286  -0.0257   0.00    0.0
2019/01/10 01:20:30.000  -2148744.8504   4426641.0452   4044655.7370   6   6   0.0701   0.0347   0.0361   0.0217   0.0285  -0.0255   0.00    0.0
2019/01/10 01:21:00.000  -2148744.8508   4426641.0448   4044655.7371   6   6   0.0699   0.0346   0.0360   0.0216   0.0284  -0.0254   0.00    0.0
2019/01/10 01:21:30.000  -2148744.8514   4426641.0442   4044655.7368   6   6   0.0698   0.0345   0.0360   0.0215   0.0284  -0.0253   0.00    0.0
2019/01/10 01:22:00.000  -2148744.8596   4426641.0418   4044655.7365   6   6   0.0696   0.0345   0.0360   0.0215   0.0284  -0.0253   0.00    0.0
2019/01/10 01:22:30.000  -2148744.8641   4426641.0405   4044655.7364   6   6   0.0695   0.0345   0.0360   0.0214   0.0284  -0.0253   0.00    0.0
2019/01/10 01:23:00.000  -2148744.8709   4426641.0386   4044655.7362   6   6   0.0694   0.0344   0.0359   0.0213   0.0283  -0.0253   0.00    0.0
2019/01/10 01:23:30.000  -2148744.8741   4426641.0377   4044655.7360   6   6   0.0693   0.0343   0.0359   0.0213   0.0283  -0.0252   0.00    0.0
2019/01/10 01:24:00.000  -2148744.8750   4426641.0372   4044655.7359   6   6   0.0690   0.0342   0.0358   0.0212   0.0282  -0.0251   0.00    0.0
2019/01/10 01:24:30.000  -2148744.8682   4426641.0360   4044655.7339   6   6   0.0686   0.0339   0.0356   0.0210   0.0281  -0.0248   0.00    0.0
2019/01/10 01:25:00.000  -2148744.8521   4426641.0418   4044655.7333   6   6   0.0671   0.0328   0.0349   0.0206   0.0276  -0.0238   0.00    0.0
2019/01/10 01:25:30.000  -2148744.8551   4426641.0414   4044655.7378   6   6   0.0667   0.0325   0.0347   0.0205   0.0274  -0.0236   0.00    0.0
2019/01/10 01:26:00.000  -2148744.8592   4426641.0420   4044655.7401   6   6   0.0665   0.0324   0.0346   0.0204   0.0274  -0.0235   0.00    0.0
2019/01/10 01:26:30.000  -2148744.8656   4426641.0416   4044655.7414   6   6   0.0664   0.0324   0.0346   0.0203   0.0274  -0.0235   0.00    0.0
2019/01/10 01:27:00.000  -2148744.8700   4426641.0411   4044655.7419   6   6   0.0663   0.0324   0.0346   0.0203   0.0274  -0.0235   0.00    0.0
2019/01/10 01:27:30.000  -2148744.8756   4426641.0400   4044655.7419   6   6   0.0662   0.0323   0.0346   0.0202   0.0274  -0.0234   0.00    0.0
2019/01/10 01:28:00.000  -2148744.8800   4426641.0389   4044655.7418   6   6   0.0661   0.0323   0.0346   0.0201   0.0273  -0.0234   0.00    0.0
2019/01/10 01:28:30.000  -2148744.8840   4426641.0379   4044655.7414   6   6   0.0660   0.0322   0.0345   0.0201   0.0273  -0.0234   0.00    0.0
2019/01/10 01:29:00.000  -2148744.8859   4426641.0370   4044655.7422   6   6   0.0657   0.0321   0.0345   0.0200   0.0273  -0.0233   0.00    0.0
2019/01/10 01:29:30.000  -2148744.8817   4426641.0401   4044655.7463   6   6   0.0653   0.0318   0.0343   0.0197   0.0271  -0.0231   0.00    0.0
2019/01/10 01:30:00.000  -2148744.8676   4426641.0464   4044655.7448   6   6   0.0639   0.0309   0.0337   0.0191   0.0267  -0.0223   0.00    0.0
2019/01/10 01:30:30.000  -2148744.8631   4426641.0520   4044655.7462   6   6   0.0635   0.0307   0.0336   0.0189   0.0266  -0.0222   0.00    0.0
2019/01/10 01:31:00.000  -2148744.8640   4426641.0537   4044655.7469   6   6   0.0633   0.0306   0.0335   0.0188   0.0266  -0.0221   0.00    0.0
2019/01/10 01:31:30.000  -2148744.8631   4426641.0549   4044655.7471   6   6   0.0632   0.0305   0.0335   0.0187   0.0266  -0.0221   0.00    0.0
2019/01/10 01:32:00.000  -2148744.8663   4426641.0550   4044655.7472   6   6   0.0631   0.0305   0.0335   0.0187   0.0265  -0.0221   0.00    0.0
2019/01/10 01:32:30.000  -2148744.8696   4426641.0548   4044655.7473   6   6   0.0630   0.0305   0.0335   0.0186   0.0265  -0.0220   0.00    0.0
2019/01/10 01:33:00.000  -2148744.8727   4426641.0547   4044655.7475   6   6   0.0629   0.0305   0.0334   0.0185   0.0265  -0.0220   0.00    0.0
2019/01/10 01:33:30.000  -2148744.8757   4426641.0549   4044655.7476   6   6   0.0628   0.0304   0.0334   0.0185   0.0265  -0.0220   0.00    0.0
2019/01/10 01:34:00.000  -2148744.8778   4426641.0549   4044655.7477   6   6   0.0626   0.0303   0.0334   0.0183   0.0265  -0.0220   0.00    0.0
2019/01/10 01:34:30.000  -2148744.8765   4426641.0546   4044655.7478   6   6   0.0621   0.0300   0.0332   0.0180   0.0263  -0.0218   0.00    0.0
2019/01/10 01:35:00.000  -2148744.8626   4426641.0581   4044655.7465   6   6   0.0607   0.0292   0.0327   0.0171   0.0259  -0.0213   0.00    0.0
2019/01/10 01:35:30.000  -2148744.8664   4426641.0581   4044655.7463   6   6   0.0603   0.0290   0.0326   0.0169   0.0258  -0.0212   0.00    0.0
2019/01/10 01:36:00.000  -2148744.8712   4426641.0575   4044655.7459   6   6   0.0601   0.0289   0.0325   0.0168   0.0258  -0.0212   0.00    0.0
2019/01/10 01:36:30.000  -2148744.8748   4426641.0577   4044655.7463   6   6   0.0600   0.0289   0.0325   0.0167   0.0258  -0.0212   0.00    0.0
2019/01/10 01:37:00.000  -2148744.8783   4426641.0581   4044655.7472   6   6   0.0599   0.0288   0.0325   0.0166   0.0258  -0.0211   0.00    0.0
2019/01/10 01:37:30.000  -2148744.8805   4426641.0580   4044655.7475   6   6   0.0599   0.0288   0.0325   0.0166   0.0258  -0.0211   0.00    0.0
2019/01/10 01:38:00.000  -2148744.8839   4426641.0577   4044655.7476   6   6   0.0598   0.0288   0.0325   0.0165   0.0258  -0.0211   0.00    0.0
2019/01/10 01:38:30.000  -2148744.8850   4426641.0584   4044655.7474   6   6   0.0597   0.0287   0.0324   0.0164   0.0257  -0.0211   0.00    0.0
2019/01/10 01:39:00.000  -2148744.8856   4426641.0598   4044655.7477   6   6   0.0595   0.0287   0.0324   0.0163   0.0257  -0.0211   0.00    0.0
2019/01/10 01:39:30.000  -2148744.8813   4426641.0613   4044655.7491   6   6   0.0590   0.0284   0.0322   0.0160   0.0255  -0.0210   0.00    0.0
2019/01/10 01:40:00.000  -2148744.8607   4426641.0674   4044655.7520   6   6   0.0576   0.0276   0.0317   0.0148   0.0251  -0.0207   0.00    0.0
2019/01/10 01:40:30.000  -2148744.8618   4426641.0639   4044655.7482   6   6   0.0572   0.0274   0.0316   0.0145   0.0250  -0.0207   0.00    0.0
2019/01/10 01:41:00.000  -2148744.8643   4426641.0629   4044655.7473   6   6   0.0571   0.0273   0.0315   0.0144   0.0250  -0.0206   0.00    0.0
2019/01/10 01:41:30.000  -2148744.8671   4426641.0627   4044655.7472   6   6   0.0570   0.0273   0.0315   0.0143   0.0250  -0.0206   0.00    0.0
2019/01/10 01:42:00.000  -2148744.8692   4426641.0627   4044655.7473   6   6   0.0569   0.0272   0.0315   0.0143   0.0249  -0.0206   0.00    0.0
2019/01/10 01:42:30.000  -2148744.8724   4426641.0627   4044655.7476   6   6   0.0568   0.0272   0.0315   0.0142   0.0249  -0.0206   0.00    0.0
2019/01/10 01:43:00.000  -2148744.8762   4426641.0626   4044655.7477   6   6   0.0567   0.0272   0.0315   0.0142   0.0249  -0.0206   0.00    0.0
2019/01/10 01:43:30.000  -2148744.8771   4426641.0630   4044655.7480   6   6   0.0566   0.0272   0.0315   0.0141   0.0249  -0.0206   0.00    0.0
2019/01/10 01:44:00.000  -2148744.8778   4426641.0631   4044655.7480   6   6   0.0564   0.0271   0.0314   0.0139   0.0248  -0.0206   0.00    0.0
2019/01/10 01:44:30.000  -2148744.8686   4426641.0680   4044655.7508   6   6   0.0560   0.0268   0.0312   0.0135   0.0247  -0.0206   0.00    0.0
2019/01/10 01:45:00.000  -2148744.8506   4426641.0734   4044655.7546   6   6   0.0546   0.0260   0.0307   0.0122   0.0242  -0.0204   0.00    0.0
2019/01/10 01:45:30.000  -2148744.8501   4426641.0763   4044655.7594   6   6   0.0542   0.0258   0.0305   0.0118   0.0241  -0.0204   0.00    0.0
2019/01/10 01:46:00.000  -2148744.8485   4426641.0790   4044655.7635   6   6   0.0541   0.0258   0.0305   0.0117   0.0240  -0.0204   0.00    0.0
2019/01/10 01:46:30.000  -2148744.8494   4426641.0801   4044655.7655   6   6   0.0540   0.0257   0.0304   0.0116   0.0240  -0.0204   0.00    0.0
2019/01/10 01:47:00.000  -2148744.8515   4426641.0806   4044655.7667   6   6   0.0539   0.0257   0.0304   0.0116   0.0240  -0.0204   0.00    0.0
2019/01/10 01:47:30.000  -2148744.8534   4426641.0807   4044655.7672   6   6   0.0539   0.0257   0.0304   0.0115   0.0240  -0.0204   0.00    0.0
2019/01/10 01:48:00.000  -2148744.8564   4426641.0810   4044655.7680   6   6   0.0538   0.0256   0.0304   0.0114   0.0239  -0.0204   0.00    0.0
2019/01/10 01:48:30.000  -2148744.8569   4426641.0819   4044655.7690   6   6   0.0537   0.0256   0.0304   0.0113   0.0239  -0.0204   0.00    0.0
2019/01/10 01:49:00.000  -2148744.8568   4426641.0831   4044655.7706   6   6   0.0535   0.0255   0.0303   0.0112   0.0238  -0.0204   0.00    0.0
2019/01/10 01:49:30.000  -2148744.8567   4426641.0828   4044655.7713   6   6   0.0531   0.0252   0.0301   0.0108   0.0237  -0.0203   0.00    0.0
2019/01/10 01:50:00.000  -2148744.8377   4426641.0906   4044655.7772   6   6   0.0518   0.0245   0.0295   0.0092   0.0231  -0.0203   0.00    0.0
2019/01/10 01:50:30.000  -2148744.8354   4426641.0935   4044655.7816   6   6   0.0514   0.0243   0.0293   0.0088   0.0230  -0.0202   0.00    0.0
2019/01/10 01:51:00.000  -2148744.8360   4426641.0953   4044655.7837   6   6   0.0513   0.0242   0.0292   0.0087   0.0229  -0.0202   0.00    0.0
2019/01/10 01:51:30.000  -2148744.8376   4426641.0965   4044655.7853   6   6   0.0512   0.0242   0.0292   0.0086   0.0229  -0.0202   0.00    0.0
2019/01/10 01:52:00.000  -2148744.8389   4426641.0971   4044655.7862   6   6   0.0511   0.0242   0.0292   0.0086   0.0229  -0.0202   0.00    0.0
2019/01/10 01:52:30.000  -2148744.8411   4426641.0972   4044655.7866   6   6   0.0511   0.0241   0.0291   0.0085   0.0228  -0.0202   0.00    0.0
2019/01/10 01:53:00.000  -2148744.8428   4426641.0977   4044655.7875   6   6   0.0510   0.0241   0.0291   0.0084   0.0228  -0.0202   0.00    0.0
2019/01/10 01:53:30.000  -2148744.8449   4426641.0988   4044655.7892   6   5   0.0509   0.0241   0.0291   0.0084   0.0228  -0.0202   0.00    0.0
2019/01/10 01:54:00.000  -2148744.8463   4426641.1004   4044655.7924   6   5   0.0508   0.0240   0.0290   0.0082   0.0227  -0.0201   0.00    0.0
2019/01/10 01:54:30.000  -2148744.8448   4426641.1040   4044655.7981   6   5   0.0504   0.0238   0.0289   0.0077   0.0226  -0.0201   0.00    0.0
2019/01/10 01:55:00.000  -2148744.8267   4426641.1090   4044655.8010   6   5   0.0491   0.0233   0.0283   0.0055   0.0222  -0.0201   0.00    0.0
2019/01/10 01:55:30.000  -2148744.8206   4426641.1094   4044655.8007   6   6   0.0487   0.0231   0.0282   0.0050   0.0221  -0.0201   0.00    0.0
2019/01/10 01:56:00.000  -2148744.8218   4426641.1092   4044655.8007   6   6   0.0486   0.0231   0.0282   0.0048   0.0221  -0.0201   0.00    0.0
2019/01/10 01:56:30.000  -2148744.8229   4426641.1092   4044655.8010   6   6   0.0485   0.0231   0.0282   0.0046   0.0221  -0.0200   0.00    0.0
2019/01/10 01:57:00.000  -2148744.8238   4426641.1091   4044655.8011   6   6   0.0485   0.0231   0.0281   0.0045   0.0221  -0.0200   0.00    0.0
2019/01/10 01:57:30.000  -2148744.8252   4426641.1090   4044655.8015   6   6   0.0484   0.0230   0.0281   0.0045   0.0221  -0.0200   0.00    0.0
2019/01/10 01:58:00.000  -2148744.8268   4426641.1089   4044655.8017   6   6   0.0483   0.0230   0.0281   0.0044   0.0220  -0.0200   0.00    0.0
2019/01/10 01:58:30.000  -2148744.8269   4426641.1089   4044655.8021   6   6   0.0483   0.0230   0.0281   0.0042   0.0220  -0.0200   0.00    0.0
2019/01/10 01:59:00.000  -2148744.8245   4426641.1097   4044655.8038   6   6   0.0481   0.0229   0.0280   0.0039   0.0220  -0.0200   0.00    0.0
2019/01/10 01:59:30.000  -2148744.8196   4426641.1123   4044655.8089   6   6   0.0477   0.0228   0.0279   0.0029   0.0219  -0.0200   0.00    0.0
2019/01/10 02:00:00.000  -2148744.8000   4426641.1156   4044655.8093   6   6   0.0464   0.0223   0.0273  -0.0041   0.0215  -0.0200   0.00    0.0
2019/01/10 02:00:30.000  -2148744.8000   4426641.1145   4044655.8080   6   6   0.0461   0.0222   0.0272  -0.0046   0.0214  -0.0199   0.00    0.0
2019/01/10 02:01:00.000  -2148744.8014   4426641.1145   4044655.8085   6   6   0.0460   0.0221   0.0271  -0.0048   0.0213  -0.0199   0.00    0.0
2019/01/10 02:01:30.000  -2148744.8034   4426641.1141   4044655.8084   6   6   0.0459   0.0221   0.0271  -0.0049   0.0213  -0.0199   0.00    0.0
2019/01/10 02:02:00.000  -2148744.8055   4426641.1138   4044655.8084   6   6   0.0459   0.0221   0.0271  -0.0050   0.0213  -0.0199   0.00    0.0
2019/01/10 02:02:30.000  -2148744.8075   4426641.1135   4044655.8084   6   6   0.0458   0.0221   0.0271  -0.0050   0.0213  -0.0199   0.00    0.0
2019/01/10 02:03:00.000  -2148744.8087   4426641.1132   4044655.8084   6   6   0.0458   0.0221   0.0271  -0.0051   0.0213  -0.0199   0.00    0.0
2019/01/10 02:03:30.000  -2148744.8113   4426641.1130   4044655.8087   6   6   0.0457   0.0221   0.0271  -0.0052   0.0213  -0.0199   0.00    0.0
2019/01/10 02:04:00.000  -2148744.8103   4426641.1134   4044655.8092   6   6   0.0455   0.0220   0.0270  -0.0054   0.0212  -0.0199   0.00    0.0
2019/01/10 02:04:30.000  -2148744.8042   4426641.1143   4044655.8094   6   6   0.0452   0.0219   0.0268  -0.0059   0.0211  -0.0198   0.00    0.0
2019/01/10 02:05:00.000  -2148744.7850   4426641.1178   4044655.8106   6   6   0.0439   0.0214   0.0263  -0.0074   0.0207  -0.0197   0.00    0.0
2019/01/10 02:05:30.000  -2148744.7857   4426641.1173   4044655.8103   6   6   0.0436   0.0213   0.0261  -0.0077   0.0206  -0.0197   0.00    0.0
2019/01/10 02:06:00.000  -2148744.7857   4426641.1179   4044655.8113   6   6   0.0435   0.0213   0.0261  -0.0078   0.0206  -0.0197   0.00    0.0
2019/01/10 02:06:30.000  -2148744.7854   4426641.1184   4044655.8118   6   6   0.0434   0.0213   0.0261  -0.0078   0.0206  -0.0197   0.00    0.0
2019/01/10 02:07:00.000  -2148744.7872   4426641.1186   4044655.8125   6   6   0.0434   0.0213   0.0261  -0.0078   0.0206  -0.0197   0.00    0.0
2019/01/10 02:07:30.000  -2148744.7882   4426641.1188   4044655.8131   6   6   0.0434   0.0212   0.0260  -0.0079   0.0206  -0.0197   0.00    0.0
2019/01/10 02:08:00.000  -2148744.7904   4426641.1189   4044655.8140   6   6   0.0433   0.0212   0.0260  -0.0079   0.0206  -0.0196   0.00    0.0
2019/01/10 02:08:30.000  -2148744.7923   4426641.1189   4044655.8144   6   6   0.0432   0.0212   0.0260  -0.0079   0.0205  -0.0196   0.00    0.0
2019/01/10 02:09:00.000  -2148744.7947   4426641.1189   4044655.8149   6   6   0.0431   0.0212   0.0259  -0.0080   0.0205  -0.0196   0.00    0.0
2019/01/10 02:09:30.000  -2148744.7867   4426641.1219   4044655.8168   6   6   0.0427   0.0210   0.0258  -0.0083   0.0204  -0.0196   0.00    0.0
2019/01/10 02:10:00.000  -2148744.7712   4426641.1255   4044655.8188   6   6   0.0416   0.0207   0.0252  -0.0092   0.0200  -0.0194   0.00    0.0
2019/01/10 02:10:30.000  -2148744.7676   4426641.1269   4044655.8199   6   6   0.0413   0.0206   0.0251  -0.0094   0.0199  -0.0194   0.00    0.0
2019/01/10 02:11:00.000  -2148744.7695   4426641.1265   4044655.8196   6   6   0.0412   0.0205   0.0250  -0.0094   0.0199  -0.0193   0.00    0.0
2019/01/10 02:11:30.000  -2148744.7703   4426641.1265   4044655.8198   6   6   0.0411   0.0205   0.0250  -0.0094   0.0199  -0.0193   0.00    0.0
2019/01/10 02:12:00.000  -2148744.7714   4426641.1263   4044655.8200   6   6   0.0410   0.0205   0.0250  -0.0095   0.0199  -0.0193   0.00    0.0
2019/01/10 02:12:30.000  -2148744.7732   4426641.1263   4044655.8204   6   6   0.0410   0.0205   0.0250  -0.0095   0.0199  -0.0193   0.00    0.0
2019/01/10 02:13:00.000  -2148744.7744   4426641.1265   4044655.8210   6   6   0.0410   0.0205   0.0250  -0.0095   0.0199  -0.0193   0.00    0.0
2019/01/10 02:13:30.000  -2148744.7760   4426641.1268   4044655.8217   6   6   0.0409   0.0205   0.0249  -0.0095   0.0198  -0.0193   0.00    0.0
2019/01/10 02:14:00.000  -2148744.7759   4426641.1275   4044655.8225   6   6   0.0408   0.0204   0.0249  -0.0096   0.0198  -0.0193   0.00    0.0
2019/01/10 02:14:30.000  -2148744.7739   4426641.1271   4044655.8208   6   6   0.0404   0.0203   0.0247  -0.0097   0.0197  -0.0192   0.00    0.0
2019/01/10 02:15:00.000  -2148744.7567   4426641.1291   4044655.8208   6   6   0.0393   0.0200   0.0242  -0.0103   0.0193  -0.0190   0.00    0.0
2019/01/10 02:15:30.000  -2148744.7548   4426641.1281   4044655.8190   6   6   0.0391   0.0199   0.0240  -0.0104   0.0193  -0.0189   0.00    0.0
2019/01/10 02:16:00.000  -2148744.7562   4426641.1274   4044655.8189   6   6   0.0390   0.0199   0.0240  -0.0104   0.0192  -0.0189   0.00    0.0
2019/01/10 02:16:30.000  -2148744.7564   4426641.1273   4044655.8190   6   6   0.0389   0.0199   0.0240  -0.0104   0.0192  -0.0189   0.00    0.0
2019/01/10 02:17:00.000  -2148744.7560   4426641.1273   4044655.8191   6   6   0.0389   0.0199   0.0239  -0.0104   0.0192  -0.0189   0.00    0.0
2019/01/10 02:17:30.000  -2148744.7569   4426641.1272   4044655.8192   6   6   0.0388   0.0198   0.0239  -0.0104   0.0192  -0.0189   0.00    0.0
2019/01/10 02:18:00.000  -2148744.7574   4426641.1271   4044655.8191   6   6   0.0388   0.0198   0.0239  -0.0105   0.0192  -0.0189   0.00    0.0
2019/01/10 02:18:30.000  -2148744.7579   4426641.1273   4044655.8196   6   6   0.0387   0.0198   0.0239  -0.0105   0.0192  -0.0188   0.00    0.0
2019/01/10 02:19:00.000  -2148744.7567   4426641.1289   4044655.8217   6   6   0.0386   0.0198   0.0238  -0.0105   0.0191  -0.0188   0.00    0.0
2019/01/10 02:19:30.000  -2148744.7516   4426641.1313   4044655.8248   6   6   0.0383   0.0197   0.0237  -0.0106   0.0190  -0.0187   0.00    0.0
2019/01/10 02:20:00.000  -2148744.7358   4426641.1323   4044655.8244   6   6   0.0372   0.0194   0.0231  -0.0110   0.0187  -0.0185   0.00    0.0
2019/01/10 02:20:30.000  -2148744.7323   4426641.1330   4044655.8248   6   6   0.0370   0.0193   0.0230  -0.0110   0.0186  -0.0184   0.00    0.0
2019/01/10 02:21:00.000  -2148744.7311   4426641.1327   4044655.8243   6   6   0.0369   0.0193   0.0229  -0.0110   0.0186  -0.0184   0.00    0.0
2019/01/10 02:21:30.000  -2148744.7309   4426641.1323   4044655.8238   6   6   0.0368   0.0193   0.0229  -0.0111   0.0185  -0.0184   0.00    0.0
2019/01/10 02:22:00.000  -2148744.7315   4426641.1319   4044655.8235   6   6   0.0368   0.0193   0.0229  -0.0111   0.0185  -0.0184   0.00    0.0
2019/01/10 02:22:30.000  -2148744.7324   4426641.1317   4044655.8234   6   6   0.0367   0.0193   0.0229  -0.0111   0.0185  -0.0184   0.00    0.0
2019/01/10 02:23:00.000  -2148744.7334   4426641.1313   4044655.8232   6   6   0.0367   0.0192   0.0229  -0.0111   0.0185  -0.0184   0.00    0.0
2019/01/10 02:23:30.000  -2148744.7338   4426641.1310   4044655.8231   6   6   0.0367   0.0192   0.0229  -0.0111   0.0185  -0.0183   0.00    0.0
2019/01/10 02:24:00.000  -2148744.7337   4426641.1310   4044655.8237   6   6   0.0365   0.0192   0.0228  -0.0111   0.0185  -0.0183   0.00    0.0
2019/01/10 02:24:30.000  -2148744.7285   4426641.1311   4044655.8247   6   6   0.0363   0.0191   0.0227  -0.0111   0.0184  -0.0182   0.00    0.0
2019/01/10 02:25:00.000  -2148744.7130   4426641.1317   4044655.8235   6   6   0.0353   0.0188   0.0221  -0.0113   0.0180  -0.0179   0.00    0.0
2019/01/10 02:25:30.000  -2148744.7114   4426641.1308   4044655.8226   6   6   0.0350   0.0188   0.0220  -0.0114   0.0180  -0.0179   0.00    0.0
2019/01/10 02:26:00.000  -2148744.7111   4426641.1306   4044655.8231   6   6   0.0349   0.0187   0.0220  -0.0114   0.0179  -0.0178   0.00    0.0
2019/01/10 02:26:30.000  -2148744.7109   4426641.1306   4044655.8233   6   6   0.0349   0.0187   0.0219  -0.0114   0.0179  -0.0178   0.00    0.0
2019/01/10 02:27:00.000  -2148744.7124   4426641.1305   4044655.8235   6   6   0.0349   0.0187   0.0219  -0.0114   0.0179  -0.0178   0.00    0.0
2019/01/10 02:27:30.000  -2148744.7126   4426641.1304   4044655.8234   6   6   0.0348   0.0187   0.0219  -0.0114   0.0179  -0.0178   0.00    0.0
2019/01/10 02:28:00.000  -2148744.7136   4426641.1302   4044655.8233   6   6   0.0348   0.0187   0.0219  -0.0114   0.0179  -0.0178   0.00    0.0
2019/01/10 02:28:30.000  -2148744.7139   4426641.1299   4044655.8228   6   6   0.0347   0.0187   0.0219  -0.0114   0.0179  -0.0178   0.00    0.0
2019/01/10 02:29:00.000  -2148744.7125   4426641.1293   4044655.8216   6   6   0.0346   0.0187   0.0218  -0.0114   0.0178  -0.0177   0.00    0.0
2019/01/10 02:29:30.000  -2148744.7103   4426641.1275   4044655.8190   6   6   0.0344   0.0186   0.0217  -0.0114   0.0177  -0.0176   0.00    0.0
2019/01/10 02:30:00.000  -2148744.6981   4426641.1286   4044655.8184   6   6   0.0334   0.0183   0.0211  -0.0115   0.0174  -0.0173   0.00    0.0
2019/01/10 02:30:30.000  -2148744.6941   4426641.1295   4044655.8185   6   6   0.0332   0.0183   0.0210  -0.0115   0.0173  -0.0172   0.00    0.0
2019/01/10 02:31:00.000  -2148744.6944   4426641.1291   4044655.8178   6   6   0.0331   0.0182   0.0210  -0.0115   0.0173  -0.0172   0.00    0.0
2019/01/10 02:31:30.000  -2148744.6938   4426641.1293   4044655.8180   6   6   0.0330   0.0182   0.0209  -0.0115   0.0173  -0.0172   0.00    0.0
2019/01/10 02:32:00.000  -2148744.6941   4426641.1294   4044655.8181   6   6   0.0330   0.0182   0.0209  -0.0115   0.0173  -0.0172   0.00    0.0
2019/01/10 02:32:30.000  -2148744.6943   4426641.1295   4044655.8183   6   6   0.0330   0.0182   0.0209  -0.0115   0.0173  -0.0171   0.00    0.0
2019/01/10 02:33:00.000  -2148744.6945   4426641.1297   4044655.8188   6   6   0.0329   0.0182   0.0209  -0.0115   0.0172  -0.0171   0.00    0.0
2019/01/10 02:33:30.000  -2148744.6944   4426641.1300   4044655.8195   6   6   0.0329   0.0182   0.0209  -0.0115   0.0172  -0.0171   0.00    0.0
2019/01/10 02:34:00.000  -2148744.6941   4426641.1306   4044655.8205   6   6   0.0328   0.0182   0.0208  -0.0115   0.0172  -0.0171   0.00    0.0
2019/01/10 02:34:30.000  -2148744.6933   4426641.1308   4044655.8204   6   6   0.0325   0.0181   0.0207  -0.0114   0.0171  -0.0170   0.00    0.0
2019/01/10 02:35:00.000  -2148744.6838   4426641.1310   4044655.8196   6   6   0.0316   0.0178   0.0202  -0.0114   0.0167  -0.0166   0.00    0.0
2019/01/10 02:35:30.000  -2148744.6822   4426641.1312   4044655.8204   6   6   0.0314   0.0177   0.0200  -0.0114   0.0167  -0.0165   0.00    0.0
2019/01/10 02:36:00.000  -2148744.6831   4426641.1310   4044655.8206   6   6   0.0313   0.0177   0.0200  -0.0114   0.0166  -0.0165   0.00    0.0
2019/01/10 02:36:30.000  -2148744.6838   4426641.1307   4044655.8205   6   6   0.0313   0.0177   0.0200  -0.0113   0.0166  -0.0165   0.00    0.0
2019/01/10 02:37:00.000  -2148744.6852   4426641.1304   4044655.8204   6   6   0.0312   0.0177   0.0200  -0.0113   0.0166  -0.0165   0.00    0.0
2019/01/10 02:37:30.000  -2148744.6860   4426641.1301   4044655.8201   6   6   0.0312   0.0177   0.0200  -0.0113   0.0166  -0.0165   0.00    0.0
2019/01/10 02:38:00.000  -2148744.6869   4426641.1297   4044655.8197   6   6   0.0312   0.0177   0.0199  -0.0113   0.0166  -0.0164   0.00    0.0
2019/01/10 02:38:30.000  -2148744.6871   4426641.1289   4044655.8188   6   6   0.0311   0.0177   0.0199  -0.0113   0.0166  -0.0164   0.00    0.0
2019/01/10 02:39:00.000  -2148744.6863   4426641.1278   4044655.8175   6   6   0.0310   0.0176   0.0199  -0.0113   0.0165  -0.0164   0.00    0.0
2019/01/10 02:39:30.000  -2148744.6840   4426641.1257   4044655.8136   6   6   0.0308   0.0175   0.0197  -0.0113   0.0164  -0.0162   0.00    0.0
2019/01/10 02:40:00.000  -2148744.6733   4426641.1263   4044655.8127   6   6   0.0299   0.0173   0.0192  -0.0111   0.0161  -0.0158   0.00    0.0
2019/01/10 02:40:30.000  -2148744.6740   4426641.1265   4044655.8127   6   6   0.0297   0.0172   0.0191  -0.0110   0.0160  -0.0157   0.00    0.0
2019/01/10 02:41:00.000  -2148744.6768   4426641.1272   4044655.8142   6   6   0.0296   0.0172   0.0190  -0.0110   0.0159  -0.0157   0.00    0.0
2019/01/10 02:41:30.000  -2148744.6784   4426641.1275   4044655.8151   6   6   0.0296   0.0172   0.0190  -0.0110   0.0159  -0.0157   0.00    0.0
2019/01/10 02:42:00.000  -2148744.6795   4426641.1277   4044655.8155   6   6   0.0295   0.0172   0.0190  -0.0110   0.0159  -0.0157   0.00    0.0
2019/01/10 02:42:30.000  -2148744.6806   4426641.1277   4044655.8157   6   6   0.0295   0.0172   0.0190  -0.0110   0.0159  -0.0156   0.00    0.0
2019/01/10 02:43:00.000  -2148744.6818   4426641.1277   4044655.8161   6   6   0.0295   0.0171   0.0190  -0.0110   0.0159  -0.0156   0.00    0.0
2019/01/10 02:43:30.000  -2148744.6831   4426641.1277   4044655.8164   6   6   0.0294   0.0171   0.0189  -0.0110   0.0159  -0.0156   0.00    0.0
2019/01/10 02:44:00.000  -2148744.6845   4426641.1277   4044655.8165   6   6   0.0294   0.0171   0.0189  -0.0110   0.0159  -0.0156   0.00    0.0
2019/01/10 02:44:30.000  -2148744.6851   4426641.1283   4044655.8172   6   6   0.0291   0.0171   0.0188  -0.0109   0.0158  -0.0155   0.00    0.0
2019/01/10 02:45:00.000  -2148744.6747   4426641.1287   4044655.8166   6   5   0.0283   0.0169   0.0184  -0.0108   0.0155  -0.0151   0.00    0.0
2019/01/10 02:45:30.000  -2148744.6705   4426641.1277   4044655.8157   6   5   0.0281   0.0168   0.0183  -0.0108   0.0155  -0.0151   0.00    0.0
2019/01/10 02:46:00.000  -2148744.6696   4426641.1272   4044655.8153   6   5   0.0281   0.0168   0.0183  -0.0107   0.0154  -0.0150   0.00    0.0
2019/01/10 02:46:30.000  -2148744.6695   4426641.1272   4044655.8153   6   5   0.0280   0.0168   0.0183  -0.0107   0.0154  -0.0150   0.00    0.0
2019/01/10 02:47:00.000  -2148744.6700   4426641.1271   4044655.8153   6   5   0.0280   0.0168   0.0183  -0.0107   0.0154  -0.0150   0.00    0.0
2019/01/10 02:47:30.000  -2148744.6703   4426641.1270   4044655.8154   6   5   0.0280   0.0168   0.0183  -0.0107   0.0154  -0.0150   0.00    0.0
2019/01/10 02:48:00.000  -2148744.6707   4426641.1268   4044655.8154   6   5   0.0280   0.0168   0.0182  -0.0107   0.0154  -0.0150   0.00    0.0
2019/01/10 02:48:30.000  -2148744.6713   4426641.1266   4044655.8154   6   5   0.0279   0.0168   0.0182  -0.0107   0.0154  -0.0150   0.00    0.0
2019/01/10 02:49:00.000  -2148744.6717   4426641.1265   4044655.8151   6   5   0.0279   0.0167   0.0182  -0.0107   0.0154  -0.0149   0.00    0.0
2019/01/10 02:49:30.000  -2148744.6688   4426641.1270   4044655.8152   6   5   0.0276   0.0167   0.0181  -0.0107   0.0153  -0.0149   0.00    0.0
2019/01/10 02:50:00.000  -2148744.6596   4426641.1264   4044655.8138   6   5   0.0269   0.0165   0.0177  -0.0105   0.0151  -0.0145   0.00    0.0
2019/01/10 02:50:30.000  -2148744.6612   4426641.1263   4044655.8136   6   5   0.0267   0.0165   0.0177  -0.0104   0.0150  -0.0144   0.00    0.0
2019/01/10 02:51:00.000  -2148744.6625   4426641.1263   4044655.8138   6   5   0.0267   0.0164   0.0176  -0.0104   0.0150  -0.0144   0.00    0.0
2019/01/10 02:51:30.000  -2148744.6642   4426641.1264   4044655.8144   6   5   0.0266   0.0164   0.0176  -0.0104   0.0150  -0.0144   0.00    0.0
2019/01/10 02:52:00.000  -2148744.6648   4426641.1264   4044655.8148   6   5   0.0266   0.0164   0.0176  -0.0104   0.0150  -0.0144   0.00    0.0
2019/01/10 02:52:30.000  -2148744.6654   4426641.1264   4044655.8149   6   5   0.0266   0.0164   0.0176  -0.0104   0.0150  -0.0144   0.00    0.0
2019/01/10 02:53:00.000  -2148744.6658   4426641.1264   4044655.8151   6   5   0.0266   0.0164   0.0176  -0.0104   0.0150  -0.0144   0.00    0.0
2019/01/10 02:53:30.000  -2148744.6661   4426641.1265   4044655.8154   6   5   0.0265   0.0164   0.0176  -0.0104   0.0150  -0.0144   0.00    0.0
2019/01/10 02:54:00.000  -2148744.6651   4426641.1269   4044655.8162   6   5   0.0265   0.0164   0.0176  -0.0104   0.0149  -0.0143   0.00    0.0
2019/01/10 02:54:30.000  -2148744.6616   4426641.1282   4044655.8182   6   5   0.0263   0.0163   0.0175  -0.0103   0.0149  -0.0143   0.00    0.0
2019/01/10 02:55:00.000  -2148744.6535   4426641.1276   4044655.8164   6   5   0.0256   0.0162   0.0172  -0.0101   0.0147  -0.0139   0.00    0.0
2019/01/10 02:55:30.000  -2148744.6508   4426641.1266   4044655.8149   6   5   0.0254   0.0161   0.0171  -0.0101   0.0146  -0.0139   0.00    0.0
2019/01/10 02:56:00.000  -2148744.6496   4426641.1262   4044655.8144   6   5   0.0254   0.0161   0.0171  -0.0101   0.0146  -0.0138   0.00    0.0
2019/01/10 02:56:30.000  -2148744.6496   4426641.1261   4044655.8143   6   5   0.0253   0.0161   0.0171  -0.0101   0.0146  -0.0138   0.00    0.0
2019/01/10 02:57:00.000  -2148744.6498   4426641.1260   4044655.8143   6   5   0.0253   0.0161   0.0170  -0.0101   0.0146  -0.0138   0.00    0.0
2019/01/10 02:57:30.000  -2148744.6497   4426641.1259   4044655.8141   6   5   0.0253   0.0161   0.0170  -0.0101   0.0146  -0.0138   0.00    0.0
2019/01/10 02:58:00.000  -2148744.6500   4426641.1258   4044655.8141   6   5   0.0253   0.0161   0.0170  -0.0101   0.0146  -0.0138   0.00    0.0
2019/01/10 02:58:30.000  -2148744.6495   4426641.1257   4044655.8138   6   5   0.0253   0.0161   0.0170  -0.0101   0.0146  -0.0138   0.00    0.0
2019/01/10 02:59:00.000  -2148744.6479   4426641.1260   4044655.8139   6   5   0.0252   0.0161   0.0170  -0.0100   0.0146  -0.0138   0.00    0.0
2019/01/10 02:59:30.000  -2148744.6450   4426641.1267   4044655.8149   6   5   0.0250   0.0160   0.0169  -0.0100   0.0145  -0.0137   0.00    0.0
2019/01/10 03:00:00.000  -2148744.6385   4426641.1265   4044655.8135   6   5   0.0244   0.0159   0.0166  -0.0098   0.0143  -0.0134   0.00    0.0
2019/01/10 03:00:30.000  -2148744.6354   4426641.1263   4044655.8134   6   5   0.0242   0.0159   0.0166  -0.0097   0.0143  -0.0133   0.00    0.0
2019/01/10 03:01:00.000  -2148744.6352   4426641.1262   4044655.8133   6   5   0.0242   0.0158   0.0166  -0.0097   0.0143  -0.0133   0.00    0.0
2019/01/10 03:01:30.000  -2148744.6351   4426641.1261   4044655.8134   6   6   0.0242   0.0158   0.0165  -0.0097   0.0143  -0.0133   0.00    0.0
2019/01/10 03:02:00.000  -2148744.6357   4426641.1260   4044655.8135   6   6   0.0241   0.0158   0.0165  -0.0097   0.0142  -0.0133   0.00    0.0
2019/01/10 03:02:30.000  -2148744.6361   4426641.1259   4044655.8136   6   6   0.0241   0.0158   0.0165  -0.0097   0.0142  -0.0133   0.00    0.0
2019/01/10 03:03:00.000  -2148744.6366   4426641.1258   4044655.8137   6   6   0.0241   0.0158   0.0165  -0.0097   0.0142  -0.0133   0.00    0.0
2019/01/10 03:03:30.000  -2148744.6365   4426641.1257   4044655.8136   6   6   0.0241   0.0158   0.0165  -0.0097   0.0142  -0.0133   0.00    0.0
2019/01/10 03:04:00.000  -2148744.6360   4426641.1256   4044655.8134   6   6   0.0240   0.0158   0.0165  -0.0097   0.0142  -0.0132   0.00    0.0
2019/01/10 03:04:30.000  -2148744.6355   4426641.1256   4044655.8139   6   6   0.0238   0.0158   0.0164  -0.0096   0.0142  -0.0132   0.00    0.0
2019/01/10 03:05:00.000  -2148744.6306   4426641.1255   4044655.8130   6   6   0.0233   0.0156   0.0162  -0.0094   0.0140  -0.0129   0.00    0.0
2019/01/10 03:05:30.000  -2148744.6260   4426641.1250   4044655.8111   6   6   0.0231   0.0156   0.0161  -0.0094   0.0140  -0.0128   0.00    0.0
2019/01/10 03:06:00.000  -2148744.6236   4426641.1245   4044655.8103   6   6   0.0231   0.0156   0.0161  -0.0093   0.0140  -0.0128   0.00    0.0
2019/01/10 03:06:30.000  -2148744.6227   4426641.1242   4044655.8099   6   6   0.0231   0.0156   0.0161  -0.0093   0.0140  -0.0128   0.00    0.0
2019/01/10 03:07:00.000  -2148744.6224   4426641.1240   4044655.8097   6   6   0.0231   0.0156   0.0161  -0.0093   0.0139  -0.0128   0.00    0.0
2019/01/10 03:07:30.000  -2148744.6221   4426641.1239   4044655.8095   6   6   0.0230   0.0156   0.0161  -0.0093   0.0139  -0.0128   0.00    0.0
2019/01/10 03:08:00.000  -2148744.6219   4426641.1238   4044655.8094   6   6   0.0230   0.0156   0.0161  -0.0093   0.0139  -0.0128   0.00    0.0
2019/01/10 03:08:30.000  -2148744.6215   4426641.1236   4044655.8090   6   6   0.0230   0.0156   0.0161  -0.0093   0.0139  -0.0128   0.00    0.0
2019/01/10 03:09:00.000  -2148744.6212   4426641.1232   4044655.8080   6   6   0.0229   0.0156   0.0161  -0.0093   0.0139  -0.0128   0.00    0.0
2019/01/10 03:09:30.000  -2148744.6199   4426641.1232   4044655.8077   6   6   0.0228   0.0155   0.0160  -0.0092   0.0139  -0.0127   0.00    0.0
2019/01/10 03:10:00.000  -2148744.6179   4426641.1236   4044655.8080   6   6   0.0223   0.0154   0.0158  -0.0090   0.0137  -0.0124   0.00    0.0
2019/01/10 03:10:30.000  -2148744.6152   4426641.1242   4044655.8085   6   6   0.0222   0.0154   0.0158  -0.0090   0.0137  -0.0124   0.00    0.0
2019/01/10 03:11:00.000  -2148744.6142   4426641.1247   4044655.8092   6   6   0.0221   0.0154   0.0157  -0.0089   0.0137  -0.0124   0.00    0.0
2019/01/10 03:11:30.000  -2148744.6138   4426641.1249   4044655.8094   6   6   0.0221   0.0153   0.0157  -0.0089   0.0137  -0.0123   0.00    0.0
2019/01/10 03:12:00.000  -2148744.6137   4426641.1250   4044655.8096   6   6   0.0221   0.0153   0.0157  -0.0089   0.0137  -0.0123   0.00    0.0
2019/01/10 03:12:30.000  -2148744.6140   4426641.1249   4044655.8098   6   6   0.0221   0.0153   0.0157  -0.0089   0.0137  -0.0123   0.00    0.0
2019/01/10 03:13:00.000  -2148744.6140   4426641.1250   4044655.8102   6   6   0.0221   0.0153   0.0157  -0.0089   0.0137  -0.0123   0.00    0.0
2019/01/10 03:13:30.000  -2148744.6140   4426641.1252   4044655.8107   6   6   0.0220   0.0153   0.0157  -0.0089   0.0137  -0.0123   0.00    0.0
2019/01/10 03:14:00.000  -2148744.6133   4426641.1250   4044655.8108   6   6   0.0220   0.0153   0.0157  -0.0089   0.0137  -0.0123   0.00    0.0
2019/01/10 03:14:30.000  -2148744.6145   4426641.1251   4044655.8115   6   6   0.0218   0.0153   0.0156  -0.0088   0.0136  -0.0122   0.00    0.0
2019/01/10 03:15:00.000  -2148744.6114   4426641.1247   4044655.8101   6   6   0.0214   0.0152   0.0155  -0.0086   0.0135  -0.0120   0.00    0.0
2019/01/10 03:15:30.000  -2148744.6108   4426641.1252   4044655.8107   6   6   0.0213   0.0151   0.0154  -0.0086   0.0135  -0.0120   0.00    0.0
2019/01/10 03:16:00.000  -2148744.6111   4426641.1250   4044655.8106   6   6   0.0212   0.0151   0.0154  -0.0085   0.0134  -0.0119   0.00    0.0
2019/01/10 03:16:30.000  -2148744.6114   4426641.1249   4044655.8106   6   6   0.0212   0.0151   0.0154  -0.0085   0.0134  -0.0119   0.00    0.0
2019/01/10 03:17:00.000  -2148744.6118   4426641.1248   4044655.8106   6   6   0.0212   0.0151   0.0154  -0.0085   0.0134  -0.0119   0.00    0.0
2019/01/10 03:17:30.000  -2148744.6119   4426641.1247   4044655.8107   6   6   0.0212   0.0151   0.0154  -0.0085   0.0134  -0.0119   0.00    0.0
2019/01/10 03:18:00.000  -2148744.6126   4426641.1246   4044655.8109   6   6   0.0212   0.0151   0.0154  -0.0085   0.0134  -0.0119   0.00    0.0
2019/01/10 03:18:30.000  -2148744.6129   4426641.1245   4044655.8111   6   7   0.0211   0.0151   0.0154  -0.0085   0.0134  -0.0119   0.00    0.0
2019/01/10 03:19:00.000  -2148744.6132   4426641.1242   4044655.8110   6   7   0.0211   0.0151   0.0154  -0.0085   0.0134  -0.0119   0.00    0.0
2019/01/10 03:19:30.000  -2148744.6144   4426641.1241   4044655.8105   6   7   0.0210   0.0151   0.0153  -0.0084   0.0134  -0.0118   0.00    0.0
2019/01/10 03:20:00.000  -2148744.6128   4426641.1239   4044655.8100   6   7   0.0206   0.0150   0.0152  -0.0082   0.0133  -0.0116   0.00    0.0
2019/01/10 03:20:30.000  -2148744.6142   4426641.1242   4044655.8111   6   7   0.0205   0.0149   0.0151  -0.0081   0.0132  -0.0116   0.00    0.0
2019/01/10 03:21:00.000  -2148744.6152   4426641.1243   4044655.8117   6   7   0.0204   0.0149   0.0151  -0.0081   0.0132  -0.0115   0.00    0.0
2019/01/10 03:21:30.000  -2148744.6155   4426641.1242   4044655.8118   6   7   0.0204   0.0149   0.0151  -0.0081   0.0132  -0.0115   0.00    0.0
2019/01/10 03:22:00.000  -2148744.6156   4426641.1242   4044655.8119   6   7   0.0204   0.0149   0.0151  -0.0081   0.0132  -0.0115   0.00    0.0
2019/01/10 03:22:30.000  -2148744.6160   4426641.1242   4044655.8120   6   7   0.0204   0.0149   0.0151  -0.0081   0.0132  -0.0115   0.00    0.0
2019/01/10 03:23:00.000  -2148744.6157   4426641.1242   4044655.8119   6   7   0.0204   0.0149   0.0151  -0.0081   0.0132  -0.0115   0.00    0.0
2019/01/10 03:23:30.000  -2148744.6157   4426641.1241   4044655.8119   6   7   0.0204   0.0149   0.0151  -0.0081   0.0132  -0.0115   0.00    0.0
2019/01/10 03:24:00.000  -2148744.6154   4426641.1241   4044655.8118   6   7   0.0203   0.0149   0.0151  -0.0081   0.0132  -0.0115   0.00    0.0
2019/01/10 03:24:30.000  -2148744.6127   4426641.1245   4044655.8122   6   7   0.0202   0.0149   0.0150  -0.0080   0.0132  -0.0114   0.00    0.0
2019/01/10 03:25:00.000  -2148744.6111   4426641.1247   4044655.8117   6   7   0.0198   0.0148   0.0149  -0.0078   0.0131  -0.0112   0.00    0.0
2019/01/10 03:25:30.000  -2148744.6130   4426641.1250   4044655.8124   6   7   0.0197   0.0147   0.0149  -0.0077   0.0130  -0.0112   0.00    0.0
2019/01/10 03:26:00.000  -2148744.6138   4426641.1252   4044655.8127   6   7   0.0197   0.0147   0.0149  -0.0077   0.0130  -0.0112   0.00    0.0
2019/01/10 03:26:30.000  -2148744.6143   4426641.1252   4044655.8127   6   7   0.0197   0.0147   0.0149  -0.0077   0.0130  -0.0112   0.00    0.0
2019/01/10 03:27:00.000  -2148744.6146   4426641.1252   4044655.8127   6   7   0.0197   0.0147   0.0149  -0.0077   0.0130  -0.0112   0.00    0.0
2019/01/10 03:27:30.000  -2148744.6149   4426641.1252   4044655.8127   6   7   0.0197   0.0147   0.0149  -0.0077   0.0130  -0.0112   0.00    0.0
2019/01/10 03:28:00.000  -2148744.6153   4426641.1253   4044655.8128   6   7   0.0196   0.0147   0.0148  -0.0077   0.0130  -0.0112   0.00    0.0
2019/01/10 03:28:30.000  -2148744.6159   4426641.1254   4044655.8131   6   7   0.0196   0.0147   0.0148  -0.0077   0.0130  -0.0111   0.00    0.0
2019/01/10 03:29:00.000  -2148744.6163   4426641.1256   4044655.8133   6   7   0.0196   0.0147   0.0148  -0.0076   0.0130  -0.0111   0.00    0.0
2019/01/10 03:29:30.000  -2148744.6166   4426641.1256   4044655.8135   6   7   0.0195   0.0147   0.0148  -0.0076   0.0130  -0.0111   0.00    0.0
2019/01/10 03:30:00.000  -2148744.6157   4426641.1257   4044655.8131   6   7   0.0192   0.0146   0.0147  -0.0073   0.0129  -0.0109   0.00    0.0
