% program   : RTKLIB ver.2.4.3
% inp file  : D:\mycode\vscode\rtklib-v1\rtklib-v1\new data\bjfs0100.19n
% inp file  : D:\mycode\vscode\rtklib-v1\rtklib-v1\new data\bjfs0100.19o
% inp file  : D:\mycode\vscode\rtklib-v1\rtklib-v1\new data\igs20354.clk
% inp file  : D:\mycode\vscode\rtklib-v1\rtklib-v1\new data\igs20354.sp3
% inp file  : D:\mycode\vscode\rtklib-v1\rtklib-v1\new data\igsg0100.19i
% inp file  : D:\mycode\vscode\rtklib-v1\rtklib-v1\new data\igs20427.erp
% inp file  : D:\mycode\vscode\rtklib-v1\rtklib-v1\new data\igs14.atx
% obs start : 2019/01/10 00:10:00.0 GPST (week2035 346200.0s)
% obs end   : 2019/01/10 03:30:00.0 GPST (week2035 358200.0s)
% pos mode  : PPP Static
% solution  : Forward
% elev mask : 15.0 deg
% dynamics  : off
% tidecorr  : off
% tropo opt : Estimate ZTD
% ephemeris : Precise
% navi sys  : GPS
% antenna1  :                       ( 0.0000  0.0000  0.0000)
%
% (x/y/z-ecef=WGS84,Q=1:fix,2:float,3:sbas,4:dgps,5:single,6:ppp,ns=# of satellites)
%  GPST                      x-ecef(m)      y-ecef(m)      z-ecef(m)   Q  ns   sdx(m)   sdy(m)   sdz(m)  sdxy(m)  sdyz(m)  sdzx(m) age(s)  ratio
2019/01/10 00:10:00.000  -2148745.2359   4426642.6227   4044654.8557   6   7   1.6618   2.3513   2.5640  -1.4653   1.8937  -1.1145   0.00    0.0
2019/01/10 00:10:30.000  -2148745.0923   4426642.2123   4044655.1930   6   7   1.1697   1.6492   1.7705  -1.0259   1.3119  -0.7720   0.00    0.0
2019/01/10 00:11:00.000  -2148745.1878   4426642.3639   4044655.9771   6   7   0.9521   1.3398   1.4212  -0.8323   1.0564  -0.6218   0.00    0.0
2019/01/10 00:11:30.000  -2148745.3780   4426642.3479   4044656.0389   6   7   0.8232   1.1578   1.2167  -0.7186   0.9073  -0.5344   0.00    0.0
2019/01/10 00:12:00.000  -2148745.4833   4426642.7382   4044656.4108   6   7   0.7359   1.0352   1.0797  -0.6422   0.8079  -0.4764   0.00    0.0
2019/01/10 00:12:30.000  -2148745.5031   4426642.6098   4044656.2449   6   7   0.6719   0.9459   0.9802  -0.5868   0.7359  -0.4346   0.00    0.0
2019/01/10 00:13:00.000  -2148745.4012   4426642.2910   4044655.9494   1   7   0.1314   0.1556   0.1622  -0.1230   0.1398  -0.0708   0.00    3.1
2019/01/10 00:13:30.000  -2148745.4058   4426642.2924   4044655.9428   6   7   0.1277   0.1523   0.1609  -0.1195   0.1381  -0.0686   0.00    0.0
2019/01/10 00:14:00.000  -2148745.4201   4426642.3034   4044655.9344   1   7   0.1213   0.1462   0.1584  -0.1131   0.1347  -0.0641   0.00  999.9
2019/01/10 00:14:30.000  -2148745.4272   4426642.3188   4044655.9427   1   7   0.1078   0.1325   0.1526  -0.0990   0.1264  -0.0523   0.00  999.9
2019/01/10 00:15:00.000  -2148745.4751   4426642.4163   4044656.0674   1   7   0.0520   0.1059   0.1129  -0.0725   0.1079  -0.0752   0.00   15.9
2019/01/10 00:15:30.000  -2148745.4899   4426642.4395   4044656.0888   1   7   0.0496   0.1011   0.1082  -0.0692   0.1032  -0.0719   0.00  999.9
2019/01/10 00:16:00.000  -2148745.4933   4426642.4463   4044656.0972   1   7   0.0487   0.0995   0.1067  -0.0681   0.1017  -0.0708   0.00  999.9
2019/01/10 00:16:30.000  -2148745.4959   4426642.4517   4044656.1039   1   7   0.0483   0.0987   0.1059  -0.0675   0.1009  -0.0703   0.00  999.9
2019/01/10 00:17:00.000  -2148745.4993   4426642.4582   4044656.1109   1   7   0.0481   0.0982   0.1055  -0.0672   0.1005  -0.0700   0.00  999.9
2019/01/10 00:17:30.000  -2148745.5016   4426642.4629   4044656.1156   1   7   0.0479   0.0978   0.1051  -0.0669   0.1001  -0.0697   0.00  999.9
2019/01/10 00:18:00.000  -2148745.5051   4426642.4700   4044656.1231   1   7   0.0476   0.0973   0.1046  -0.0666   0.0996  -0.0694   0.00  999.9
2019/01/10 00:18:30.000  -2148745.5104   4426642.4806   4044656.1346   1   7   0.0471   0.0963   0.1037  -0.0659   0.0986  -0.0687   0.00  999.9
2019/01/10 00:19:00.000  -2148745.5204   4426642.5008   4044656.1549   1   7   0.0461   0.0942   0.1018  -0.0644   0.0966  -0.0673   0.00  999.9
2019/01/10 00:19:30.000  -2148745.5613   4426642.5749   4044656.2322   1   7   0.0255   0.0574   0.0522  -0.0361   0.0533  -0.0345   0.00   61.7
2019/01/10 00:20:00.000  -2148745.5905   4426642.6169   4044656.2727   1   7   0.0223   0.0497   0.0459  -0.0314   0.0465  -0.0302   0.00  999.9
2019/01/10 00:20:30.000  -2148745.6012   4426642.6325   4044656.2875   1   7   0.0215   0.0478   0.0442  -0.0302   0.0448  -0.0291   0.00  999.9
2019/01/10 00:21:00.000  -2148745.6059   4426642.6395   4044656.2934   1   7   0.0212   0.0471   0.0436  -0.0297   0.0442  -0.0287   0.00  999.9
2019/01/10 00:21:30.000  -2148745.6069   4426642.6410   4044656.2946   1   7   0.0211   0.0468   0.0434  -0.0295   0.0439  -0.0285   0.00  999.9
2019/01/10 00:22:00.000  -2148745.6071   4426642.6414   4044656.2950   1   7   0.0210   0.0466   0.0432  -0.0294   0.0437  -0.0284   0.00  999.9
2019/01/10 00:22:30.000  -2148745.6074   4426642.6421   4044656.2958   1   7   0.0209   0.0465   0.0431  -0.0293   0.0436  -0.0283   0.00  999.9
2019/01/10 00:23:00.000  -2148745.6079   4426642.6431   4044656.2967   1   7   0.0208   0.0463   0.0429  -0.0292   0.0434  -0.0282   0.00  999.9
2019/01/10 00:23:30.000  -2148745.6088   4426642.6447   4044656.2987   1   7   0.0207   0.0460   0.0426  -0.0290   0.0431  -0.0280   0.00  999.9
2019/01/10 00:24:00.000  -2148745.6104   4426642.6465   4044656.3016   1   7   0.0204   0.0453   0.0420  -0.0286   0.0425  -0.0276   0.00  999.9
2019/01/10 00:24:30.000  -2148745.6164   4426642.6533   4044656.3101   1   7   0.0197   0.0436   0.0405  -0.0275   0.0409  -0.0266   0.00  999.9
2019/01/10 00:25:00.000  -2148745.6601   4426642.7095   4044656.3778   1   7   0.0162   0.0385   0.0344  -0.0236   0.0356  -0.0219   0.00   11.3
2019/01/10 00:25:30.000  -2148745.6688   4426642.7227   4044656.3888   1   7   0.0157   0.0373   0.0334  -0.0228   0.0345  -0.0212   0.00  999.9
2019/01/10 00:26:00.000  -2148745.6715   4426642.7284   4044656.3931   1   7   0.0155   0.0369   0.0330  -0.0226   0.0341  -0.0210   0.00  999.9
2019/01/10 00:26:30.000  -2148745.6733   4426642.7319   4044656.3957   1   7   0.0154   0.0367   0.0328  -0.0225   0.0339  -0.0208   0.00  999.9
2019/01/10 00:27:00.000  -2148745.6741   4426642.7332   4044656.3966   1   7   0.0154   0.0366   0.0327  -0.0224   0.0338  -0.0208   0.00  999.9
2019/01/10 00:27:30.000  -2148745.6746   4426642.7341   4044656.3973   1   7   0.0153   0.0365   0.0327  -0.0223   0.0337  -0.0207   0.00  999.9
2019/01/10 00:28:00.000  -2148745.6750   4426642.7343   4044656.3976   1   7   0.0153   0.0363   0.0325  -0.0222   0.0336  -0.0206   0.00  999.9
2019/01/10 00:28:30.000  -2148745.6753   4426642.7348   4044656.3985   1   7   0.0152   0.0361   0.0324  -0.0221   0.0334  -0.0205   0.00  999.9
2019/01/10 00:29:00.000  -2148745.6772   4426642.7388   4044656.4023   1   7   0.0150   0.0356   0.0320  -0.0218   0.0330  -0.0202   0.00  999.9
2019/01/10 00:29:30.000  -2148745.6840   4426642.7482   4044656.4109   1   7   0.0145   0.0345   0.0310  -0.0211   0.0319  -0.0196   0.00  999.9
2019/01/10 00:30:00.000  -2148745.6880   4426642.7527   4044656.4221   1   6   0.0137   0.0318   0.0287  -0.0196   0.0294  -0.0181   0.00  999.9
2019/01/10 00:30:30.000  -2148745.6913   4426642.7576   4044656.4247   1   8   0.0134   0.0309   0.0279  -0.0191   0.0286  -0.0176   0.00  999.9
2019/01/10 00:31:00.000  -2148745.6932   4426642.7608   4044656.4262   1   8   0.0132   0.0306   0.0276  -0.0188   0.0283  -0.0174   0.00  999.9
2019/01/10 00:31:30.000  -2148745.6944   4426642.7633   4044656.4277   1   8   0.0132   0.0305   0.0275  -0.0187   0.0282  -0.0173   0.00  999.9
2019/01/10 00:32:00.000  -2148745.6956   4426642.7656   4044656.4294   1   8   0.0131   0.0304   0.0274  -0.0187   0.0281  -0.0173   0.00  999.9
2019/01/10 00:32:30.000  -2148745.6961   4426642.7666   4044656.4301   1   8   0.0131   0.0303   0.0273  -0.0186   0.0280  -0.0172   0.00  999.9
2019/01/10 00:33:00.000  -2148745.6967   4426642.7677   4044656.4311   1   8   0.0130   0.0302   0.0272  -0.0186   0.0279  -0.0172   0.00  999.9
2019/01/10 00:33:30.000  -2148745.6982   4426642.7697   4044656.4332   1   8   0.0130   0.0300   0.0271  -0.0184   0.0278  -0.0171   0.00  999.9
2019/01/10 00:34:00.000  -2148745.7014   4426642.7741   4044656.4378   1   8   0.0128   0.0296   0.0268  -0.0182   0.0274  -0.0168   0.00  999.9
2019/01/10 00:34:30.000  -2148745.7025   4426642.7744   4044656.4419   1   7   0.0125   0.0287   0.0260  -0.0177   0.0266  -0.0164   0.00  999.9
2019/01/10 00:35:00.000  -2148745.7012   4426642.7710   4044656.4408   1   6   0.0118   0.0261   0.0241  -0.0162   0.0244  -0.0151   0.00   30.6
2019/01/10 00:35:30.000  -2148745.7083   4426642.7809   4044656.4497   1   8   0.0115   0.0255   0.0235  -0.0158   0.0238  -0.0147   0.00  999.9
2019/01/10 00:36:00.000  -2148745.7111   4426642.7854   4044656.4541   1   7   0.0114   0.0253   0.0234  -0.0157   0.0236  -0.0146   0.00  999.9
2019/01/10 00:36:30.000  -2148745.7123   4426642.7869   4044656.4557   1   7   0.0114   0.0252   0.0233  -0.0157   0.0235  -0.0146   0.00  999.9
2019/01/10 00:37:00.000  -2148745.7131   4426642.7878   4044656.4565   1   7   0.0114   0.0251   0.0232  -0.0156   0.0235  -0.0145   0.00  999.9
2019/01/10 00:37:30.000  -2148745.7136   4426642.7881   4044656.4566   1   6   0.0114   0.0251   0.0232  -0.0156   0.0235  -0.0145   0.00  999.9
2019/01/10 00:38:00.000  -2148745.7144   4426642.7886   4044656.4569   1   6   0.0114   0.0251   0.0232  -0.0156   0.0234  -0.0145   0.00  999.9
2019/01/10 00:38:30.000  -2148745.7157   4426642.7898   4044656.4573   1   6   0.0113   0.0250   0.0231  -0.0156   0.0234  -0.0145   0.00  999.9
2019/01/10 00:39:00.000  -2148745.7186   4426642.7926   4044656.4585   1   6   0.0113   0.0249   0.0230  -0.0155   0.0233  -0.0144   0.00  999.9
2019/01/10 00:39:30.000  -2148745.7205   4426642.7943   4044656.4616   1   5   0.0112   0.0246   0.0227  -0.0153   0.0230  -0.0142   0.00  999.9
2019/01/10 00:40:00.000  -2148745.7177   4426642.7871   4044656.4536   6   4   0.0109   0.0236   0.0220  -0.0149   0.0221  -0.0138   0.00    0.0
2019/01/10 00:40:30.000  -2148745.7198   4426642.7918   4044656.4591   1   5   0.0109   0.0234   0.0217  -0.0147   0.0218  -0.0136   0.00  999.9
2019/01/10 00:41:00.000  -2148745.7202   4426642.7930   4044656.4605   1   5   0.0108   0.0233   0.0216  -0.0147   0.0218  -0.0136   0.00  999.9
2019/01/10 00:41:30.000  -2148745.7213   4426642.7939   4044656.4604   1   6   0.0108   0.0232   0.0216  -0.0146   0.0217  -0.0136   0.00  999.9
2019/01/10 00:42:00.000  -2148745.7218   4426642.7942   4044656.4602   1   6   0.0108   0.0232   0.0216  -0.0146   0.0217  -0.0135   0.00  999.9
2019/01/10 00:42:30.000  -2148745.7222   4426642.7944   4044656.4601   1   6   0.0108   0.0232   0.0216  -0.0146   0.0217  -0.0135   0.00  999.9
2019/01/10 00:43:00.000  -2148745.7228   4426642.7949   4044656.4602   1   6   0.0108   0.0232   0.0215  -0.0146   0.0217  -0.0135   0.00  999.9
2019/01/10 00:43:30.000  -2148745.7239   4426642.7958   4044656.4603   1   6   0.0108   0.0231   0.0215  -0.0146   0.0216  -0.0135   0.00  999.9
2019/01/10 00:44:00.000  -2148745.7261   4426642.7965   4044656.4597   1   7   0.0107   0.0230   0.0214  -0.0145   0.0215  -0.0135   0.00  999.9
2019/01/10 00:44:30.000  -2148745.7273   4426642.7955   4044656.4593   1   6   0.0107   0.0228   0.0212  -0.0144   0.0213  -0.0133   0.00  999.9
2019/01/10 00:45:00.000  -2148745.7250   4426642.7888   4044656.4518   1   5   0.0105   0.0221   0.0205  -0.0141   0.0206  -0.0130   0.00  999.9
2019/01/10 00:45:30.000  -2148745.7259   4426642.7895   4044656.4536   1   6   0.0104   0.0218   0.0204  -0.0140   0.0204  -0.0129   0.00  999.9
2019/01/10 00:46:00.000  -2148745.7281   4426642.7909   4044656.4535   1   7   0.0104   0.0218   0.0203  -0.0139   0.0203  -0.0128   0.00  999.9
2019/01/10 00:46:30.000  -2148745.7294   4426642.7918   4044656.4536   1   7   0.0104   0.0217   0.0203  -0.0139   0.0203  -0.0128   0.00  999.9
2019/01/10 00:47:00.000  -2148745.7303   4426642.7924   4044656.4536   1   7   0.0104   0.0217   0.0202  -0.0139   0.0203  -0.0128   0.00  999.9
2019/01/10 00:47:30.000  -2148745.7308   4426642.7926   4044656.4535   1   7   0.0104   0.0217   0.0202  -0.0139   0.0203  -0.0128   0.00  999.9
2019/01/10 00:48:00.000  -2148745.7316   4426642.7930   4044656.4535   1   7   0.0104   0.0217   0.0202  -0.0139   0.0203  -0.0128   0.00  999.9
2019/01/10 00:48:30.000  -2148745.7329   4426642.7938   4044656.4536   1   7   0.0104   0.0217   0.0202  -0.0139   0.0202  -0.0128   0.00  999.9
2019/01/10 00:49:00.000  -2148745.7335   4426642.7939   4044656.4547   1   6   0.0103   0.0216   0.0201  -0.0138   0.0202  -0.0127   0.00  999.9
2019/01/10 00:49:30.000  -2148745.7336   4426642.7934   4044656.4535   1   5   0.0103   0.0214   0.0199  -0.0137   0.0200  -0.0127   0.00  999.9
2019/01/10 00:50:00.000  -2148745.7315   4426642.7876   4044656.4466   1   5   0.0102   0.0208   0.0194  -0.0135   0.0194  -0.0124   0.00  999.9
2019/01/10 00:50:30.000  -2148745.7311   4426642.7868   4044656.4448   1   5   0.0101   0.0206   0.0192  -0.0134   0.0192  -0.0123   0.00  999.9
2019/01/10 00:51:00.000  -2148745.7318   4426642.7883   4044656.4466   1   6   0.0101   0.0205   0.0192  -0.0134   0.0192  -0.0123   0.00  999.9
2019/01/10 00:51:30.000  -2148745.7324   4426642.7913   4044656.4501   1   7   0.0101   0.0198   0.0178  -0.0132   0.0181  -0.0121   0.00    3.9
2019/01/10 00:52:00.000  -2148745.7325   4426642.7914   4044656.4503   1   7   0.0101   0.0197   0.0178  -0.0132   0.0181  -0.0121   0.00  999.9
2019/01/10 00:52:30.000  -2148745.7326   4426642.7915   4044656.4503   1   7   0.0101   0.0197   0.0178  -0.0132   0.0181  -0.0121   0.00  999.9
2019/01/10 00:53:00.000  -2148745.7328   4426642.7916   4044656.4505   1   7   0.0101   0.0197   0.0178  -0.0132   0.0181  -0.0121   0.00  999.9
2019/01/10 00:53:30.000  -2148745.7333   4426642.7919   4044656.4512   1   7   0.0101   0.0197   0.0177  -0.0132   0.0180  -0.0121   0.00  999.9
2019/01/10 00:54:00.000  -2148745.7341   4426642.7923   4044656.4522   1   7   0.0100   0.0196   0.0177  -0.0132   0.0180  -0.0121   0.00  999.9
2019/01/10 00:54:30.000  -2148745.7339   4426642.7906   4044656.4503   1   6   0.0100   0.0195   0.0175  -0.0131   0.0178  -0.0120   0.00  999.9
2019/01/10 00:55:00.000  -2148745.7290   4426642.7833   4044656.4450   1   6   0.0098   0.0190   0.0171  -0.0129   0.0174  -0.0118   0.00  999.9
2019/01/10 00:55:30.000  -2148745.7275   4426642.7828   4044656.4448   1   6   0.0098   0.0189   0.0170  -0.0128   0.0173  -0.0118   0.00  999.9
2019/01/10 00:56:00.000  -2148745.7277   4426642.7829   4044656.4456   1   7   0.0098   0.0188   0.0169  -0.0128   0.0172  -0.0117   0.00  999.9
2019/01/10 00:56:30.000  -2148745.7279   4426642.7830   4044656.4459   1   7   0.0098   0.0188   0.0169  -0.0128   0.0172  -0.0117   0.00  999.9
2019/01/10 00:57:00.000  -2148745.7280   4426642.7830   4044656.4459   1   7   0.0098   0.0188   0.0169  -0.0128   0.0172  -0.0117   0.00  999.9
2019/01/10 00:57:30.000  -2148745.7281   4426642.7829   4044656.4458   1   7   0.0098   0.0188   0.0169  -0.0128   0.0172  -0.0117   0.00  999.9
2019/01/10 00:58:00.000  -2148745.7283   4426642.7828   4044656.4458   1   7   0.0098   0.0188   0.0168  -0.0128   0.0172  -0.0117   0.00  999.9
2019/01/10 00:58:30.000  -2148745.7286   4426642.7827   4044656.4458   1   7   0.0097   0.0188   0.0168  -0.0128   0.0171  -0.0117   0.00  999.9
2019/01/10 00:59:00.000  -2148745.7292   4426642.7826   4044656.4461   1   7   0.0097   0.0187   0.0168  -0.0127   0.0171  -0.0117   0.00  999.9
2019/01/10 00:59:30.000  -2148745.7287   4426642.7812   4044656.4455   1   6   0.0097   0.0186   0.0167  -0.0127   0.0170  -0.0116   0.00  999.9
2019/01/10 01:00:00.000  -2148745.7268   4426642.7773   4044656.4425   1   6   0.0095   0.0182   0.0163  -0.0125   0.0166  -0.0115   0.00  999.9
2019/01/10 01:00:30.000  -2148745.7270   4426642.7771   4044656.4418   1   6   0.0095   0.0181   0.0162  -0.0124   0.0165  -0.0114   0.00  999.9
2019/01/10 01:01:00.000  -2148745.7273   4426642.7771   4044656.4416   1   6   0.0095   0.0181   0.0162  -0.0124   0.0165  -0.0114   0.00  999.9
2019/01/10 01:01:30.000  -2148745.7275   4426642.7765   4044656.4415   1   7   0.0095   0.0180   0.0162  -0.0124   0.0165  -0.0114   0.00  999.9
2019/01/10 01:02:00.000  -2148745.7275   4426642.7758   4044656.4410   1   7   0.0095   0.0180   0.0162  -0.0124   0.0165  -0.0114   0.00  999.9
2019/01/10 01:02:30.000  -2148745.7275   4426642.7753   4044656.4406   1   7   0.0095   0.0180   0.0162  -0.0124   0.0165  -0.0114   0.00  999.9
2019/01/10 01:03:00.000  -2148745.7274   4426642.7747   4044656.4402   1   7   0.0095   0.0180   0.0161  -0.0124   0.0164  -0.0114   0.00  999.9
2019/01/10 01:03:30.000  -2148745.7274   4426642.7739   4044656.4397   1   7   0.0095   0.0180   0.0161  -0.0124   0.0164  -0.0114   0.00  999.9
2019/01/10 01:04:00.000  -2148745.7271   4426642.7727   4044656.4384   1   6   0.0095   0.0179   0.0161  -0.0123   0.0164  -0.0114   0.00  999.9
2019/01/10 01:04:30.000  -2148745.7267   4426642.7713   4044656.4374   1   6   0.0094   0.0178   0.0160  -0.0123   0.0163  -0.0113   0.00  999.9
2019/01/10 01:05:00.000  -2148745.7263   4426642.7697   4044656.4366   1   6   0.0093   0.0175   0.0157  -0.0120   0.0160  -0.0111   0.00  999.9
2019/01/10 01:05:30.000  -2148745.7262   4426642.7699   4044656.4377   1   6   0.0092   0.0173   0.0156  -0.0120   0.0159  -0.0111   0.00  999.9
2019/01/10 01:06:00.000  -2148745.7261   4426642.7697   4044656.4380   1   6   0.0092   0.0173   0.0155  -0.0120   0.0158  -0.0111   0.00  999.9
2019/01/10 01:06:30.000  -2148745.7260   4426642.7697   4044656.4383   1   7   0.0092   0.0173   0.0155  -0.0119   0.0158  -0.0111   0.00   38.7
2019/01/10 01:07:00.000  -2148745.7259   4426642.7697   4044656.4385   1   7   0.0092   0.0173   0.0155  -0.0119   0.0158  -0.0111   0.00  999.9
2019/01/10 01:07:30.000  -2148745.7259   4426642.7697   4044656.4386   1   7   0.0092   0.0173   0.0155  -0.0119   0.0158  -0.0111   0.00  999.9
2019/01/10 01:08:00.000  -2148745.7259   4426642.7695   4044656.4387   1   7   0.0092   0.0172   0.0155  -0.0119   0.0158  -0.0110   0.00  999.9
2019/01/10 01:08:30.000  -2148745.7259   4426642.7692   4044656.4387   1   7   0.0092   0.0172   0.0155  -0.0119   0.0157  -0.0110   0.00  999.9
2019/01/10 01:09:00.000  -2148745.7256   4426642.7682   4044656.4382   1   7   0.0091   0.0172   0.0154  -0.0119   0.0157  -0.0110   0.00  999.9
2019/01/10 01:09:30.000  -2148745.7246   4426642.7656   4044656.4366   1   7   0.0091   0.0170   0.0153  -0.0118   0.0156  -0.0109   0.00  999.9
2019/01/10 01:10:00.000  -2148745.7210   4426642.7603   4044656.4340   1   6   0.0089   0.0167   0.0150  -0.0116   0.0152  -0.0108   0.00  999.9
2019/01/10 01:10:30.000  -2148745.7208   4426642.7593   4044656.4340   1   7   0.0089   0.0165   0.0149  -0.0115   0.0151  -0.0107   0.00  999.9
2019/01/10 01:11:00.000  -2148745.7205   4426642.7584   4044656.4336   1   7   0.0089   0.0165   0.0149  -0.0115   0.0151  -0.0107   0.00  999.9
2019/01/10 01:11:30.000  -2148745.7201   4426642.7573   4044656.4326   1   7   0.0089   0.0164   0.0148  -0.0114   0.0151  -0.0106   0.00  999.9
2019/01/10 01:12:00.000  -2148745.7199   4426642.7565   4044656.4320   1   7   0.0088   0.0164   0.0148  -0.0114   0.0150  -0.0106   0.00  999.9
2019/01/10 01:12:30.000  -2148745.7197   4426642.7559   4044656.4315   1   7   0.0088   0.0164   0.0148  -0.0114   0.0150  -0.0106   0.00  999.9
2019/01/10 01:13:00.000  -2148745.7194   4426642.7550   4044656.4307   1   7   0.0088   0.0164   0.0148  -0.0114   0.0150  -0.0106   0.00  999.9
2019/01/10 01:13:30.000  -2148745.7191   4426642.7541   4044656.4299   1   7   0.0088   0.0164   0.0148  -0.0114   0.0150  -0.0106   0.00  999.9
2019/01/10 01:14:00.000  -2148745.7188   4426642.7529   4044656.4289   1   7   0.0088   0.0163   0.0147  -0.0114   0.0149  -0.0106   0.00  999.9
2019/01/10 01:14:30.000  -2148745.7204   4426642.7545   4044656.4308   1   6   0.0088   0.0162   0.0147  -0.0113   0.0149  -0.0105   0.00  999.9
2019/01/10 01:15:00.000  -2148745.7205   4426642.7562   4044656.4343   1   5   0.0086   0.0160   0.0144  -0.0112   0.0146  -0.0104   0.00  999.9
2019/01/10 01:15:30.000  -2148745.7215   4426642.7569   4044656.4356   1   6   0.0086   0.0159   0.0144  -0.0111   0.0146  -0.0104   0.00  999.9
2019/01/10 01:16:00.000  -2148745.7219   4426642.7571   4044656.4361   1   6   0.0086   0.0159   0.0144  -0.0111   0.0146  -0.0103   0.00  999.9
2019/01/10 01:16:30.000  -2148745.7220   4426642.7570   4044656.4362   1   6   0.0086   0.0159   0.0144  -0.0111   0.0146  -0.0103   0.00  999.9
2019/01/10 01:17:00.000  -2148745.7220   4426642.7570   4044656.4364   1   6   0.0086   0.0159   0.0143  -0.0111   0.0146  -0.0103   0.00  999.9
2019/01/10 01:17:30.000  -2148745.7220   4426642.7570   4044656.4365   1   6   0.0086   0.0159   0.0143  -0.0111   0.0146  -0.0103   0.00  999.9
2019/01/10 01:18:00.000  -2148745.7220   4426642.7571   4044656.4368   1   6   0.0086   0.0159   0.0143  -0.0111   0.0145  -0.0103   0.00  999.9
2019/01/10 01:18:30.000  -2148745.7221   4426642.7573   4044656.4373   1   6   0.0086   0.0159   0.0143  -0.0111   0.0145  -0.0103   0.00  999.9
2019/01/10 01:19:00.000  -2148745.7225   4426642.7574   4044656.4384   1   6   0.0086   0.0158   0.0143  -0.0111   0.0145  -0.0103   0.00  999.9
2019/01/10 01:19:30.000  -2148745.7231   4426642.7580   4044656.4411   1   5   0.0085   0.0158   0.0143  -0.0110   0.0145  -0.0103   0.00  999.9
2019/01/10 01:20:00.000  -2148745.7242   4426642.7596   4044656.4457   1   5   0.0084   0.0156   0.0141  -0.0109   0.0143  -0.0102   0.00  999.9
2019/01/10 01:20:30.000  -2148745.7240   4426642.7597   4044656.4467   1   5   0.0084   0.0155   0.0140  -0.0109   0.0142  -0.0101   0.00  999.9
2019/01/10 01:21:00.000  -2148745.7242   4426642.7595   4044656.4470   1   6   0.0084   0.0155   0.0140  -0.0108   0.0142  -0.0101   0.00  999.9
2019/01/10 01:21:30.000  -2148745.7242   4426642.7592   4044656.4469   1   6   0.0084   0.0155   0.0140  -0.0108   0.0142  -0.0101   0.00  999.9
2019/01/10 01:22:00.000  -2148745.7242   4426642.7590   4044656.4470   1   6   0.0084   0.0155   0.0140  -0.0108   0.0142  -0.0101   0.00  999.9
2019/01/10 01:22:30.000  -2148745.7242   4426642.7589   4044656.4471   1   6   0.0084   0.0155   0.0140  -0.0108   0.0142  -0.0101   0.00  999.9
2019/01/10 01:23:00.000  -2148745.7243   4426642.7588   4044656.4472   1   6   0.0084   0.0155   0.0140  -0.0108   0.0142  -0.0101   0.00  999.9
2019/01/10 01:23:30.000  -2148745.7244   4426642.7587   4044656.4474   1   6   0.0084   0.0155   0.0140  -0.0108   0.0142  -0.0101   0.00  999.9
2019/01/10 01:24:00.000  -2148745.7245   4426642.7581   4044656.4473   1   6   0.0083   0.0155   0.0140  -0.0108   0.0142  -0.0101   0.00  999.9
2019/01/10 01:24:30.000  -2148745.7245   4426642.7578   4044656.4482   1   5   0.0083   0.0154   0.0139  -0.0108   0.0141  -0.0101   0.00  999.9
2019/01/10 01:25:00.000  -2148745.7282   4426642.7653   4044656.4562   1   4   0.0082   0.0153   0.0138  -0.0106   0.0140  -0.0099   0.00  999.9
2019/01/10 01:25:30.000  -2148745.7293   4426642.7670   4044656.4587   1   5   0.0082   0.0152   0.0137  -0.0106   0.0139  -0.0099   0.00  999.9
2019/01/10 01:26:00.000  -2148745.7300   4426642.7673   4044656.4593   1   6   0.0082   0.0152   0.0137  -0.0106   0.0139  -0.0099   0.00  999.9
2019/01/10 01:26:30.000  -2148745.7303   4426642.7674   4044656.4596   1   6   0.0082   0.0152   0.0137  -0.0106   0.0139  -0.0099   0.00  999.9
2019/01/10 01:27:00.000  -2148745.7305   4426642.7674   4044656.4598   1   6   0.0082   0.0152   0.0137  -0.0106   0.0139  -0.0099   0.00  999.9
2019/01/10 01:27:30.000  -2148745.7306   4426642.7674   4044656.4599   1   6   0.0082   0.0152   0.0137  -0.0106   0.0139  -0.0099   0.00  999.9
2019/01/10 01:28:00.000  -2148745.7308   4426642.7674   4044656.4602   1   6   0.0082   0.0152   0.0137  -0.0106   0.0139  -0.0099   0.00  999.9
2019/01/10 01:28:30.000  -2148745.7310   4426642.7673   4044656.4605   1   6   0.0081   0.0152   0.0137  -0.0106   0.0139  -0.0099   0.00  999.9
2019/01/10 01:29:00.000  -2148745.7313   4426642.7675   4044656.4610   1   5   0.0081   0.0152   0.0137  -0.0106   0.0139  -0.0099   0.00  999.9
2019/01/10 01:29:30.000  -2148745.7321   4426642.7681   4044656.4623   1   5   0.0081   0.0151   0.0136  -0.0105   0.0139  -0.0098   0.00  999.9
2019/01/10 01:30:00.000  -2148745.7319   4426642.7678   4044656.4632   6   3   0.0080   0.0151   0.0136  -0.0105   0.0138  -0.0098   0.00    0.0
2019/01/10 01:30:30.000  -2148745.7323   4426642.7677   4044656.4641   1   5   0.0080   0.0150   0.0136  -0.0104   0.0138  -0.0098   0.00  999.9
2019/01/10 01:31:00.000  -2148745.7324   4426642.7677   4044656.4644   1   5   0.0080   0.0150   0.0135  -0.0104   0.0138  -0.0098   0.00  999.9
2019/01/10 01:31:30.000  -2148745.7325   4426642.7677   4044656.4646   1   6   0.0080   0.0150   0.0135  -0.0104   0.0138  -0.0098   0.00  999.9
2019/01/10 01:32:00.000  -2148745.7326   4426642.7677   4044656.4648   1   6   0.0080   0.0150   0.0135  -0.0104   0.0138  -0.0098   0.00  999.9
2019/01/10 01:32:30.000  -2148745.7326   4426642.7678   4044656.4649   1   6   0.0080   0.0150   0.0135  -0.0104   0.0138  -0.0097   0.00  999.9
2019/01/10 01:33:00.000  -2148745.7328   4426642.7679   4044656.4652   1   6   0.0080   0.0150   0.0135  -0.0104   0.0138  -0.0097   0.00  999.9
2019/01/10 01:33:30.000  -2148745.7332   4426642.7682   4044656.4658   1   6   0.0080   0.0150   0.0135  -0.0104   0.0137  -0.0097   0.00  999.9
2019/01/10 01:34:00.000  -2148745.7341   4426642.7690   4044656.4673   1   6   0.0080   0.0150   0.0135  -0.0104   0.0137  -0.0097   0.00  999.9
2019/01/10 01:34:30.000  -2148745.7367   4426642.7736   4044656.4719   6   5   0.0079   0.0149   0.0135  -0.0104   0.0137  -0.0097   0.00    0.0
2019/01/10 01:35:00.000  -2148745.7375   4426642.7746   4044656.4738   6   4   0.0079   0.0149   0.0134  -0.0103   0.0137  -0.0096   0.00    0.0
2019/01/10 01:35:30.000  -2148745.7396   4426642.7783   4044656.4781   6   5   0.0078   0.0149   0.0134  -0.0103   0.0136  -0.0096   0.00    0.0
2019/01/10 01:36:00.000  -2148745.7399   4426642.7784   4044656.4791   1   6   0.0078   0.0148   0.0134  -0.0102   0.0136  -0.0096   0.00  999.9
2019/01/10 01:36:30.000  -2148745.7400   4426642.7784   4044656.4795   1   6   0.0078   0.0148   0.0134  -0.0102   0.0136  -0.0096   0.00  999.9
2019/01/10 01:37:00.000  -2148745.7401   4426642.7785   4044656.4797   1   6   0.0078   0.0148   0.0134  -0.0102   0.0136  -0.0096   0.00  999.9
2019/01/10 01:37:30.000  -2148745.7401   4426642.7784   4044656.4797   1   6   0.0078   0.0148   0.0134  -0.0102   0.0136  -0.0096   0.00  999.9
2019/01/10 01:38:00.000  -2148745.7402   4426642.7783   4044656.4799   1   6   0.0078   0.0148   0.0134  -0.0102   0.0136  -0.0096   0.00  999.9
2019/01/10 01:38:30.000  -2148745.7403   4426642.7782   4044656.4802   1   6   0.0078   0.0148   0.0133  -0.0102   0.0136  -0.0096   0.00  999.9
2019/01/10 01:39:00.000  -2148745.7404   4426642.7790   4044656.4816   1   6   0.0078   0.0148   0.0133  -0.0102   0.0135  -0.0096   0.00   10.9
2019/01/10 01:39:30.000  -2148745.7423   4426642.7821   4044656.4849   1   5   0.0077   0.0147   0.0133  -0.0102   0.0135  -0.0095   0.00  999.9
2019/01/10 01:40:00.000  -2148745.7440   4426642.7850   4044656.4877   6   4   0.0077   0.0147   0.0132  -0.0101   0.0134  -0.0095   0.00    0.0
2019/01/10 01:40:30.000  -2148745.7457   4426642.7879   4044656.4915   1   5   0.0076   0.0146   0.0132  -0.0100   0.0134  -0.0094   0.00  999.9
2019/01/10 01:41:00.000  -2148745.7463   4426642.7890   4044656.4930   1   5   0.0076   0.0146   0.0131  -0.0100   0.0134  -0.0094   0.00  999.9
2019/01/10 01:41:30.000  -2148745.7464   4426642.7888   4044656.4933   1   6   0.0076   0.0146   0.0131  -0.0100   0.0134  -0.0094   0.00  999.9
2019/01/10 01:42:00.000  -2148745.7465   4426642.7886   4044656.4934   1   6   0.0076   0.0146   0.0131  -0.0100   0.0134  -0.0094   0.00  999.9
2019/01/10 01:42:30.000  -2148745.7465   4426642.7885   4044656.4935   1   6   0.0076   0.0146   0.0131  -0.0100   0.0134  -0.0094   0.00  999.9
2019/01/10 01:43:00.000  -2148745.7466   4426642.7883   4044656.4936   1   6   0.0076   0.0146   0.0131  -0.0100   0.0134  -0.0094   0.00  999.9
2019/01/10 01:43:30.000  -2148745.7466   4426642.7878   4044656.4936   1   6   0.0076   0.0146   0.0131  -0.0100   0.0133  -0.0094   0.00  999.9
2019/01/10 01:44:00.000  -2148745.7474   4426642.7891   4044656.4950   1   5   0.0076   0.0145   0.0131  -0.0100   0.0133  -0.0094   0.00  999.9
2019/01/10 01:44:30.000  -2148745.7485   4426642.7907   4044656.4964   6   4   0.0075   0.0145   0.0131  -0.0099   0.0133  -0.0093   0.00    0.0
2019/01/10 01:45:00.000  -2148745.7503   4426642.7938   4044656.4990   6   4   0.0075   0.0144   0.0130  -0.0099   0.0132  -0.0093   0.00    0.0
2019/01/10 01:45:30.000  -2148745.7516   4426642.7956   4044656.5004   6   4   0.0074   0.0144   0.0130  -0.0098   0.0132  -0.0092   0.00    0.0
2019/01/10 01:46:00.000  -2148745.7526   4426642.7967   4044656.5014   1   5   0.0074   0.0144   0.0129  -0.0098   0.0132  -0.0092   0.00  999.9
2019/01/10 01:46:30.000  -2148745.7529   4426642.7971   4044656.5017   1   6   0.0074   0.0143   0.0129  -0.0098   0.0131  -0.0092   0.00   44.1
2019/01/10 01:47:00.000  -2148745.7531   4426642.7973   4044656.5020   1   6   0.0074   0.0143   0.0129  -0.0098   0.0131  -0.0092   0.00  999.9
2019/01/10 01:47:30.000  -2148745.7532   4426642.7974   4044656.5021   1   6   0.0074   0.0143   0.0129  -0.0098   0.0131  -0.0092   0.00  999.9
2019/01/10 01:48:00.000  -2148745.7534   4426642.7976   4044656.5023   1   6   0.0074   0.0143   0.0129  -0.0098   0.0131  -0.0092   0.00  999.9
2019/01/10 01:48:30.000  -2148745.7538   4426642.7981   4044656.5029   1   6   0.0074   0.0143   0.0129  -0.0098   0.0131  -0.0092   0.00  999.9
2019/01/10 01:49:00.000  -2148745.7545   4426642.7987   4044656.5039   1   6   0.0074   0.0143   0.0129  -0.0098   0.0131  -0.0092   0.00  999.9
2019/01/10 01:49:30.000  -2148745.7541   4426642.7964   4044656.5029   1   5   0.0073   0.0142   0.0128  -0.0097   0.0130  -0.0091   0.00  999.9
2019/01/10 01:50:00.000  -2148745.7567   4426642.8005   4044656.5057   6   4   0.0072   0.0141   0.0127  -0.0096   0.0129  -0.0090   0.00    0.0
2019/01/10 01:50:30.000  -2148745.7567   4426642.7987   4044656.5048   1   5   0.0072   0.0140   0.0127  -0.0096   0.0129  -0.0090   0.00  999.9
2019/01/10 01:51:00.000  -2148745.7574   4426642.7992   4044656.5057   1   6   0.0072   0.0140   0.0127  -0.0095   0.0129  -0.0090   0.00  999.9
2019/01/10 01:51:30.000  -2148745.7577   4426642.7995   4044656.5061   1   6   0.0072   0.0140   0.0127  -0.0095   0.0128  -0.0090   0.00  999.9
2019/01/10 01:52:00.000  -2148745.7579   4426642.7995   4044656.5063   1   6   0.0072   0.0140   0.0127  -0.0095   0.0128  -0.0090   0.00  999.9
2019/01/10 01:52:30.000  -2148745.7580   4426642.7996   4044656.5065   1   6   0.0072   0.0140   0.0127  -0.0095   0.0128  -0.0090   0.00  999.9
2019/01/10 01:53:00.000  -2148745.7581   4426642.7996   4044656.5065   1   6   0.0072   0.0140   0.0126  -0.0095   0.0128  -0.0090   0.00  999.9
2019/01/10 01:53:30.000  -2148745.7586   4426642.8001   4044656.5071   1   5   0.0072   0.0140   0.0126  -0.0095   0.0128  -0.0090   0.00  999.9
2019/01/10 01:54:00.000  -2148745.7587   4426642.7997   4044656.5069   6   4   0.0072   0.0140   0.0126  -0.0095   0.0128  -0.0090   0.00    0.0
2019/01/10 01:54:30.000  -2148745.7589   4426642.7979   4044656.5060   6   4   0.0072   0.0139   0.0126  -0.0095   0.0128  -0.0089   0.00    0.0
2019/01/10 01:55:00.000  -2148745.7612   4426642.8012   4044656.5077   6   3   0.0071   0.0139   0.0126  -0.0094   0.0128  -0.0089   0.00    0.0
2019/01/10 01:55:30.000  -2148745.7621   4426642.8025   4044656.5083   6   4   0.0071   0.0139   0.0126  -0.0094   0.0128  -0.0089   0.00    0.0
2019/01/10 01:56:00.000  -2148745.7621   4426642.8016   4044656.5080   6   5   0.0071   0.0139   0.0126  -0.0094   0.0128  -0.0089   0.00    0.0
2019/01/10 01:56:30.000  -2148745.7621   4426642.8013   4044656.5079   1   6   0.0071   0.0139   0.0126  -0.0094   0.0128  -0.0089   0.00    5.7
2019/01/10 01:57:00.000  -2148745.7621   4426642.8011   4044656.5078   1   6   0.0071   0.0139   0.0126  -0.0094   0.0128  -0.0089   0.00  999.9
2019/01/10 01:57:30.000  -2148745.7621   4426642.8009   4044656.5077   1   6   0.0071   0.0139   0.0126  -0.0094   0.0128  -0.0089   0.00  999.9
2019/01/10 01:58:00.000  -2148745.7621   4426642.8005   4044656.5075   1   6   0.0071   0.0139   0.0126  -0.0094   0.0128  -0.0089   0.00  999.9
2019/01/10 01:58:30.000  -2148745.7622   4426642.8001   4044656.5074   1   6   0.0071   0.0139   0.0126  -0.0094   0.0128  -0.0089   0.00  999.9
2019/01/10 01:59:00.000  -2148745.7625   4426642.7994   4044656.5072   1   6   0.0071   0.0138   0.0126  -0.0094   0.0127  -0.0089   0.00  999.9
2019/01/10 01:59:30.000  -2148745.7642   4426642.8015   4044656.5087   6   5   0.0071   0.0138   0.0126  -0.0094   0.0127  -0.0089   0.00    0.0
2019/01/10 02:00:00.000  -2148745.7648   4426642.8014   4044656.5095   6   4   0.0071   0.0138   0.0126  -0.0094   0.0127  -0.0089   0.00    0.0
2019/01/10 02:00:30.000  -2148745.7660   4426642.8030   4044656.5109   6   5   0.0071   0.0138   0.0126  -0.0094   0.0127  -0.0089   0.00    0.0
2019/01/10 02:01:00.000  -2148745.7661   4426642.8020   4044656.5106   1   6   0.0071   0.0138   0.0126  -0.0094   0.0127  -0.0089   0.00  999.9
2019/01/10 02:01:30.000  -2148745.7659   4426642.8011   4044656.5101   1   6   0.0070   0.0137   0.0124  -0.0093   0.0126  -0.0088   0.00  437.6
2019/01/10 02:02:00.000  -2148745.7659   4426642.8007   4044656.5099   1   6   0.0070   0.0136   0.0124  -0.0093   0.0126  -0.0088   0.00  999.9
2019/01/10 02:02:30.000  -2148745.7659   4426642.8005   4044656.5098   1   6   0.0070   0.0136   0.0124  -0.0093   0.0126  -0.0088   0.00  999.9
2019/01/10 02:03:00.000  -2148745.7658   4426642.7999   4044656.5095   1   6   0.0070   0.0136   0.0124  -0.0093   0.0125  -0.0088   0.00  999.9
2019/01/10 02:03:30.000  -2148745.7657   4426642.7992   4044656.5092   1   6   0.0070   0.0136   0.0124  -0.0093   0.0125  -0.0088   0.00  999.9
2019/01/10 02:04:00.000  -2148745.7663   4426642.8000   4044656.5099   1   5   0.0070   0.0136   0.0124  -0.0093   0.0125  -0.0088   0.00  999.9
2019/01/10 02:04:30.000  -2148745.7679   4426642.8024   4044656.5119   1   5   0.0070   0.0136   0.0124  -0.0093   0.0125  -0.0088   0.00  999.9
2019/01/10 02:05:00.000  -2148745.7688   4426642.8024   4044656.5137   6   4   0.0070   0.0136   0.0124  -0.0093   0.0125  -0.0088   0.00    0.0
2019/01/10 02:05:30.000  -2148745.7703   4426642.8047   4044656.5159   1   5   0.0070   0.0136   0.0124  -0.0093   0.0125  -0.0088   0.00  999.9
2019/01/10 02:06:00.000  -2148745.7704   4426642.8038   4044656.5156   1   6   0.0070   0.0136   0.0123  -0.0093   0.0125  -0.0088   0.00  999.9
2019/01/10 02:06:30.000  -2148745.7705   4426642.8033   4044656.5154   1   6   0.0070   0.0136   0.0123  -0.0093   0.0125  -0.0088   0.00  999.9
2019/01/10 02:07:00.000  -2148745.7706   4426642.8030   4044656.5153   1   6   0.0070   0.0136   0.0123  -0.0093   0.0125  -0.0088   0.00  999.9
2019/01/10 02:07:30.000  -2148745.7706   4426642.8028   4044656.5152   1   6   0.0070   0.0136   0.0123  -0.0093   0.0125  -0.0088   0.00  999.9
2019/01/10 02:08:00.000  -2148745.7707   4426642.8025   4044656.5151   1   6   0.0070   0.0136   0.0123  -0.0093   0.0125  -0.0088   0.00  999.9
2019/01/10 02:08:30.000  -2148745.7707   4426642.8020   4044656.5149   1   6   0.0070   0.0136   0.0123  -0.0093   0.0125  -0.0088   0.00  999.9
2019/01/10 02:09:00.000  -2148745.7708   4426642.8009   4044656.5145   1   6   0.0070   0.0136   0.0123  -0.0093   0.0125  -0.0088   0.00  999.9
2019/01/10 02:09:30.000  -2148745.7719   4426642.8026   4044656.5167   1   4   0.0070   0.0135   0.0123  -0.0092   0.0125  -0.0087   0.00  194.0
2019/01/10 02:10:00.000  -2148745.7719   4426642.8023   4044656.5167   6   3   0.0069   0.0135   0.0123  -0.0092   0.0124  -0.0087   0.00    0.0
2019/01/10 02:10:30.000  -2148745.7722   4426642.8021   4044656.5171   6   4   0.0069   0.0135   0.0123  -0.0092   0.0124  -0.0087   0.00    0.0
2019/01/10 02:11:00.000  -2148745.7727   4426642.8028   4044656.5179   1   5   0.0069   0.0135   0.0123  -0.0092   0.0124  -0.0087   0.00  999.9
2019/01/10 02:11:30.000  -2148745.7728   4426642.8023   4044656.5177   1   6   0.0069   0.0135   0.0123  -0.0092   0.0124  -0.0087   0.00  999.9
2019/01/10 02:12:00.000  -2148745.7729   4426642.8019   4044656.5176   1   6   0.0069   0.0135   0.0123  -0.0092   0.0124  -0.0087   0.00  999.9
2019/01/10 02:12:30.000  -2148745.7729   4426642.8017   4044656.5175   1   6   0.0069   0.0135   0.0123  -0.0092   0.0124  -0.0087   0.00  999.9
2019/01/10 02:13:00.000  -2148745.7729   4426642.8014   4044656.5174   1   6   0.0069   0.0135   0.0123  -0.0092   0.0124  -0.0087   0.00  999.9
2019/01/10 02:13:30.000  -2148745.7731   4426642.8009   4044656.5173   1   6   0.0069   0.0135   0.0123  -0.0092   0.0124  -0.0087   0.00  999.9
2019/01/10 02:14:00.000  -2148745.7728   4426642.7994   4044656.5166   1   5   0.0069   0.0135   0.0123  -0.0092   0.0124  -0.0087   0.00  999.9
2019/01/10 02:14:30.000  -2148745.7728   4426642.7988   4044656.5169   6   4   0.0069   0.0135   0.0123  -0.0092   0.0124  -0.0087   0.00    0.0
2019/01/10 02:15:00.000  -2148745.7727   4426642.7980   4044656.5167   6   3   0.0069   0.0135   0.0123  -0.0092   0.0124  -0.0087   0.00    0.0
2019/01/10 02:15:30.000  -2148745.7727   4426642.7973   4044656.5171   6   4   0.0069   0.0135   0.0123  -0.0092   0.0124  -0.0087   0.00    0.0
2019/01/10 02:16:00.000  -2148745.7725   4426642.7957   4044656.5165   1   5   0.0069   0.0135   0.0123  -0.0092   0.0124  -0.0087   0.00  999.9
2019/01/10 02:16:30.000  -2148745.7724   4426642.7949   4044656.5162   1   6   0.0069   0.0135   0.0123  -0.0092   0.0124  -0.0087   0.00   50.4
2019/01/10 02:17:00.000  -2148745.7724   4426642.7946   4044656.5161   1   6   0.0069   0.0135   0.0123  -0.0092   0.0124  -0.0087   0.00  999.9
2019/01/10 02:17:30.000  -2148745.7724   4426642.7943   4044656.5160   1   6   0.0069   0.0135   0.0123  -0.0092   0.0124  -0.0087   0.00  999.9
2019/01/10 02:18:00.000  -2148745.7723   4426642.7939   4044656.5158   1   6   0.0069   0.0135   0.0123  -0.0092   0.0124  -0.0087   0.00  999.9
2019/01/10 02:18:30.000  -2148745.7723   4426642.7932   4044656.5156   1   6   0.0069   0.0134   0.0123  -0.0092   0.0124  -0.0087   0.00  999.9
2019/01/10 02:19:00.000  -2148745.7723   4426642.7923   4044656.5153   1   6   0.0069   0.0134   0.0123  -0.0092   0.0124  -0.0087   0.00  999.9
2019/01/10 02:19:30.000  -2148745.7725   4426642.7916   4044656.5158   1   5   0.0069   0.0134   0.0122  -0.0092   0.0124  -0.0087   0.00  999.9
2019/01/10 02:20:00.000  -2148745.7720   4426642.7896   4044656.5159   6   4   0.0068   0.0134   0.0122  -0.0091   0.0124  -0.0087   0.00    0.0
2019/01/10 02:20:30.000  -2148745.7722   4426642.7890   4044656.5163   1   5   0.0068   0.0134   0.0122  -0.0091   0.0124  -0.0087   0.00  999.9
2019/01/10 02:21:00.000  -2148745.7723   4426642.7880   4044656.5161   1   6   0.0068   0.0134   0.0122  -0.0091   0.0124  -0.0087   0.00  999.9
2019/01/10 02:21:30.000  -2148745.7724   4426642.7876   4044656.5161   1   6   0.0068   0.0134   0.0122  -0.0091   0.0124  -0.0087   0.00  999.9
2019/01/10 02:22:00.000  -2148745.7724   4426642.7873   4044656.5160   1   6   0.0068   0.0134   0.0122  -0.0091   0.0124  -0.0087   0.00  999.9
2019/01/10 02:22:30.000  -2148745.7724   4426642.7871   4044656.5160   1   6   0.0068   0.0134   0.0122  -0.0091   0.0124  -0.0087   0.00  999.9
2019/01/10 02:23:00.000  -2148745.7725   4426642.7868   4044656.5160   1   6   0.0068   0.0134   0.0122  -0.0091   0.0124  -0.0086   0.00  999.9
2019/01/10 02:23:30.000  -2148745.7726   4426642.7863   4044656.5160   1   6   0.0068   0.0134   0.0122  -0.0091   0.0124  -0.0086   0.00  999.9
2019/01/10 02:24:00.000  -2148745.7728   4426642.7862   4044656.5163   1   5   0.0068   0.0134   0.0122  -0.0091   0.0124  -0.0086   0.00  999.9
2019/01/10 02:24:30.000  -2148745.7731   4426642.7864   4044656.5167   6   4   0.0068   0.0134   0.0122  -0.0091   0.0123  -0.0086   0.00    0.0
2019/01/10 02:25:00.000  -2148745.7736   4426642.7863   4044656.5178   6   4   0.0068   0.0133   0.0122  -0.0090   0.0123  -0.0086   0.00    0.0
2019/01/10 02:25:30.000  -2148745.7739   4426642.7855   4044656.5182   1   5   0.0068   0.0133   0.0122  -0.0090   0.0123  -0.0086   0.00  999.9
2019/01/10 02:26:00.000  -2148745.7740   4426642.7853   4044656.5185   1   5   0.0068   0.0133   0.0122  -0.0090   0.0123  -0.0086   0.00  999.9
2019/01/10 02:26:30.000  -2148745.7742   4426642.7853   4044656.5186   1   6   0.0067   0.0133   0.0122  -0.0090   0.0123  -0.0086   0.00   88.5
2019/01/10 02:27:00.000  -2148745.7742   4426642.7852   4044656.5187   1   6   0.0067   0.0133   0.0122  -0.0090   0.0123  -0.0086   0.00  999.9
2019/01/10 02:27:30.000  -2148745.7743   4426642.7852   4044656.5187   1   6   0.0067   0.0133   0.0122  -0.0090   0.0123  -0.0086   0.00  999.9
2019/01/10 02:28:00.000  -2148745.7743   4426642.7852   4044656.5188   1   6   0.0067   0.0133   0.0122  -0.0090   0.0123  -0.0086   0.00  999.9
2019/01/10 02:28:30.000  -2148745.7744   4426642.7851   4044656.5188   1   6   0.0067   0.0133   0.0122  -0.0090   0.0123  -0.0086   0.00  999.9
2019/01/10 02:29:00.000  -2148745.7745   4426642.7848   4044656.5189   1   6   0.0067   0.0133   0.0122  -0.0090   0.0123  -0.0086   0.00  999.9
2019/01/10 02:29:30.000  -2148745.7749   4426642.7849   4044656.5193   1   5   0.0067   0.0133   0.0122  -0.0090   0.0123  -0.0086   0.00  999.9
2019/01/10 02:30:00.000  -2148745.7768   4426642.7872   4044656.5219   1   5   0.0067   0.0132   0.0121  -0.0090   0.0123  -0.0085   0.00  999.9
2019/01/10 02:30:30.000  -2148745.7773   4426642.7879   4044656.5226   1   5   0.0067   0.0132   0.0121  -0.0090   0.0122  -0.0085   0.00  999.9
2019/01/10 02:31:00.000  -2148745.7774   4426642.7876   4044656.5227   1   6   0.0067   0.0132   0.0121  -0.0089   0.0122  -0.0085   0.00  999.9
2019/01/10 02:31:30.000  -2148745.7775   4426642.7876   4044656.5228   1   6   0.0067   0.0132   0.0121  -0.0089   0.0122  -0.0085   0.00  999.9
2019/01/10 02:32:00.000  -2148745.7776   4426642.7875   4044656.5228   1   6   0.0067   0.0132   0.0121  -0.0089   0.0122  -0.0085   0.00  999.9
2019/01/10 02:32:30.000  -2148745.7776   4426642.7875   4044656.5229   1   6   0.0067   0.0132   0.0121  -0.0089   0.0122  -0.0085   0.00  999.9
2019/01/10 02:33:00.000  -2148745.7778   4426642.7876   4044656.5230   1   6   0.0067   0.0132   0.0121  -0.0089   0.0122  -0.0085   0.00  999.9
2019/01/10 02:33:30.000  -2148745.7780   4426642.7877   4044656.5232   1   6   0.0066   0.0132   0.0121  -0.0089   0.0122  -0.0085   0.00  999.9
2019/01/10 02:34:00.000  -2148745.7783   4426642.7877   4044656.5236   1   6   0.0066   0.0132   0.0121  -0.0089   0.0122  -0.0085   0.00  999.9
2019/01/10 02:34:30.000  -2148745.7791   4426642.7887   4044656.5245   1   5   0.0066   0.0132   0.0121  -0.0089   0.0122  -0.0085   0.00  999.9
2019/01/10 02:35:00.000  -2148745.7790   4426642.7882   4044656.5244   6   4   0.0066   0.0131   0.0120  -0.0089   0.0122  -0.0084   0.00    0.0
2019/01/10 02:35:30.000  -2148745.7797   4426642.7893   4044656.5253   1   5   0.0066   0.0131   0.0120  -0.0089   0.0122  -0.0084   0.00  999.9
2019/01/10 02:36:00.000  -2148745.7799   4426642.7889   4044656.5253   1   6   0.0066   0.0131   0.0120  -0.0089   0.0121  -0.0084   0.00  999.9
2019/01/10 02:36:30.000  -2148745.7798   4426642.7885   4044656.5253   1   6   0.0066   0.0131   0.0120  -0.0088   0.0121  -0.0084   0.00  999.9
2019/01/10 02:37:00.000  -2148745.7798   4426642.7883   4044656.5252   1   6   0.0066   0.0131   0.0120  -0.0088   0.0121  -0.0084   0.00  999.9
2019/01/10 02:37:30.000  -2148745.7798   4426642.7881   4044656.5251   1   6   0.0066   0.0131   0.0120  -0.0088   0.0121  -0.0084   0.00  999.9
2019/01/10 02:38:00.000  -2148745.7797   4426642.7878   4044656.5249   1   6   0.0065   0.0131   0.0120  -0.0088   0.0121  -0.0084   0.00  999.9
2019/01/10 02:38:30.000  -2148745.7796   4426642.7872   4044656.5245   1   6   0.0065   0.0131   0.0120  -0.0088   0.0121  -0.0084   0.00  999.9
2019/01/10 02:39:00.000  -2148745.7796   4426642.7872   4044656.5244   1   5   0.0065   0.0131   0.0120  -0.0088   0.0121  -0.0084   0.00  999.9
2019/01/10 02:39:30.000  -2148745.7799   4426642.7876   4044656.5244   1   5   0.0065   0.0131   0.0120  -0.0088   0.0121  -0.0084   0.00  999.9
2019/01/10 02:40:00.000  -2148745.7799   4426642.7876   4044656.5237   6   4   0.0065   0.0130   0.0119  -0.0087   0.0120  -0.0083   0.00    0.0
2019/01/10 02:40:30.000  -2148745.7809   4426642.7889   4044656.5247   1   5   0.0064   0.0130   0.0119  -0.0087   0.0120  -0.0083   0.00  999.9
2019/01/10 02:41:00.000  -2148745.7811   4426642.7885   4044656.5249   1   6   0.0064   0.0130   0.0119  -0.0087   0.0120  -0.0083   0.00  999.9
2019/01/10 02:41:30.000  -2148745.7812   4426642.7883   4044656.5249   1   6   0.0064   0.0129   0.0118  -0.0087   0.0120  -0.0083   0.00  999.9
2019/01/10 02:42:00.000  -2148745.7813   4426642.7881   4044656.5249   1   6   0.0064   0.0129   0.0118  -0.0087   0.0120  -0.0083   0.00  999.9
2019/01/10 02:42:30.000  -2148745.7813   4426642.7881   4044656.5249   1   6   0.0064   0.0129   0.0118  -0.0087   0.0120  -0.0083   0.00  999.9
2019/01/10 02:43:00.000  -2148745.7815   4426642.7880   4044656.5250   1   6   0.0064   0.0129   0.0118  -0.0087   0.0120  -0.0083   0.00  999.9
2019/01/10 02:43:30.000  -2148745.7816   4426642.7879   4044656.5251   1   6   0.0064   0.0129   0.0118  -0.0087   0.0120  -0.0083   0.00  999.9
2019/01/10 02:44:00.000  -2148745.7819   4426642.7875   4044656.5252   1   6   0.0064   0.0129   0.0118  -0.0087   0.0120  -0.0082   0.00  999.9
2019/01/10 02:44:30.000  -2148745.7832   4426642.7892   4044656.5265   6   5   0.0064   0.0129   0.0118  -0.0087   0.0119  -0.0082   0.00    0.0
2019/01/10 02:45:00.000  -2148745.7819   4426642.7870   4044656.5231   6   3   0.0064   0.0129   0.0118  -0.0086   0.0119  -0.0082   0.00    0.0
2019/01/10 02:45:30.000  -2148745.7814   4426642.7861   4044656.5218   6   3   0.0064   0.0129   0.0118  -0.0086   0.0119  -0.0082   0.00    0.0
2019/01/10 02:46:00.000  -2148745.7818   4426642.7866   4044656.5221   6   4   0.0064   0.0129   0.0118  -0.0086   0.0119  -0.0082   0.00    0.0
2019/01/10 02:46:30.000  -2148745.7820   4426642.7864   4044656.5221   1   5   0.0063   0.0128   0.0118  -0.0086   0.0119  -0.0082   0.00  999.9
2019/01/10 02:47:00.000  -2148745.7821   4426642.7862   4044656.5221   1   5   0.0063   0.0128   0.0117  -0.0086   0.0119  -0.0082   0.00  999.9
2019/01/10 02:47:30.000  -2148745.7821   4426642.7861   4044656.5220   1   5   0.0063   0.0128   0.0117  -0.0086   0.0119  -0.0082   0.00  999.9
2019/01/10 02:48:00.000  -2148745.7822   4426642.7859   4044656.5220   1   5   0.0063   0.0128   0.0117  -0.0086   0.0119  -0.0082   0.00  999.9
2019/01/10 02:48:30.000  -2148745.7823   4426642.7856   4044656.5219   1   5   0.0063   0.0128   0.0117  -0.0086   0.0119  -0.0082   0.00  999.9
2019/01/10 02:49:00.000  -2148745.7827   4426642.7861   4044656.5222   6   4   0.0063   0.0128   0.0117  -0.0086   0.0119  -0.0082   0.00    0.0
2019/01/10 02:49:30.000  -2148745.7823   4426642.7853   4044656.5209   6   3   0.0063   0.0128   0.0117  -0.0086   0.0119  -0.0082   0.00    0.0
2019/01/10 02:50:00.000  -2148745.7807   4426642.7825   4044656.5183   6   2   0.0063   0.0128   0.0117  -0.0085   0.0118  -0.0081   0.00    0.0
2019/01/10 02:50:30.000  -2148745.7804   4426642.7818   4044656.5172   6   3   0.0063   0.0128   0.0117  -0.0085   0.0118  -0.0081   0.00    0.0
2019/01/10 02:51:00.000  -2148745.7809   4426642.7825   4044656.5177   6   4   0.0063   0.0128   0.0117  -0.0085   0.0118  -0.0081   0.00    0.0
2019/01/10 02:51:30.000  -2148745.7812   4426642.7829   4044656.5180   6   5   0.0063   0.0128   0.0117  -0.0085   0.0118  -0.0081   0.00    0.0
2019/01/10 02:52:00.000  -2148745.7814   4426642.7831   4044656.5183   6   5   0.0063   0.0128   0.0117  -0.0085   0.0118  -0.0081   0.00    0.0
2019/01/10 02:52:30.000  -2148745.7815   4426642.7832   4044656.5184   6   5   0.0063   0.0128   0.0117  -0.0085   0.0118  -0.0081   0.00    0.0
2019/01/10 02:53:00.000  -2148745.7816   4426642.7834   4044656.5185   6   5   0.0063   0.0128   0.0117  -0.0085   0.0118  -0.0081   0.00    0.0
2019/01/10 02:53:30.000  -2148745.7819   4426642.7838   4044656.5188   6   5   0.0063   0.0127   0.0117  -0.0085   0.0118  -0.0081   0.00    0.0
2019/01/10 02:54:00.000  -2148745.7818   4426642.7835   4044656.5183   6   4   0.0063   0.0127   0.0116  -0.0085   0.0118  -0.0081   0.00    0.0
2019/01/10 02:54:30.000  -2148745.7812   4426642.7825   4044656.5166   6   4   0.0063   0.0127   0.0116  -0.0085   0.0118  -0.0081   0.00    0.0
2019/01/10 02:55:00.000  -2148745.7794   4426642.7790   4044656.5133   6   3   0.0062   0.0127   0.0116  -0.0085   0.0117  -0.0081   0.00    0.0
2019/01/10 02:55:30.000  -2148745.7786   4426642.7777   4044656.5111   6   4   0.0062   0.0127   0.0116  -0.0085   0.0117  -0.0080   0.00    0.0
2019/01/10 02:56:00.000  -2148745.7783   4426642.7771   4044656.5102   6   4   0.0062   0.0127   0.0116  -0.0085   0.0117  -0.0080   0.00    0.0
2019/01/10 02:56:30.000  -2148745.7782   4426642.7769   4044656.5098   6   5   0.0062   0.0127   0.0116  -0.0085   0.0117  -0.0080   0.00    0.0
2019/01/10 02:57:00.000  -2148745.7781   4426642.7767   4044656.5096   6   5   0.0062   0.0127   0.0116  -0.0085   0.0117  -0.0080   0.00    0.0
2019/01/10 02:57:30.000  -2148745.7780   4426642.7766   4044656.5094   6   5   0.0062   0.0127   0.0116  -0.0085   0.0117  -0.0080   0.00    0.0
2019/01/10 02:58:00.000  -2148745.7779   4426642.7764   4044656.5091   6   5   0.0062   0.0127   0.0116  -0.0085   0.0117  -0.0080   0.00    0.0
2019/01/10 02:58:30.000  -2148745.7778   4426642.7761   4044656.5087   6   5   0.0062   0.0127   0.0116  -0.0085   0.0117  -0.0080   0.00    0.0
2019/01/10 02:59:00.000  -2148745.7775   4426642.7756   4044656.5078   6   5   0.0062   0.0127   0.0116  -0.0084   0.0117  -0.0080   0.00    0.0
2019/01/10 02:59:30.000  -2148745.7771   4426642.7748   4044656.5069   6   4   0.0062   0.0126   0.0115  -0.0084   0.0117  -0.0080   0.00    0.0
2019/01/10 03:00:00.000  -2148745.7753   4426642.7713   4044656.5037   6   4   0.0062   0.0126   0.0115  -0.0084   0.0116  -0.0080   0.00    0.0
2019/01/10 03:00:30.000  -2148745.7748   4426642.7705   4044656.5029   6   4   0.0062   0.0126   0.0115  -0.0084   0.0116  -0.0080   0.00    0.0
2019/01/10 03:01:00.000  -2148745.7745   4426642.7699   4044656.5019   6   5   0.0062   0.0126   0.0115  -0.0084   0.0116  -0.0080   0.00    0.0
2019/01/10 03:01:30.000  -2148745.7744   4426642.7696   4044656.5015   6   6   0.0062   0.0126   0.0115  -0.0084   0.0116  -0.0080   0.00    0.0
2019/01/10 03:02:00.000  -2148745.7743   4426642.7694   4044656.5012   6   6   0.0062   0.0126   0.0115  -0.0084   0.0116  -0.0080   0.00    0.0
2019/01/10 03:02:30.000  -2148745.7742   4426642.7693   4044656.5010   6   6   0.0062   0.0126   0.0115  -0.0084   0.0116  -0.0080   0.00    0.0
2019/01/10 03:03:00.000  -2148745.7741   4426642.7691   4044656.5007   6   6   0.0062   0.0126   0.0115  -0.0084   0.0116  -0.0080   0.00    0.0
2019/01/10 03:03:30.000  -2148745.7739   4426642.7687   4044656.5001   6   6   0.0062   0.0126   0.0115  -0.0084   0.0116  -0.0080   0.00    0.0
2019/01/10 03:04:00.000  -2148745.7735   4426642.7680   4044656.4990   6   6   0.0062   0.0126   0.0115  -0.0084   0.0116  -0.0080   0.00    0.0
2019/01/10 03:04:30.000  -2148745.7729   4426642.7667   4044656.4978   6   5   0.0062   0.0126   0.0115  -0.0084   0.0116  -0.0080   0.00    0.0
2019/01/10 03:05:00.000  -2148745.7733   4426642.7676   4044656.4985   6   4   0.0062   0.0125   0.0115  -0.0084   0.0116  -0.0079   0.00    0.0
2019/01/10 03:05:30.000  -2148745.7725   4426642.7660   4044656.4970   6   5   0.0062   0.0125   0.0115  -0.0084   0.0116  -0.0079   0.00    0.0
2019/01/10 03:06:00.000  -2148745.7722   4426642.7653   4044656.4964   6   5   0.0062   0.0125   0.0114  -0.0084   0.0116  -0.0079   0.00    0.0
2019/01/10 03:06:30.000  -2148745.7719   4426642.7648   4044656.4956   6   6   0.0062   0.0125   0.0114  -0.0083   0.0116  -0.0079   0.00    0.0
2019/01/10 03:07:00.000  -2148745.7718   4426642.7645   4044656.4951   6   6   0.0062   0.0125   0.0114  -0.0083   0.0116  -0.0079   0.00    0.0
2019/01/10 03:07:30.000  -2148745.7716   4426642.7643   4044656.4948   6   6   0.0062   0.0125   0.0114  -0.0083   0.0116  -0.0079   0.00    0.0
2019/01/10 03:08:00.000  -2148745.7715   4426642.7622   4044656.4934   1   6   0.0061   0.0122   0.0113  -0.0082   0.0113  -0.0078   0.00    3.7
2019/01/10 03:08:30.000  -2148745.7712   4426642.7616   4044656.4925   1   6   0.0061   0.0122   0.0113  -0.0082   0.0113  -0.0078   0.00  999.9
2019/01/10 03:09:00.000  -2148745.7710   4426642.7611   4044656.4920   6   5   0.0061   0.0121   0.0112  -0.0082   0.0113  -0.0078   0.00    0.0
2019/01/10 03:09:30.000  -2148745.7682   4426642.7561   4044656.4878   1   5   0.0060   0.0120   0.0112  -0.0081   0.0112  -0.0077   0.00   11.5
2019/01/10 03:10:00.000  -2148745.7702   4426642.7584   4044656.4898   6   4   0.0059   0.0119   0.0111  -0.0080   0.0111  -0.0077   0.00    0.0
2019/01/10 03:10:30.000  -2148745.7705   4426642.7581   4044656.4895   1   5   0.0059   0.0119   0.0111  -0.0080   0.0111  -0.0076   0.00  999.9
2019/01/10 03:11:00.000  -2148745.7703   4426642.7576   4044656.4885   1   6   0.0059   0.0119   0.0111  -0.0080   0.0111  -0.0076   0.00  999.9
2019/01/10 03:11:30.000  -2148745.7701   4426642.7574   4044656.4880   1   6   0.0059   0.0119   0.0111  -0.0080   0.0111  -0.0076   0.00  999.9
2019/01/10 03:12:00.000  -2148745.7701   4426642.7572   4044656.4877   1   6   0.0059   0.0119   0.0111  -0.0080   0.0111  -0.0076   0.00  999.9
2019/01/10 03:12:30.000  -2148745.7700   4426642.7571   4044656.4875   1   6   0.0059   0.0119   0.0111  -0.0080   0.0111  -0.0076   0.00  999.9
2019/01/10 03:13:00.000  -2148745.7700   4426642.7570   4044656.4874   1   6   0.0059   0.0119   0.0111  -0.0080   0.0111  -0.0076   0.00  999.9
2019/01/10 03:13:30.000  -2148745.7700   4426642.7567   4044656.4870   1   6   0.0059   0.0119   0.0111  -0.0080   0.0111  -0.0076   0.00  999.9
2019/01/10 03:14:00.000  -2148745.7696   4426642.7558   4044656.4856   1   6   0.0059   0.0119   0.0110  -0.0080   0.0110  -0.0076   0.00  999.9
2019/01/10 03:14:30.000  -2148745.7689   4426642.7550   4044656.4841   6   4   0.0059   0.0118   0.0110  -0.0080   0.0110  -0.0076   0.00    0.0
2019/01/10 03:15:00.000  -2148745.7690   4426642.7552   4044656.4843   6   3   0.0059   0.0118   0.0110  -0.0079   0.0110  -0.0076   0.00    0.0
2019/01/10 03:15:30.000  -2148745.7691   4426642.7554   4044656.4845   6   3   0.0059   0.0118   0.0110  -0.0079   0.0110  -0.0076   0.00    0.0
2019/01/10 03:16:00.000  -2148745.7686   4426642.7543   4044656.4829   1   6   0.0059   0.0118   0.0110  -0.0079   0.0110  -0.0076   0.00  999.9
2019/01/10 03:16:30.000  -2148745.7684   4426642.7537   4044656.4822   1   6   0.0059   0.0118   0.0110  -0.0079   0.0110  -0.0076   0.00  999.9
2019/01/10 03:17:00.000  -2148745.7683   4426642.7534   4044656.4817   1   6   0.0059   0.0118   0.0110  -0.0079   0.0110  -0.0076   0.00  999.9
2019/01/10 03:17:30.000  -2148745.7682   4426642.7532   4044656.4815   1   6   0.0059   0.0118   0.0110  -0.0079   0.0110  -0.0076   0.00  999.9
2019/01/10 03:18:00.000  -2148745.7682   4426642.7529   4044656.4811   1   6   0.0059   0.0118   0.0110  -0.0079   0.0110  -0.0076   0.00  999.9
2019/01/10 03:18:30.000  -2148745.7680   4426642.7523   4044656.4804   1   7   0.0059   0.0117   0.0110  -0.0079   0.0110  -0.0076   0.00  999.9
2019/01/10 03:19:00.000  -2148745.7675   4426642.7511   4044656.4788   1   7   0.0059   0.0117   0.0110  -0.0079   0.0110  -0.0076   0.00  999.9
2019/01/10 03:19:30.000  -2148745.7675   4426642.7510   4044656.4787   6   4   0.0059   0.0117   0.0110  -0.0079   0.0109  -0.0076   0.00    0.0
2019/01/10 03:20:00.000  -2148745.7681   4426642.7525   4044656.4799   6   4   0.0059   0.0117   0.0109  -0.0079   0.0109  -0.0075   0.00    0.0
2019/01/10 03:20:30.000  -2148745.7680   4426642.7526   4044656.4796   6   5   0.0059   0.0117   0.0109  -0.0079   0.0109  -0.0075   0.00    0.0
2019/01/10 03:21:00.000  -2148745.7677   4426642.7517   4044656.4784   1   7   0.0059   0.0117   0.0109  -0.0079   0.0109  -0.0075   0.00  999.9
2019/01/10 03:21:30.000  -2148745.7675   4426642.7512   4044656.4777   1   7   0.0059   0.0117   0.0109  -0.0079   0.0109  -0.0075   0.00  999.9
2019/01/10 03:22:00.000  -2148745.7674   4426642.7509   4044656.4773   1   7   0.0059   0.0117   0.0109  -0.0079   0.0109  -0.0075   0.00  999.9
2019/01/10 03:22:30.000  -2148745.7674   4426642.7507   4044656.4770   1   7   0.0058   0.0117   0.0109  -0.0079   0.0109  -0.0075   0.00  999.9
2019/01/10 03:23:00.000  -2148745.7672   4426642.7504   4044656.4765   1   7   0.0058   0.0117   0.0109  -0.0079   0.0109  -0.0075   0.00  999.9
2019/01/10 03:23:30.000  -2148745.7670   4426642.7497   4044656.4757   1   7   0.0058   0.0117   0.0109  -0.0079   0.0109  -0.0075   0.00  999.9
2019/01/10 03:24:00.000  -2148745.7669   4426642.7499   4044656.4755   6   5   0.0058   0.0117   0.0109  -0.0079   0.0109  -0.0075   0.00    0.0
2019/01/10 03:24:30.000  -2148745.7670   4426642.7508   4044656.4754   6   5   0.0058   0.0116   0.0109  -0.0079   0.0109  -0.0075   0.00    0.0
2019/01/10 03:25:00.000  -2148745.7664   4426642.7495   4044656.4744   6   2   0.0058   0.0116   0.0109  -0.0078   0.0108  -0.0075   0.00    0.0
2019/01/10 03:25:30.000  -2148745.7664   4426642.7500   4044656.4743   6   5   0.0058   0.0116   0.0108  -0.0078   0.0108  -0.0075   0.00    0.0
2019/01/10 03:26:00.000  -2148745.7664   4426642.7501   4044656.4742   6   5   0.0058   0.0116   0.0108  -0.0078   0.0108  -0.0075   0.00    0.0
2019/01/10 03:26:30.000  -2148745.7649   4426642.7478   4044656.4722   1   7   0.0057   0.0115   0.0108  -0.0077   0.0108  -0.0074   0.00    8.8
2019/01/10 03:27:00.000  -2148745.7648   4426642.7474   4044656.4717   1   7   0.0057   0.0115   0.0108  -0.0077   0.0108  -0.0074   0.00  999.9
2019/01/10 03:27:30.000  -2148745.7647   4426642.7472   4044656.4713   1   7   0.0057   0.0115   0.0108  -0.0077   0.0108  -0.0074   0.00  999.9
2019/01/10 03:28:00.000  -2148745.7646   4426642.7468   4044656.4708   1   7   0.0057   0.0115   0.0108  -0.0077   0.0108  -0.0074   0.00  999.9
2019/01/10 03:28:30.000  -2148745.7645   4426642.7462   4044656.4700   1   7   0.0057   0.0115   0.0108  -0.0077   0.0108  -0.0074   0.00  999.9
2019/01/10 03:29:00.000  -2148745.7645   4426642.7465   4044656.4701   1   5   0.0057   0.0114   0.0106  -0.0076   0.0106  -0.0073   0.00  999.9
2019/01/10 03:29:30.000  -2148745.7645   4426642.7471   4044656.4701   1   5   0.0057   0.0114   0.0106  -0.0076   0.0106  -0.0073   0.00  999.9
2019/01/10 03:30:00.000  -2148745.7639   4426642.7461   4044656.4685   6   4   0.0056   0.0113   0.0106  -0.0076   0.0106  -0.0073   0.00    0.0
