% program   : RTKLIB ver.2.4.3
% inp file  : D:\mycode\vscode\rtklib\rtklib\data\daej190k00.19n
% inp file  : D:\mycode\vscode\rtklib\rtklib\data\daej190k15.19n
% inp file  : D:\mycode\vscode\rtklib\rtklib\data\daej190k30.19n
% inp file  : D:\mycode\vscode\rtklib\rtklib\data\daej190k45.19n
% inp file  : D:\mycode\vscode\rtklib\rtklib\data\daej190k00.19o
% inp file  : D:\mycode\vscode\rtklib\rtklib\data\daej190k15.19o
% inp file  : D:\mycode\vscode\rtklib\rtklib\data\daej190k30.19o
% inp file  : D:\mycode\vscode\rtklib\rtklib\data\daej190k45.19o
% inp file  : D:\mycode\vscode\rtklib\rtklib\data\igs20612.clk
% inp file  : D:\mycode\vscode\rtklib\rtklib\data\igs20612.sp3
% inp file  : D:\mycode\vscode\rtklib\rtklib\data\igs20617.erp
% inp file  : D:\mycode\vscode\rtklib\rtklib\data\igs14.atx
% inp file  : D:\mycode\vscode\rtklib\rtklib\data\CAS0MGXRAP_20191900000_01D_01D_DCB.BSX
% inp file  : D:\mycode\vscode\rtklib\rtklib\data\igsg1900.19i
% obs start : 2019/07/09 10:00:00.0 GPST (week2061 208800.0s)
% obs end   : 2019/07/09 10:59:59.0 GPST (week2061 212399.0s)
% pos mode  : PPP Static
% solution  : Forward
% elev mask : 15.0 deg
% dynamics  : off
% tidecorr  : on
% tropo opt : Estimate ZTD
% ephemeris : Precise
% navi sys  : GPS
% antenna1  :                       ( 0.0000  0.0000  0.0000)
%
% (x/y/z-ecef=WGS84,Q=1:fix,2:float,3:sbas,4:dgps,5:single,6:ppp,ns=# of satellites)
%  GPST              x-ecef(m)      y-ecef(m)      z-ecef(m)   Q  ns   sdx(m)   sdy(m)   sdz(m)  sdxy(m)  sdyz(m)  sdzx(m) age(s)  ratio
2061 208800.000  -3120040.3431   4084612.9391   3764025.0225   6   7   2.2047   2.2926   2.1955  -1.6625   1.2134  -1.7225   0.00    0.0
2061 208801.000  -3120039.9901   4084613.1781   3764025.1031   6   7   1.5628   1.6300   1.5568  -1.1831   0.8688  -1.2230   0.00    0.0
2061 208802.000  -3120039.9836   4084613.5764   3764025.2621   6   7   1.2787   1.3377   1.2742  -0.9716   0.7176  -1.0022   0.00    0.0
2061 208803.000  -3120040.2438   4084613.6906   3764025.5805   6   7   1.1096   1.1643   1.1061  -0.8462   0.6284  -0.8710   0.00    0.0
2061 208804.000  -3120040.4439   4084613.6237   3764025.7541   6   7   0.9943   1.0465   0.9916  -0.7610   0.5682  -0.7817   0.00    0.0
2061 208805.000  -3120040.2701   4084613.6758   3764025.5364   6   7   0.9094   0.9599   0.9072  -0.6984   0.5241  -0.7160   0.00    0.0
2061 208806.000  -3120040.2643   4084613.8139   3764025.6315   6   7   0.8435   0.8929   0.8418  -0.6501   0.4902  -0.6650   0.00    0.0
2061 208807.000  -3120040.3053   4084613.9657   3764025.8055   6   7   0.7905   0.8392   0.7892  -0.6113   0.4632  -0.6241   0.00    0.0
2061 208808.000  -3120040.0836   4084614.0008   3764025.6362   6   7   0.7467   0.7949   0.7457  -0.5793   0.4410  -0.5903   0.00    0.0
2061 208809.000  -3120039.9859   4084613.9374   3764025.6791   6   7   0.7096   0.7575   0.7090  -0.5524   0.4224  -0.5618   0.00    0.0
2061 208810.000  -3120040.0472   4084613.9244   3764025.6863   6   7   0.6778   0.7256   0.6775  -0.5293   0.4065  -0.5374   0.00    0.0
2061 208811.000  -3120040.1734   4084614.0548   3764025.6785   6   7   0.6502   0.6978   0.6500  -0.5093   0.3928  -0.5161   0.00    0.0
2061 208812.000  -3120040.1745   4084614.0329   3764025.6815   6   7   0.6258   0.6734   0.6259  -0.4917   0.3808  -0.4974   0.00    0.0
2061 208813.000  -3120040.2353   4084614.0936   3764025.7301   6   7   0.6041   0.6518   0.6044  -0.4761   0.3702  -0.4808   0.00    0.0
2061 208814.000  -3120040.2585   4084614.0402   3764025.7326   6   7   0.5846   0.6324   0.5851  -0.4622   0.3608  -0.4659   0.00    0.0
2061 208815.000  -3120040.3023   4084614.0088   3764025.7702   6   7   0.5671   0.6150   0.5677  -0.4496   0.3523  -0.4525   0.00    0.0
2061 208816.000  -3120040.3585   4084614.0270   3764025.8198   6   7   0.5511   0.5991   0.5520  -0.4383   0.3447  -0.4403   0.00    0.0
2061 208817.000  -3120040.4023   4084613.9831   3764025.7944   6   7   0.5365   0.5847   0.5375  -0.4279   0.3377  -0.4292   0.00    0.0
2061 208818.000  -3120040.2809   4084613.8834   3764025.6662   6   7   0.5231   0.5715   0.5243  -0.4184   0.3314  -0.4190   0.00    0.0
2061 208819.000  -3120040.3163   4084613.9141   3764025.7069   6   7   0.5107   0.5593   0.5120  -0.4097   0.3255  -0.4096   0.00    0.0
2061 208820.000  -3120040.3412   4084613.9964   3764025.7362   6   7   0.4993   0.5481   0.5007  -0.4016   0.3202  -0.4009   0.00    0.0
2061 208821.000  -3120040.4144   4084614.1124   3764025.7580   6   7   0.4886   0.5377   0.4902  -0.3941   0.3152  -0.3928   0.00    0.0
2061 208822.000  -3120040.3555   4084614.0971   3764025.6667   6   7   0.4787   0.5280   0.4804  -0.3871   0.3106  -0.3853   0.00    0.0
2061 208823.000  -3120040.3476   4084614.1373   3764025.6635   6   7   0.4694   0.5189   0.4712  -0.3806   0.3063  -0.3783   0.00    0.0
2061 208824.000  -3120040.3181   4084614.0984   3764025.6889   6   7   0.4607   0.5104   0.4626  -0.3745   0.3023  -0.3717   0.00    0.0
2061 208825.000  -3120040.1900   4084614.0482   3764025.6026   6   7   0.4525   0.5025   0.4546  -0.3688   0.2986  -0.3655   0.00    0.0
2061 208826.000  -3120040.1616   4084614.0442   3764025.5839   6   7   0.4448   0.4950   0.4469  -0.3635   0.2951  -0.3597   0.00    0.0
2061 208827.000  -3120040.1241   4084614.0550   3764025.5605   6   7   0.4375   0.4879   0.4398  -0.3584   0.2918  -0.3542   0.00    0.0
2061 208828.000  -3120040.0750   4084614.0234   3764025.5279   6   7   0.4306   0.4813   0.4329  -0.3536   0.2887  -0.3490   0.00    0.0
2061 208829.000  -3120040.0291   4084613.9724   3764025.5636   6   7   0.4240   0.4749   0.4265  -0.3491   0.2857  -0.3440   0.00    0.0
2061 208830.000  -3120039.9637   4084613.9067   3764025.5587   6   7   0.4178   0.4690   0.4204  -0.3448   0.2829  -0.3394   0.00    0.0
2061 208831.000  -3120039.9826   4084613.8807   3764025.6035   6   7   0.4119   0.4633   0.4146  -0.3408   0.2803  -0.3349   0.00    0.0
2061 208832.000  -3120039.9912   4084613.9025   3764025.6553   6   7   0.4063   0.4579   0.4090  -0.3369   0.2778  -0.3307   0.00    0.0
2061 208833.000  -3120039.9508   4084613.9220   3764025.6346   6   7   0.4009   0.4527   0.4037  -0.3332   0.2754  -0.3267   0.00    0.0
2061 208834.000  -3120039.9125   4084613.8849   3764025.6375   6   7   0.3958   0.4478   0.3987  -0.3297   0.2732  -0.3228   0.00    0.0
2061 208835.000  -3120039.8956   4084613.8721   3764025.6690   6   7   0.3908   0.4431   0.3938  -0.3263   0.2710  -0.3191   0.00    0.0
2061 208836.000  -3120039.8818   4084613.8735   3764025.6902   6   7   0.3861   0.4387   0.3892  -0.3231   0.2690  -0.3156   0.00    0.0
2061 208837.000  -3120039.8816   4084613.8376   3764025.6916   6   7   0.3816   0.4344   0.3848  -0.3201   0.2670  -0.3122   0.00    0.0
2061 208838.000  -3120039.8358   4084613.8099   3764025.6888   6   7   0.3773   0.4302   0.3805  -0.3171   0.2651  -0.3090   0.00    0.0
2061 208839.000  -3120039.8170   4084613.7828   3764025.6980   6   7   0.3731   0.4263   0.3764  -0.3143   0.2633  -0.3059   0.00    0.0
2061 208840.000  -3120039.7773   4084613.7260   3764025.6879   6   7   0.3691   0.4225   0.3725  -0.3116   0.2616  -0.3029   0.00    0.0
2061 208841.000  -3120039.7507   4084613.7291   3764025.6721   6   7   0.3653   0.4189   0.3687  -0.3090   0.2599  -0.3000   0.00    0.0
2061 208842.000  -3120039.7071   4084613.6969   3764025.6291   6   7   0.3615   0.4154   0.3650  -0.3065   0.2583  -0.2973   0.00    0.0
2061 208843.000  -3120039.6670   4084613.6850   3764025.5964   6   7   0.3580   0.4120   0.3615  -0.3041   0.2568  -0.2946   0.00    0.0
2061 208844.000  -3120039.6762   4084613.6896   3764025.6133   6   7   0.3545   0.4087   0.3581  -0.3017   0.2553  -0.2920   0.00    0.0
2061 208845.000  -3120039.6478   4084613.6837   3764025.5708   6   7   0.3512   0.4056   0.3548  -0.2995   0.2539  -0.2896   0.00    0.0
2061 208846.000  -3120039.6210   4084613.6855   3764025.5414   6   7   0.3479   0.4025   0.3517  -0.2973   0.2525  -0.2872   0.00    0.0
2061 208847.000  -3120039.6449   4084613.7186   3764025.5295   6   7   0.3448   0.3996   0.3486  -0.2952   0.2512  -0.2848   0.00    0.0
2061 208848.000  -3120039.6552   4084613.7392   3764025.5314   6   7   0.3418   0.3968   0.3456  -0.2932   0.2499  -0.2826   0.00    0.0
2061 208849.000  -3120039.6472   4084613.7232   3764025.5421   6   7   0.3388   0.3940   0.3428  -0.2912   0.2487  -0.2804   0.00    0.0
2061 208850.000  -3120039.6318   4084613.7154   3764025.5171   6   7   0.3360   0.3914   0.3400  -0.2894   0.2475  -0.2783   0.00    0.0
2061 208851.000  -3120039.6249   4084613.7066   3764025.5109   6   7   0.3332   0.3888   0.3373  -0.2875   0.2464  -0.2763   0.00    0.0
2061 208852.000  -3120039.6259   4084613.7069   3764025.5072   6   7   0.3306   0.3863   0.3346  -0.2857   0.2452  -0.2743   0.00    0.0
2061 208853.000  -3120039.6289   4084613.7118   3764025.5234   6   7   0.3280   0.3839   0.3321  -0.2840   0.2442  -0.2724   0.00    0.0
2061 208854.000  -3120039.6195   4084613.7132   3764025.4962   6   7   0.3254   0.3816   0.3296  -0.2823   0.2431  -0.2705   0.00    0.0
2061 208855.000  -3120039.6393   4084613.7204   3764025.4995   6   7   0.3230   0.3793   0.3272  -0.2807   0.2421  -0.2687   0.00    0.0
2061 208856.000  -3120039.6903   4084613.7655   3764025.5186   6   7   0.3206   0.3771   0.3249  -0.2791   0.2411  -0.2670   0.00    0.0
2061 208857.000  -3120039.6933   4084613.7655   3764025.5306   6   7   0.3183   0.3749   0.3226  -0.2776   0.2401  -0.2653   0.00    0.0
2061 208858.000  -3120039.7276   4084613.7826   3764025.5144   6   7   0.3160   0.3728   0.3204  -0.2761   0.2392  -0.2636   0.00    0.0
2061 208859.000  -3120039.7408   4084613.7868   3764025.5243   6   7   0.3138   0.3708   0.3183  -0.2747   0.2383  -0.2620   0.00    0.0
2061 208860.000  -3120039.7407   4084613.7779   3764025.5152   6   7   0.3117   0.3688   0.3162  -0.2733   0.2374  -0.2604   0.00    0.0
2061 208861.000  -3120039.7475   4084613.7472   3764025.5332   6   7   0.3096   0.3669   0.3141  -0.2719   0.2366  -0.2589   0.00    0.0
2061 208862.000  -3120039.7668   4084613.7392   3764025.5374   6   7   0.3076   0.3650   0.3121  -0.2706   0.2357  -0.2574   0.00    0.0
2061 208863.000  -3120039.7926   4084613.7572   3764025.5273   6   7   0.3056   0.3632   0.3102  -0.2693   0.2349  -0.2559   0.00    0.0
2061 208864.000  -3120039.7894   4084613.7380   3764025.5047   6   7   0.3036   0.3614   0.3083  -0.2680   0.2341  -0.2545   0.00    0.0
2061 208865.000  -3120039.8014   4084613.7472   3764025.5267   6   7   0.3017   0.3597   0.3065  -0.2667   0.2334  -0.2531   0.00    0.0
2061 208866.000  -3120039.8228   4084613.7816   3764025.5517   6   7   0.2999   0.3580   0.3047  -0.2655   0.2326  -0.2518   0.00    0.0
2061 208867.000  -3120039.8422   4084613.7924   3764025.5672   6   7   0.2981   0.3563   0.3029  -0.2644   0.2319  -0.2504   0.00    0.0
2061 208868.000  -3120039.8491   4084613.7905   3764025.5833   6   7   0.2963   0.3547   0.3012  -0.2632   0.2311  -0.2491   0.00    0.0
2061 208869.000  -3120039.8331   4084613.7863   3764025.5638   6   7   0.2946   0.3531   0.2995  -0.2621   0.2304  -0.2479   0.00    0.0
2061 208870.000  -3120039.8465   4084613.7826   3764025.5801   6   7   0.2929   0.3516   0.2978  -0.2610   0.2298  -0.2467   0.00    0.0
2061 208871.000  -3120039.8434   4084613.7704   3764025.5785   6   7   0.2913   0.3501   0.2962  -0.2599   0.2291  -0.2454   0.00    0.0
2061 208872.000  -3120039.8279   4084613.7884   3764025.5603   6   7   0.2896   0.3486   0.2947  -0.2588   0.2284  -0.2443   0.00    0.0
2061 208873.000  -3120039.8146   4084613.8033   3764025.5503   6   7   0.2881   0.3472   0.2931  -0.2578   0.2278  -0.2431   0.00    0.0
2061 208874.000  -3120039.8404   4084613.8235   3764025.5706   6   7   0.2865   0.3458   0.2916  -0.2568   0.2272  -0.2420   0.00    0.0
2061 208875.000  -3120039.8460   4084613.8127   3764025.5872   6   7   0.2850   0.3444   0.2901  -0.2558   0.2266  -0.2409   0.00    0.0
2061 208876.000  -3120039.8513   4084613.8120   3764025.5755   6   7   0.2835   0.3430   0.2887  -0.2549   0.2260  -0.2398   0.00    0.0
2061 208877.000  -3120039.8341   4084613.7963   3764025.5701   6   7   0.2821   0.3417   0.2873  -0.2539   0.2254  -0.2387   0.00    0.0
2061 208878.000  -3120039.8562   4084613.8312   3764025.5784   6   7   0.2806   0.3404   0.2859  -0.2530   0.2248  -0.2377   0.00    0.0
2061 208879.000  -3120039.8543   4084613.8163   3764025.5553   6   7   0.2793   0.3392   0.2845  -0.2521   0.2242  -0.2367   0.00    0.0
2061 208880.000  -3120039.8622   4084613.8091   3764025.5490   6   7   0.2779   0.3379   0.2832  -0.2512   0.2237  -0.2357   0.00    0.0
2061 208881.000  -3120039.8604   4084613.8148   3764025.5397   6   7   0.2765   0.3367   0.2819  -0.2503   0.2231  -0.2347   0.00    0.0
2061 208882.000  -3120039.8655   4084613.8203   3764025.5404   6   7   0.2752   0.3355   0.2806  -0.2495   0.2226  -0.2338   0.00    0.0
2061 208883.000  -3120039.8815   4084613.8253   3764025.5379   6   7   0.2739   0.3343   0.2793  -0.2487   0.2221  -0.2328   0.00    0.0
2061 208884.000  -3120039.8987   4084613.8218   3764025.5397   6   7   0.2727   0.3332   0.2781  -0.2478   0.2216  -0.2319   0.00    0.0
2061 208885.000  -3120039.9044   4084613.8156   3764025.5313   6   7   0.2714   0.3320   0.2769  -0.2470   0.2211  -0.2310   0.00    0.0
2061 208886.000  -3120039.9283   4084613.8141   3764025.5398   6   7   0.2702   0.3309   0.2757  -0.2462   0.2206  -0.2301   0.00    0.0
2061 208887.000  -3120039.9461   4084613.8245   3764025.5472   6   7   0.2690   0.3299   0.2745  -0.2455   0.2201  -0.2292   0.00    0.0
2061 208888.000  -3120039.9512   4084613.8203   3764025.5455   6   7   0.2678   0.3288   0.2734  -0.2447   0.2196  -0.2284   0.00    0.0
2061 208889.000  -3120039.9674   4084613.8063   3764025.5643   6   7   0.2667   0.3277   0.2723  -0.2440   0.2192  -0.2275   0.00    0.0
2061 208890.000  -3120039.9752   4084613.7968   3764025.5526   6   7   0.2655   0.3267   0.2712  -0.2432   0.2187  -0.2267   0.00    0.0
2061 208891.000  -3120039.9961   4084613.7982   3764025.5643   6   7   0.2644   0.3257   0.2701  -0.2425   0.2183  -0.2259   0.00    0.0
2061 208892.000  -3120040.0120   4084613.8094   3764025.5623   6   7   0.2633   0.3247   0.2690  -0.2418   0.2178  -0.2251   0.00    0.0
2061 208893.000  -3120040.0296   4084613.8136   3764025.5680   6   7   0.2622   0.3237   0.2680  -0.2411   0.2174  -0.2243   0.00    0.0
2061 208894.000  -3120040.0444   4084613.8013   3764025.5555   6   7   0.2611   0.3228   0.2669  -0.2404   0.2170  -0.2235   0.00    0.0
2061 208895.000  -3120040.0448   4084613.8016   3764025.5534   6   7   0.2601   0.3218   0.2659  -0.2398   0.2165  -0.2228   0.00    0.0
2061 208896.000  -3120040.0433   4084613.7933   3764025.5560   6   7   0.2591   0.3209   0.2649  -0.2391   0.2161  -0.2220   0.00    0.0
2061 208897.000  -3120040.0670   4084613.8109   3764025.5704   6   7   0.2581   0.3200   0.2639  -0.2384   0.2157  -0.2213   0.00    0.0
2061 208898.000  -3120040.0665   4084613.8108   3764025.5682   6   7   0.2571   0.3191   0.2630  -0.2378   0.2153  -0.2206   0.00    0.0
2061 208899.000  -3120040.0828   4084613.8194   3764025.5793   6   7   0.2561   0.3182   0.2620  -0.2372   0.2149  -0.2199   0.00    0.0
2061 208900.000  -3120040.0892   4084613.8133   3764025.5824   6   7   0.2551   0.3174   0.2611  -0.2366   0.2146  -0.2192   0.00    0.0
2061 208901.000  -3120040.1125   4084613.8330   3764025.6094   6   7   0.2542   0.3165   0.2601  -0.2359   0.2142  -0.2185   0.00    0.0
2061 208902.000  -3120040.1265   4084613.8451   3764025.6237   6   7   0.2532   0.3157   0.2592  -0.2353   0.2138  -0.2178   0.00    0.0
2061 208903.000  -3120040.1443   4084613.8635   3764025.6290   6   7   0.2523   0.3148   0.2583  -0.2348   0.2134  -0.2171   0.00    0.0
2061 208904.000  -3120040.1607   4084613.8768   3764025.6356   6   7   0.2514   0.3140   0.2575  -0.2342   0.2131  -0.2165   0.00    0.0
2061 208905.000  -3120040.1859   4084613.9029   3764025.6391   6   7   0.2505   0.3132   0.2566  -0.2336   0.2127  -0.2158   0.00    0.0
2061 208906.000  -3120040.2146   4084613.9185   3764025.6671   6   7   0.2496   0.3124   0.2557  -0.2330   0.2123  -0.2152   0.00    0.0
2061 208907.000  -3120040.2337   4084613.9260   3764025.6772   6   7   0.2488   0.3116   0.2549  -0.2325   0.2120  -0.2146   0.00    0.0
2061 208908.000  -3120040.2511   4084613.9377   3764025.6764   6   7   0.2479   0.3109   0.2541  -0.2319   0.2117  -0.2140   0.00    0.0
2061 208909.000  -3120040.2519   4084613.9360   3764025.6510   6   7   0.2471   0.3101   0.2532  -0.2314   0.2113  -0.2134   0.00    0.0
2061 208910.000  -3120040.2553   4084613.9361   3764025.6430   6   7   0.2462   0.3094   0.2524  -0.2309   0.2110  -0.2128   0.00    0.0
2061 208911.000  -3120040.2513   4084613.9348   3764025.6303   6   7   0.2454   0.3086   0.2516  -0.2303   0.2107  -0.2122   0.00    0.0
2061 208912.000  -3120040.2417   4084613.9329   3764025.6127   6   7   0.2446   0.3079   0.2509  -0.2298   0.2103  -0.2116   0.00    0.0
2061 208913.000  -3120040.2459   4084613.9437   3764025.6108   6   7   0.2438   0.3072   0.2501  -0.2293   0.2100  -0.2110   0.00    0.0
2061 208914.000  -3120040.2486   4084613.9459   3764025.6108   6   7   0.2430   0.3065   0.2493  -0.2288   0.2097  -0.2104   0.00    0.0
2061 208915.000  -3120040.2438   4084613.9503   3764025.6001   6   7   0.2422   0.3058   0.2486  -0.2283   0.2094  -0.2099   0.00    0.0
2061 208916.000  -3120040.2436   4084613.9425   3764025.5908   6   7   0.2415   0.3051   0.2478  -0.2278   0.2091  -0.2093   0.00    0.0
2061 208917.000  -3120040.2573   4084613.9386   3764025.5881   6   7   0.2407   0.3044   0.2471  -0.2273   0.2088  -0.2088   0.00    0.0
2061 208918.000  -3120040.2441   4084613.9310   3764025.5705   6   7   0.2400   0.3038   0.2464  -0.2269   0.2085  -0.2082   0.00    0.0
2061 208919.000  -3120040.2448   4084613.9382   3764025.5712   6   7   0.2392   0.3031   0.2457  -0.2264   0.2082  -0.2077   0.00    0.0
2061 208920.000  -3120040.2516   4084613.9510   3764025.5707   6   7   0.2385   0.3025   0.2450  -0.2259   0.2079  -0.2072   0.00    0.0
2061 208921.000  -3120040.2471   4084613.9386   3764025.5644   6   7   0.2378   0.3018   0.2443  -0.2255   0.2076  -0.2067   0.00    0.0
2061 208922.000  -3120040.2308   4084613.9400   3764025.5442   6   7   0.2371   0.3012   0.2436  -0.2250   0.2073  -0.2062   0.00    0.0
2061 208923.000  -3120040.2320   4084613.9323   3764025.5406   6   7   0.2364   0.3006   0.2429  -0.2246   0.2070  -0.2057   0.00    0.0
2061 208924.000  -3120040.2345   4084613.9349   3764025.5407   6   7   0.2357   0.3000   0.2422  -0.2241   0.2068  -0.2052   0.00    0.0
2061 208925.000  -3120040.2273   4084613.9185   3764025.5356   6   7   0.2350   0.2994   0.2416  -0.2237   0.2065  -0.2047   0.00    0.0
2061 208926.000  -3120040.2286   4084613.9041   3764025.5333   6   7   0.2343   0.2988   0.2409  -0.2233   0.2062  -0.2042   0.00    0.0
2061 208927.000  -3120040.2366   4084613.8979   3764025.5404   6   7   0.2337   0.2982   0.2403  -0.2228   0.2059  -0.2037   0.00    0.0
2061 208928.000  -3120040.2352   4084613.8924   3764025.5402   6   7   0.2330   0.2976   0.2397  -0.2224   0.2057  -0.2032   0.00    0.0
2061 208929.000  -3120040.2270   4084613.8913   3764025.5314   6   7   0.2324   0.2970   0.2390  -0.2220   0.2054  -0.2028   0.00    0.0
2061 208930.000  -3120040.2356   4084613.8949   3764025.5387   6   7   0.2317   0.2964   0.2384  -0.2216   0.2052  -0.2023   0.00    0.0
2061 208931.000  -3120040.2329   4084613.8866   3764025.5405   6   7   0.2311   0.2959   0.2378  -0.2212   0.2049  -0.2019   0.00    0.0
2061 208932.000  -3120040.2269   4084613.8846   3764025.5335   6   7   0.2305   0.2953   0.2372  -0.2208   0.2046  -0.2014   0.00    0.0
2061 208933.000  -3120040.2350   4084613.8920   3764025.5300   6   7   0.2298   0.2947   0.2366  -0.2204   0.2044  -0.2010   0.00    0.0
2061 208934.000  -3120040.2509   4084613.9101   3764025.5385   6   7   0.2292   0.2942   0.2360  -0.2200   0.2041  -0.2005   0.00    0.0
2061 208935.000  -3120040.2579   4084613.9223   3764025.5359   6   7   0.2286   0.2937   0.2354  -0.2196   0.2039  -0.2001   0.00    0.0
2061 208936.000  -3120040.2546   4084613.9191   3764025.5335   6   7   0.2280   0.2931   0.2348  -0.2192   0.2037  -0.1997   0.00    0.0
2061 208937.000  -3120040.2589   4084613.9261   3764025.5347   6   7   0.2274   0.2926   0.2343  -0.2189   0.2034  -0.1992   0.00    0.0
2061 208938.000  -3120040.2692   4084613.9405   3764025.5480   6   7   0.2269   0.2921   0.2337  -0.2185   0.2032  -0.1988   0.00    0.0
2061 208939.000  -3120040.2798   4084613.9448   3764025.5539   6   7   0.2263   0.2916   0.2331  -0.2181   0.2029  -0.1984   0.00    0.0
2061 208940.000  -3120040.2773   4084613.9470   3764025.5549   6   7   0.2257   0.2911   0.2326  -0.2178   0.2027  -0.1980   0.00    0.0
2061 208941.000  -3120040.2800   4084613.9502   3764025.5562   6   7   0.2251   0.2906   0.2321  -0.2174   0.2025  -0.1976   0.00    0.0
2061 208942.000  -3120040.2850   4084613.9483   3764025.5721   6   7   0.2246   0.2901   0.2315  -0.2170   0.2022  -0.1972   0.00    0.0
2061 208943.000  -3120040.2817   4084613.9544   3764025.5876   6   7   0.2240   0.2896   0.2310  -0.2167   0.2020  -0.1968   0.00    0.0
2061 208944.000  -3120040.2805   4084613.9596   3764025.5865   6   7   0.2235   0.2891   0.2305  -0.2163   0.2018  -0.1964   0.00    0.0
2061 208945.000  -3120040.2709   4084613.9511   3764025.5859   6   7   0.2230   0.2886   0.2299  -0.2160   0.2016  -0.1960   0.00    0.0
2061 208946.000  -3120040.2666   4084613.9464   3764025.5889   6   7   0.2224   0.2881   0.2294  -0.2156   0.2014  -0.1956   0.00    0.0
2061 208947.000  -3120040.2647   4084613.9490   3764025.5864   6   7   0.2219   0.2876   0.2289  -0.2153   0.2011  -0.1952   0.00    0.0
2061 208948.000  -3120040.2767   4084613.9479   3764025.6032   6   7   0.2214   0.2872   0.2284  -0.2150   0.2009  -0.1949   0.00    0.0
2061 208949.000  -3120040.2770   4084613.9465   3764025.6199   6   7   0.2208   0.2867   0.2279  -0.2146   0.2007  -0.1945   0.00    0.0
2061 208950.000  -3120040.2768   4084613.9458   3764025.6205   6   7   0.2203   0.2863   0.2274  -0.2143   0.2005  -0.1941   0.00    0.0
2061 208951.000  -3120040.2804   4084613.9575   3764025.6188   6   7   0.2198   0.2858   0.2269  -0.2140   0.2003  -0.1938   0.00    0.0
2061 208952.000  -3120040.2811   4084613.9570   3764025.6292   6   7   0.2193   0.2854   0.2264  -0.2137   0.2001  -0.1934   0.00    0.0
2061 208953.000  -3120040.2801   4084613.9654   3764025.6397   6   7   0.2188   0.2849   0.2260  -0.2133   0.1999  -0.1930   0.00    0.0
2061 208954.000  -3120040.2787   4084613.9743   3764025.6447   6   7   0.2183   0.2845   0.2255  -0.2130   0.1997  -0.1927   0.00    0.0
2061 208955.000  -3120040.2744   4084613.9683   3764025.6448   6   7   0.2178   0.2840   0.2250  -0.2127   0.1995  -0.1923   0.00    0.0
2061 208956.000  -3120040.2625   4084613.9628   3764025.6300   6   7   0.2174   0.2836   0.2245  -0.2124   0.1993  -0.1920   0.00    0.0
2061 208957.000  -3120040.2610   4084613.9639   3764025.6308   6   7   0.2169   0.2832   0.2241  -0.2121   0.1991  -0.1916   0.00    0.0
2061 208958.000  -3120040.2544   4084613.9635   3764025.6380   6   7   0.2164   0.2828   0.2236  -0.2118   0.1989  -0.1913   0.00    0.0
2061 208959.000  -3120040.2550   4084613.9647   3764025.6536   6   7   0.2159   0.2823   0.2232  -0.2115   0.1987  -0.1910   0.00    0.0
2061 208960.000  -3120040.2608   4084613.9744   3764025.6625   6   7   0.2155   0.2819   0.2227  -0.2112   0.1985  -0.1906   0.00    0.0
2061 208961.000  -3120040.2681   4084613.9823   3764025.6681   6   7   0.2150   0.2815   0.2223  -0.2109   0.1983  -0.1903   0.00    0.0
2061 208962.000  -3120040.2699   4084613.9849   3764025.6728   6   7   0.2146   0.2811   0.2218  -0.2106   0.1981  -0.1900   0.00    0.0
2061 208963.000  -3120040.2715   4084613.9913   3764025.6842   6   7   0.2141   0.2807   0.2214  -0.2103   0.1979  -0.1897   0.00    0.0
2061 208964.000  -3120040.2733   4084613.9934   3764025.6917   6   7   0.2137   0.2803   0.2210  -0.2100   0.1977  -0.1893   0.00    0.0
2061 208965.000  -3120040.2694   4084613.9889   3764025.6962   6   7   0.2132   0.2799   0.2205  -0.2097   0.1976  -0.1890   0.00    0.0
2061 208966.000  -3120040.2664   4084613.9905   3764025.7009   6   7   0.2128   0.2795   0.2201  -0.2095   0.1974  -0.1887   0.00    0.0
2061 208967.000  -3120040.2741   4084614.0016   3764025.7125   6   7   0.2123   0.2791   0.2197  -0.2092   0.1972  -0.1884   0.00    0.0
2061 208968.000  -3120040.2735   4084614.0075   3764025.7152   6   7   0.2119   0.2787   0.2193  -0.2089   0.1970  -0.1881   0.00    0.0
2061 208969.000  -3120040.2780   4084614.0130   3764025.7317   6   7   0.2115   0.2784   0.2189  -0.2086   0.1968  -0.1878   0.00    0.0
2061 208970.000  -3120040.2778   4084614.0153   3764025.7358   6   7   0.2111   0.2780   0.2185  -0.2084   0.1967  -0.1875   0.00    0.0
2061 208971.000  -3120040.2847   4084614.0231   3764025.7501   6   7   0.2106   0.2776   0.2181  -0.2081   0.1965  -0.1872   0.00    0.0
2061 208972.000  -3120040.2805   4084614.0234   3764025.7481   6   7   0.2102   0.2772   0.2177  -0.2078   0.1963  -0.1869   0.00    0.0
2061 208973.000  -3120040.2926   4084614.0294   3764025.7616   6   7   0.2098   0.2769   0.2173  -0.2076   0.1961  -0.1866   0.00    0.0
2061 208974.000  -3120040.2924   4084614.0299   3764025.7569   6   7   0.2094   0.2765   0.2169  -0.2073   0.1960  -0.1863   0.00    0.0
2061 208975.000  -3120040.2865   4084614.0246   3764025.7437   6   7   0.2090   0.2761   0.2165  -0.2070   0.1958  -0.1860   0.00    0.0
2061 208976.000  -3120040.2837   4084614.0245   3764025.7499   6   7   0.2086   0.2758   0.2161  -0.2068   0.1956  -0.1857   0.00    0.0
2061 208977.000  -3120040.2877   4084614.0250   3764025.7556   6   7   0.2082   0.2754   0.2157  -0.2065   0.1954  -0.1854   0.00    0.0
2061 208978.000  -3120040.2998   4084614.0404   3764025.7557   6   7   0.2078   0.2751   0.2153  -0.2063   0.1953  -0.1851   0.00    0.0
2061 208979.000  -3120040.3027   4084614.0413   3764025.7630   6   7   0.2074   0.2747   0.2150  -0.2060   0.1951  -0.1848   0.00    0.0
2061 208980.000  -3120040.2993   4084614.0370   3764025.7569   6   7   0.2070   0.2744   0.2146  -0.2058   0.1949  -0.1846   0.00    0.0
2061 208981.000  -3120040.2977   4084614.0377   3764025.7569   6   7   0.2066   0.2740   0.2142  -0.2055   0.1948  -0.1843   0.00    0.0
2061 208982.000  -3120040.2931   4084614.0305   3764025.7571   6   7   0.2063   0.2737   0.2138  -0.2053   0.1946  -0.1840   0.00    0.0
2061 208983.000  -3120040.2933   4084614.0304   3764025.7483   6   7   0.2059   0.2733   0.2135  -0.2050   0.1945  -0.1837   0.00    0.0
2061 208984.000  -3120040.3015   4084614.0399   3764025.7569   6   7   0.2055   0.2730   0.2131  -0.2048   0.1943  -0.1835   0.00    0.0
2061 208985.000  -3120040.2949   4084614.0396   3764025.7494   6   7   0.2051   0.2727   0.2128  -0.2045   0.1941  -0.1832   0.00    0.0
2061 208986.000  -3120040.2928   4084614.0395   3764025.7494   6   7   0.2048   0.2723   0.2124  -0.2043   0.1940  -0.1829   0.00    0.0
2061 208987.000  -3120040.2922   4084614.0360   3764025.7556   6   7   0.2044   0.2720   0.2120  -0.2040   0.1938  -0.1827   0.00    0.0
2061 208988.000  -3120040.2944   4084614.0373   3764025.7539   6   7   0.2040   0.2717   0.2117  -0.2038   0.1937  -0.1824   0.00    0.0
2061 208989.000  -3120040.2945   4084614.0340   3764025.7489   6   7   0.2037   0.2714   0.2113  -0.2036   0.1935  -0.1821   0.00    0.0
2061 208990.000  -3120040.3010   4084614.0387   3764025.7521   6   7   0.2033   0.2710   0.2110  -0.2033   0.1934  -0.1819   0.00    0.0
2061 208991.000  -3120040.3048   4084614.0410   3764025.7515   6   7   0.2030   0.2707   0.2107  -0.2031   0.1932  -0.1816   0.00    0.0
2061 208992.000  -3120040.3092   4084614.0428   3764025.7563   6   7   0.2026   0.2704   0.2103  -0.2029   0.1931  -0.1814   0.00    0.0
2061 208993.000  -3120040.3207   4084614.0462   3764025.7624   6   7   0.2023   0.2701   0.2100  -0.2027   0.1929  -0.1811   0.00    0.0
2061 208994.000  -3120040.3347   4084614.0492   3764025.7693   6   7   0.2019   0.2698   0.2097  -0.2024   0.1928  -0.1809   0.00    0.0
2061 208995.000  -3120040.3440   4084614.0455   3764025.7744   6   7   0.2016   0.2695   0.2093  -0.2022   0.1926  -0.1806   0.00    0.0
2061 208996.000  -3120040.3601   4084614.0489   3764025.7739   6   7   0.2012   0.2692   0.2090  -0.2020   0.1925  -0.1804   0.00    0.0
2061 208997.000  -3120040.3576   4084614.0417   3764025.7697   6   7   0.2009   0.2689   0.2087  -0.2018   0.1923  -0.1801   0.00    0.0
2061 208998.000  -3120040.3603   4084614.0380   3764025.7641   6   7   0.2005   0.2686   0.2083  -0.2015   0.1922  -0.1799   0.00    0.0
2061 208999.000  -3120040.3616   4084614.0385   3764025.7666   6   7   0.2002   0.2683   0.2080  -0.2013   0.1920  -0.1797   0.00    0.0
2061 209000.000  -3120040.3614   4084614.0276   3764025.7675   6   7   0.1999   0.2680   0.2077  -0.2011   0.1919  -0.1794   0.00    0.0
2061 209001.000  -3120040.3675   4084614.0236   3764025.7688   6   7   0.1996   0.2677   0.2074  -0.2009   0.1917  -0.1792   0.00    0.0
2061 209002.000  -3120040.3718   4084614.0216   3764025.7705   6   7   0.1992   0.2674   0.2071  -0.2007   0.1916  -0.1789   0.00    0.0
2061 209003.000  -3120040.3657   4084614.0155   3764025.7661   6   7   0.1989   0.2671   0.2068  -0.2005   0.1914  -0.1787   0.00    0.0
2061 209004.000  -3120040.3605   4084614.0103   3764025.7602   6   7   0.1986   0.2668   0.2065  -0.2003   0.1913  -0.1785   0.00    0.0
2061 209005.000  -3120040.3632   4084614.0183   3764025.7621   6   7   0.1983   0.2665   0.2061  -0.2001   0.1912  -0.1782   0.00    0.0
2061 209006.000  -3120040.3608   4084614.0167   3764025.7581   6   7   0.1979   0.2662   0.2058  -0.1998   0.1910  -0.1780   0.00    0.0
2061 209007.000  -3120040.3621   4084614.0100   3764025.7602   6   7   0.1976   0.2659   0.2055  -0.1996   0.1909  -0.1778   0.00    0.0
2061 209008.000  -3120040.3597   4084614.0044   3764025.7628   6   7   0.1973   0.2656   0.2052  -0.1994   0.1908  -0.1776   0.00    0.0
2061 209009.000  -3120040.3542   4084614.0085   3764025.7644   6   7   0.1970   0.2654   0.2049  -0.1992   0.1906  -0.1773   0.00    0.0
2061 209010.000  -3120040.3580   4084614.0085   3764025.7663   6   7   0.1967   0.2651   0.2046  -0.1990   0.1905  -0.1771   0.00    0.0
2061 209011.000  -3120040.3555   4084614.0063   3764025.7683   6   7   0.1964   0.2648   0.2044  -0.1988   0.1903  -0.1769   0.00    0.0
2061 209012.000  -3120040.3550   4084614.0037   3764025.7663   6   7   0.1961   0.2645   0.2041  -0.1986   0.1902  -0.1767   0.00    0.0
2061 209013.000  -3120040.3659   4084614.0074   3764025.7730   6   7   0.1958   0.2643   0.2038  -0.1984   0.1901  -0.1765   0.00    0.0
2061 209014.000  -3120040.3645   4084613.9992   3764025.7760   6   7   0.1955   0.2640   0.2035  -0.1982   0.1899  -0.1762   0.00    0.0
2061 209015.000  -3120040.3611   4084613.9938   3764025.7777   6   7   0.1952   0.2637   0.2032  -0.1980   0.1898  -0.1760   0.00    0.0
2061 209016.000  -3120040.3599   4084613.9920   3764025.7796   6   7   0.1949   0.2635   0.2029  -0.1979   0.1897  -0.1758   0.00    0.0
2061 209017.000  -3120040.3519   4084613.9821   3764025.7723   6   7   0.1946   0.2632   0.2026  -0.1977   0.1896  -0.1756   0.00    0.0
2061 209018.000  -3120040.3542   4084613.9769   3764025.7781   6   7   0.1943   0.2629   0.2024  -0.1975   0.1894  -0.1754   0.00    0.0
2061 209019.000  -3120040.3569   4084613.9801   3764025.7829   6   7   0.1940   0.2627   0.2021  -0.1973   0.1893  -0.1752   0.00    0.0
2061 209020.000  -3120040.3570   4084613.9790   3764025.7804   6   7   0.1937   0.2624   0.2018  -0.1971   0.1892  -0.1750   0.00    0.0
2061 209021.000  -3120040.3586   4084613.9765   3764025.7831   6   7   0.1935   0.2622   0.2015  -0.1969   0.1890  -0.1748   0.00    0.0
2061 209022.000  -3120040.3605   4084613.9759   3764025.7783   6   7   0.1932   0.2619   0.2013  -0.1967   0.1889  -0.1746   0.00    0.0
2061 209023.000  -3120040.3646   4084613.9729   3764025.7789   6   7   0.1929   0.2616   0.2010  -0.1965   0.1888  -0.1744   0.00    0.0
2061 209024.000  -3120040.3674   4084613.9709   3764025.7855   6   7   0.1926   0.2614   0.2007  -0.1963   0.1887  -0.1742   0.00    0.0
2061 209025.000  -3120040.3705   4084613.9707   3764025.7915   6   7   0.1923   0.2611   0.2004  -0.1962   0.1885  -0.1740   0.00    0.0
2061 209026.000  -3120040.3708   4084613.9643   3764025.8013   6   7   0.1921   0.2609   0.2002  -0.1960   0.1884  -0.1738   0.00    0.0
2061 209027.000  -3120040.3730   4084613.9563   3764025.8042   6   7   0.1918   0.2606   0.1999  -0.1958   0.1883  -0.1736   0.00    0.0
2061 209028.000  -3120040.3744   4084613.9526   3764025.8016   6   7   0.1915   0.2604   0.1997  -0.1956   0.1882  -0.1734   0.00    0.0
2061 209029.000  -3120040.3770   4084613.9544   3764025.8049   6   7   0.1912   0.2601   0.1994  -0.1954   0.1880  -0.1732   0.00    0.0
2061 209030.000  -3120040.3800   4084613.9559   3764025.8082   6   7   0.1910   0.2599   0.1991  -0.1953   0.1879  -0.1730   0.00    0.0
2061 209031.000  -3120040.3889   4084613.9688   3764025.8174   6   7   0.1907   0.2597   0.1989  -0.1951   0.1878  -0.1728   0.00    0.0
2061 209032.000  -3120040.3924   4084613.9690   3764025.8233   6   7   0.1904   0.2594   0.1986  -0.1949   0.1877  -0.1726   0.00    0.0
2061 209033.000  -3120040.3952   4084613.9696   3764025.8277   6   7   0.1902   0.2592   0.1984  -0.1947   0.1876  -0.1724   0.00    0.0
2061 209034.000  -3120040.4051   4084613.9813   3764025.8408   6   7   0.1899   0.2589   0.1981  -0.1946   0.1874  -0.1722   0.00    0.0
2061 209035.000  -3120040.4131   4084613.9890   3764025.8469   6   7   0.1897   0.2587   0.1979  -0.1944   0.1873  -0.1720   0.00    0.0
2061 209036.000  -3120040.4177   4084614.0007   3764025.8474   6   7   0.1894   0.2585   0.1976  -0.1942   0.1872  -0.1718   0.00    0.0
2061 209037.000  -3120040.4156   4084614.0048   3764025.8454   6   7   0.1891   0.2582   0.1974  -0.1941   0.1871  -0.1716   0.00    0.0
2061 209038.000  -3120040.4157   4084614.0043   3764025.8469   6   7   0.1889   0.2580   0.1971  -0.1939   0.1870  -0.1715   0.00    0.0
2061 209039.000  -3120040.4146   4084614.0028   3764025.8457   6   7   0.1886   0.2578   0.1969  -0.1937   0.1869  -0.1713   0.00    0.0
2061 209040.000  -3120040.4185   4084614.0034   3764025.8486   6   7   0.1884   0.2575   0.1967  -0.1935   0.1867  -0.1711   0.00    0.0
2061 209041.000  -3120040.4276   4084614.0098   3764025.8514   6   7   0.1881   0.2573   0.1964  -0.1934   0.1866  -0.1709   0.00    0.0
2061 209042.000  -3120040.4246   4084614.0032   3764025.8426   6   7   0.1879   0.2571   0.1962  -0.1932   0.1865  -0.1707   0.00    0.0
2061 209043.000  -3120040.4222   4084614.0005   3764025.8405   6   7   0.1876   0.2569   0.1959  -0.1930   0.1864  -0.1706   0.00    0.0
2061 209044.000  -3120040.4209   4084613.9992   3764025.8387   6   7   0.1874   0.2566   0.1957  -0.1929   0.1863  -0.1704   0.00    0.0
2061 209045.000  -3120040.4142   4084613.9989   3764025.8327   6   7   0.1871   0.2564   0.1955  -0.1927   0.1862  -0.1702   0.00    0.0
2061 209046.000  -3120040.4094   4084613.9968   3764025.8316   6   7   0.1869   0.2562   0.1952  -0.1926   0.1861  -0.1700   0.00    0.0
2061 209047.000  -3120040.4061   4084613.9954   3764025.8298   6   7   0.1867   0.2560   0.1950  -0.1924   0.1860  -0.1698   0.00    0.0
2061 209048.000  -3120040.4048   4084613.9889   3764025.8299   6   7   0.1864   0.2558   0.1948  -0.1922   0.1858  -0.1697   0.00    0.0
2061 209049.000  -3120040.3979   4084613.9780   3764025.8261   6   7   0.1862   0.2555   0.1945  -0.1921   0.1857  -0.1695   0.00    0.0
2061 209050.000  -3120040.3932   4084613.9759   3764025.8250   6   7   0.1859   0.2553   0.1943  -0.1919   0.1856  -0.1693   0.00    0.0
2061 209051.000  -3120040.3911   4084613.9718   3764025.8241   6   7   0.1857   0.2551   0.1941  -0.1918   0.1855  -0.1692   0.00    0.0
2061 209052.000  -3120040.3885   4084613.9751   3764025.8202   6   7   0.1855   0.2549   0.1939  -0.1916   0.1854  -0.1690   0.00    0.0
2061 209053.000  -3120040.3863   4084613.9773   3764025.8173   6   7   0.1852   0.2547   0.1936  -0.1915   0.1853  -0.1688   0.00    0.0
2061 209054.000  -3120040.3807   4084613.9688   3764025.8117   6   7   0.1850   0.2545   0.1934  -0.1913   0.1852  -0.1686   0.00    0.0
2061 209055.000  -3120040.3774   4084613.9603   3764025.8085   6   7   0.1848   0.2543   0.1932  -0.1911   0.1851  -0.1685   0.00    0.0
2061 209056.000  -3120040.3774   4084613.9537   3764025.8110   6   7   0.1845   0.2540   0.1930  -0.1910   0.1850  -0.1683   0.00    0.0
2061 209057.000  -3120040.3738   4084613.9509   3764025.8104   6   7   0.1843   0.2538   0.1928  -0.1908   0.1849  -0.1681   0.00    0.0
2061 209058.000  -3120040.3688   4084613.9441   3764025.8097   6   7   0.1841   0.2536   0.1925  -0.1907   0.1848  -0.1680   0.00    0.0
2061 209059.000  -3120040.3659   4084613.9325   3764025.8088   6   7   0.1839   0.2534   0.1923  -0.1905   0.1847  -0.1678   0.00    0.0
2061 209060.000  -3120040.3551   4084613.9231   3764025.7990   6   7   0.1836   0.2532   0.1921  -0.1904   0.1846  -0.1677   0.00    0.0
2061 209061.000  -3120040.3456   4084613.9136   3764025.7899   6   7   0.1834   0.2530   0.1919  -0.1902   0.1844  -0.1675   0.00    0.0
2061 209062.000  -3120040.3331   4084613.9066   3764025.7831   6   7   0.1832   0.2528   0.1917  -0.1901   0.1843  -0.1673   0.00    0.0
2061 209063.000  -3120040.3298   4084613.9046   3764025.7761   6   7   0.1830   0.2526   0.1915  -0.1899   0.1842  -0.1672   0.00    0.0
2061 209064.000  -3120040.3274   4084613.8965   3764025.7721   6   7   0.1828   0.2524   0.1913  -0.1898   0.1841  -0.1670   0.00    0.0
2061 209065.000  -3120040.3194   4084613.8839   3764025.7643   6   7   0.1825   0.2522   0.1911  -0.1896   0.1840  -0.1669   0.00    0.0
2061 209066.000  -3120040.3074   4084613.8713   3764025.7542   6   7   0.1823   0.2520   0.1909  -0.1895   0.1839  -0.1667   0.00    0.0
2061 209067.000  -3120040.3040   4084613.8662   3764025.7468   6   7   0.1821   0.2518   0.1906  -0.1894   0.1838  -0.1665   0.00    0.0
2061 209068.000  -3120040.2985   4084613.8628   3764025.7417   6   7   0.1819   0.2516   0.1904  -0.1892   0.1837  -0.1664   0.00    0.0
2061 209069.000  -3120040.2965   4084613.8621   3764025.7367   6   7   0.1817   0.2514   0.1902  -0.1891   0.1836  -0.1662   0.00    0.0
2061 209070.000  -3120040.2935   4084613.8591   3764025.7284   6   7   0.1815   0.2512   0.1900  -0.1889   0.1835  -0.1661   0.00    0.0
2061 209071.000  -3120040.2901   4084613.8612   3764025.7274   6   7   0.1813   0.2510   0.1898  -0.1888   0.1834  -0.1659   0.00    0.0
2061 209072.000  -3120040.2930   4084613.8628   3764025.7251   6   7   0.1811   0.2508   0.1896  -0.1886   0.1833  -0.1658   0.00    0.0
2061 209073.000  -3120040.2945   4084613.8588   3764025.7262   6   7   0.1808   0.2506   0.1894  -0.1885   0.1832  -0.1656   0.00    0.0
2061 209074.000  -3120040.2927   4084613.8601   3764025.7177   6   7   0.1806   0.2505   0.1892  -0.1884   0.1831  -0.1655   0.00    0.0
2061 209075.000  -3120040.2888   4084613.8629   3764025.7170   6   7   0.1804   0.2503   0.1890  -0.1882   0.1830  -0.1653   0.00    0.0
2061 209076.000  -3120040.2812   4084613.8614   3764025.7078   6   7   0.1802   0.2501   0.1888  -0.1881   0.1829  -0.1652   0.00    0.0
2061 209077.000  -3120040.2850   4084613.8664   3764025.7066   6   7   0.1800   0.2499   0.1886  -0.1879   0.1828  -0.1650   0.00    0.0
2061 209078.000  -3120040.2777   4084613.8643   3764025.7016   6   7   0.1798   0.2497   0.1885  -0.1878   0.1827  -0.1649   0.00    0.0
2061 209079.000  -3120040.2753   4084613.8687   3764025.7000   6   7   0.1796   0.2495   0.1883  -0.1877   0.1826  -0.1647   0.00    0.0
2061 209080.000  -3120040.2752   4084613.8695   3764025.6990   6   7   0.1794   0.2493   0.1881  -0.1875   0.1825  -0.1646   0.00    0.0
2061 209081.000  -3120040.2742   4084613.8713   3764025.6947   6   7   0.1792   0.2491   0.1879  -0.1874   0.1824  -0.1644   0.00    0.0
2061 209082.000  -3120040.2677   4084613.8687   3764025.6903   6   7   0.1790   0.2490   0.1877  -0.1873   0.1824  -0.1643   0.00    0.0
2061 209083.000  -3120040.2567   4084613.8609   3764025.6804   6   7   0.1788   0.2488   0.1875  -0.1871   0.1823  -0.1641   0.00    0.0
2061 209084.000  -3120040.2541   4084613.8574   3764025.6763   6   7   0.1786   0.2486   0.1873  -0.1870   0.1822  -0.1640   0.00    0.0
2061 209085.000  -3120040.2508   4084613.8552   3764025.6712   6   7   0.1784   0.2484   0.1871  -0.1869   0.1821  -0.1639   0.00    0.0
2061 209086.000  -3120040.2514   4084613.8524   3764025.6722   6   7   0.1782   0.2482   0.1869  -0.1867   0.1820  -0.1637   0.00    0.0
2061 209087.000  -3120040.2525   4084613.8540   3764025.6729   6   7   0.1780   0.2481   0.1867  -0.1866   0.1819  -0.1636   0.00    0.0
2061 209088.000  -3120040.2516   4084613.8533   3764025.6685   6   7   0.1779   0.2479   0.1866  -0.1865   0.1818  -0.1634   0.00    0.0
2061 209089.000  -3120040.2514   4084613.8523   3764025.6638   6   7   0.1777   0.2477   0.1864  -0.1863   0.1817  -0.1633   0.00    0.0
2061 209090.000  -3120040.2455   4084613.8506   3764025.6602   6   7   0.1775   0.2475   0.1862  -0.1862   0.1816  -0.1632   0.00    0.0
2061 209091.000  -3120040.2492   4084613.8556   3764025.6599   6   7   0.1773   0.2473   0.1860  -0.1861   0.1815  -0.1630   0.00    0.0
2061 209092.000  -3120040.2533   4084613.8603   3764025.6587   6   7   0.1771   0.2472   0.1858  -0.1859   0.1814  -0.1629   0.00    0.0
2061 209093.000  -3120040.2574   4084613.8676   3764025.6600   6   7   0.1769   0.2470   0.1857  -0.1858   0.1813  -0.1627   0.00    0.0
2061 209094.000  -3120040.2568   4084613.8661   3764025.6573   6   7   0.1767   0.2468   0.1855  -0.1857   0.1812  -0.1626   0.00    0.0
2061 209095.000  -3120040.2587   4084613.8709   3764025.6587   6   7   0.1765   0.2467   0.1853  -0.1856   0.1811  -0.1625   0.00    0.0
2061 209096.000  -3120040.2556   4084613.8707   3764025.6540   6   7   0.1763   0.2465   0.1851  -0.1854   0.1811  -0.1623   0.00    0.0
2061 209097.000  -3120040.2518   4084613.8670   3764025.6480   6   7   0.1762   0.2463   0.1850  -0.1853   0.1810  -0.1622   0.00    0.0
2061 209098.000  -3120040.2507   4084613.8661   3764025.6492   6   7   0.1760   0.2461   0.1848  -0.1852   0.1809  -0.1621   0.00    0.0
2061 209099.000  -3120040.2541   4084613.8668   3764025.6511   6   7   0.1758   0.2460   0.1846  -0.1851   0.1808  -0.1619   0.00    0.0
2061 209100.000  -3120040.2537   4084613.8633   3764025.6512   6   7   0.1756   0.2458   0.1844  -0.1849   0.1807  -0.1618   0.00    0.0
2061 209101.000  -3120040.2566   4084613.8605   3764025.6555   6   7   0.1754   0.2456   0.1843  -0.1848   0.1806  -0.1617   0.00    0.0
2061 209102.000  -3120040.2580   4084613.8620   3764025.6519   6   7   0.1753   0.2455   0.1841  -0.1847   0.1805  -0.1615   0.00    0.0
2061 209103.000  -3120040.2669   4084613.8652   3764025.6545   6   7   0.1751   0.2453   0.1839  -0.1846   0.1804  -0.1614   0.00    0.0
2061 209104.000  -3120040.2679   4084613.8616   3764025.6559   6   7   0.1749   0.2451   0.1837  -0.1844   0.1803  -0.1613   0.00    0.0
2061 209105.000  -3120040.2660   4084613.8642   3764025.6513   6   7   0.1747   0.2450   0.1836  -0.1843   0.1803  -0.1611   0.00    0.0
2061 209106.000  -3120040.2666   4084613.8642   3764025.6543   6   7   0.1746   0.2448   0.1834  -0.1842   0.1802  -0.1610   0.00    0.0
2061 209107.000  -3120040.2718   4084613.8694   3764025.6571   6   7   0.1744   0.2446   0.1832  -0.1841   0.1801  -0.1609   0.00    0.0
2061 209108.000  -3120040.2756   4084613.8654   3764025.6569   6   7   0.1742   0.2445   0.1831  -0.1840   0.1800  -0.1608   0.00    0.0
2061 209109.000  -3120040.2769   4084613.8614   3764025.6574   6   7   0.1740   0.2443   0.1829  -0.1838   0.1799  -0.1606   0.00    0.0
2061 209110.000  -3120040.2790   4084613.8605   3764025.6602   6   7   0.1739   0.2442   0.1827  -0.1837   0.1798  -0.1605   0.00    0.0
2061 209111.000  -3120040.2783   4084613.8603   3764025.6596   6   7   0.1737   0.2440   0.1826  -0.1836   0.1797  -0.1604   0.00    0.0
2061 209112.000  -3120040.2814   4084613.8625   3764025.6639   6   7   0.1735   0.2438   0.1824  -0.1835   0.1797  -0.1603   0.00    0.0
2061 209113.000  -3120040.2842   4084613.8606   3764025.6663   6   7   0.1733   0.2437   0.1823  -0.1834   0.1796  -0.1601   0.00    0.0
2061 209114.000  -3120040.2889   4084613.8641   3764025.6681   6   7   0.1732   0.2435   0.1821  -0.1832   0.1795  -0.1600   0.00    0.0
2061 209115.000  -3120040.2946   4084613.8681   3764025.6739   6   7   0.1730   0.2434   0.1819  -0.1831   0.1794  -0.1599   0.00    0.0
2061 209116.000  -3120040.2980   4084613.8640   3764025.6820   6   7   0.1728   0.2432   0.1818  -0.1830   0.1793  -0.1598   0.00    0.0
2061 209117.000  -3120040.2985   4084613.8598   3764025.6789   6   7   0.1727   0.2430   0.1816  -0.1829   0.1792  -0.1596   0.00    0.0
2061 209118.000  -3120040.3022   4084613.8590   3764025.6810   6   7   0.1725   0.2429   0.1814  -0.1828   0.1791  -0.1595   0.00    0.0
2061 209119.000  -3120040.3064   4084613.8603   3764025.6821   6   7   0.1723   0.2427   0.1813  -0.1827   0.1791  -0.1594   0.00    0.0
2061 209120.000  -3120040.3123   4084613.8625   3764025.6870   6   7   0.1722   0.2426   0.1811  -0.1825   0.1790  -0.1593   0.00    0.0
2061 209121.000  -3120040.3197   4084613.8671   3764025.6958   6   7   0.1720   0.2424   0.1810  -0.1824   0.1789  -0.1591   0.00    0.0
2061 209122.000  -3120040.3200   4084613.8682   3764025.6992   6   7   0.1718   0.2423   0.1808  -0.1823   0.1788  -0.1590   0.00    0.0
2061 209123.000  -3120040.3204   4084613.8650   3764025.7015   6   7   0.1717   0.2421   0.1807  -0.1822   0.1787  -0.1589   0.00    0.0
2061 209124.000  -3120040.3246   4084613.8706   3764025.7013   6   7   0.1715   0.2420   0.1805  -0.1821   0.1786  -0.1588   0.00    0.0
2061 209125.000  -3120040.3249   4084613.8735   3764025.7007   6   7   0.1714   0.2418   0.1804  -0.1820   0.1786  -0.1587   0.00    0.0
2061 209126.000  -3120040.3235   4084613.8704   3764025.6996   6   7   0.1712   0.2417   0.1802  -0.1819   0.1785  -0.1586   0.00    0.0
2061 209127.000  -3120040.3256   4084613.8696   3764025.6981   6   7   0.1710   0.2415   0.1801  -0.1818   0.1784  -0.1584   0.00    0.0
2061 209128.000  -3120040.3253   4084613.8707   3764025.6998   6   7   0.1709   0.2414   0.1799  -0.1816   0.1783  -0.1583   0.00    0.0
2061 209129.000  -3120040.3288   4084613.8706   3764025.7036   6   7   0.1707   0.2412   0.1797  -0.1815   0.1782  -0.1582   0.00    0.0
2061 209130.000  -3120040.3326   4084613.8677   3764025.7075   6   7   0.1706   0.2411   0.1796  -0.1814   0.1782  -0.1581   0.00    0.0
2061 209131.000  -3120040.3348   4084613.8684   3764025.7094   6   7   0.1704   0.2409   0.1794  -0.1813   0.1781  -0.1580   0.00    0.0
2061 209132.000  -3120040.3305   4084613.8706   3764025.7079   6   7   0.1703   0.2408   0.1793  -0.1812   0.1780  -0.1579   0.00    0.0
2061 209133.000  -3120040.3257   4084613.8661   3764025.7084   6   7   0.1701   0.2406   0.1792  -0.1811   0.1779  -0.1577   0.00    0.0
2061 209134.000  -3120040.3225   4084613.8582   3764025.7061   6   7   0.1699   0.2405   0.1790  -0.1810   0.1778  -0.1576   0.00    0.0
2061 209135.000  -3120040.3179   4084613.8519   3764025.7030   6   7   0.1698   0.2403   0.1789  -0.1809   0.1778  -0.1575   0.00    0.0
2061 209136.000  -3120040.3143   4084613.8486   3764025.7020   6   7   0.1696   0.2402   0.1787  -0.1808   0.1777  -0.1574   0.00    0.0
2061 209137.000  -3120040.3099   4084613.8474   3764025.7027   6   7   0.1695   0.2400   0.1786  -0.1807   0.1776  -0.1573   0.00    0.0
2061 209138.000  -3120040.3055   4084613.8488   3764025.6971   6   7   0.1693   0.2399   0.1784  -0.1806   0.1775  -0.1572   0.00    0.0
2061 209139.000  -3120040.3038   4084613.8512   3764025.7004   6   7   0.1692   0.2397   0.1783  -0.1805   0.1775  -0.1571   0.00    0.0
2061 209140.000  -3120040.2991   4084613.8522   3764025.7017   6   7   0.1690   0.2396   0.1781  -0.1803   0.1774  -0.1570   0.00    0.0
2061 209141.000  -3120040.2994   4084613.8538   3764025.7050   6   7   0.1689   0.2395   0.1780  -0.1802   0.1773  -0.1568   0.00    0.0
2061 209142.000  -3120040.3031   4084613.8531   3764025.7083   6   7   0.1687   0.2393   0.1778  -0.1801   0.1772  -0.1567   0.00    0.0
2061 209143.000  -3120040.3006   4084613.8510   3764025.7019   6   7   0.1686   0.2392   0.1777  -0.1800   0.1771  -0.1566   0.00    0.0
2061 209144.000  -3120040.3023   4084613.8546   3764025.7010   6   7   0.1684   0.2390   0.1776  -0.1799   0.1771  -0.1565   0.00    0.0
2061 209145.000  -3120040.2992   4084613.8520   3764025.7007   6   7   0.1683   0.2389   0.1774  -0.1798   0.1770  -0.1564   0.00    0.0
2061 209146.000  -3120040.2975   4084613.8488   3764025.7017   6   7   0.1681   0.2388   0.1773  -0.1797   0.1769  -0.1563   0.00    0.0
2061 209147.000  -3120040.2963   4084613.8420   3764025.7014   6   7   0.1680   0.2386   0.1771  -0.1796   0.1768  -0.1562   0.00    0.0
2061 209148.000  -3120040.2973   4084613.8404   3764025.7045   6   7   0.1678   0.2385   0.1770  -0.1795   0.1768  -0.1561   0.00    0.0
2061 209149.000  -3120040.3016   4084613.8430   3764025.7068   6   7   0.1677   0.2383   0.1769  -0.1794   0.1767  -0.1560   0.00    0.0
2061 209150.000  -3120040.2996   4084613.8385   3764025.7048   6   7   0.1676   0.2382   0.1767  -0.1793   0.1766  -0.1559   0.00    0.0
2061 209151.000  -3120040.2960   4084613.8322   3764025.7023   6   7   0.1674   0.2381   0.1766  -0.1792   0.1765  -0.1558   0.00    0.0
2061 209152.000  -3120040.2986   4084613.8364   3764025.7023   6   7   0.1673   0.2379   0.1765  -0.1791   0.1765  -0.1557   0.00    0.0
2061 209153.000  -3120040.2973   4084613.8388   3764025.7021   6   7   0.1671   0.2378   0.1763  -0.1790   0.1764  -0.1555   0.00    0.0
2061 209154.000  -3120040.2943   4084613.8337   3764025.6975   6   7   0.1670   0.2377   0.1762  -0.1789   0.1763  -0.1554   0.00    0.0
2061 209155.000  -3120040.2962   4084613.8361   3764025.6991   6   7   0.1668   0.2375   0.1760  -0.1788   0.1762  -0.1553   0.00    0.0
2061 209156.000  -3120040.2935   4084613.8331   3764025.6944   6   7   0.1667   0.2374   0.1759  -0.1787   0.1762  -0.1552   0.00    0.0
2061 209157.000  -3120040.2883   4084613.8331   3764025.6900   6   7   0.1666   0.2373   0.1758  -0.1786   0.1761  -0.1551   0.00    0.0
2061 209158.000  -3120040.2844   4084613.8323   3764025.6824   6   7   0.1664   0.2371   0.1756  -0.1785   0.1760  -0.1550   0.00    0.0
2061 209159.000  -3120040.2780   4084613.8272   3764025.6773   6   7   0.1663   0.2370   0.1755  -0.1784   0.1759  -0.1549   0.00    0.0
2061 209160.000  -3120040.2806   4084613.8243   3764025.6771   6   7   0.1661   0.2369   0.1754  -0.1783   0.1759  -0.1548   0.00    0.0
2061 209161.000  -3120040.2817   4084613.8246   3764025.6765   6   7   0.1660   0.2367   0.1752  -0.1782   0.1758  -0.1547   0.00    0.0
2061 209162.000  -3120040.2836   4084613.8291   3764025.6727   6   7   0.1659   0.2366   0.1751  -0.1781   0.1757  -0.1546   0.00    0.0
2061 209163.000  -3120040.2841   4084613.8266   3764025.6711   6   7   0.1657   0.2365   0.1750  -0.1780   0.1757  -0.1545   0.00    0.0
2061 209164.000  -3120040.2923   4084613.8366   3764025.6756   6   7   0.1656   0.2363   0.1749  -0.1779   0.1756  -0.1544   0.00    0.0
2061 209165.000  -3120040.2931   4084613.8332   3764025.6745   6   7   0.1655   0.2362   0.1747  -0.1778   0.1755  -0.1543   0.00    0.0
2061 209166.000  -3120040.2932   4084613.8345   3764025.6745   6   7   0.1653   0.2361   0.1746  -0.1777   0.1754  -0.1542   0.00    0.0
2061 209167.000  -3120040.2911   4084613.8365   3764025.6710   6   7   0.1652   0.2359   0.1745  -0.1776   0.1754  -0.1541   0.00    0.0
2061 209168.000  -3120040.2914   4084613.8366   3764025.6674   6   7   0.1651   0.2358   0.1743  -0.1775   0.1753  -0.1540   0.00    0.0
2061 209169.000  -3120040.2925   4084613.8395   3764025.6697   6   7   0.1649   0.2357   0.1742  -0.1774   0.1752  -0.1539   0.00    0.0
2061 209170.000  -3120040.2928   4084613.8368   3764025.6700   6   7   0.1648   0.2356   0.1741  -0.1773   0.1752  -0.1538   0.00    0.0
2061 209171.000  -3120040.2915   4084613.8343   3764025.6691   6   7   0.1647   0.2354   0.1740  -0.1772   0.1751  -0.1537   0.00    0.0
2061 209172.000  -3120040.2886   4084613.8263   3764025.6667   6   7   0.1645   0.2353   0.1738  -0.1771   0.1750  -0.1536   0.00    0.0
2061 209173.000  -3120040.2884   4084613.8249   3764025.6623   6   7   0.1644   0.2352   0.1737  -0.1771   0.1749  -0.1535   0.00    0.0
2061 209174.000  -3120040.2928   4084613.8268   3764025.6603   6   7   0.1643   0.2351   0.1736  -0.1770   0.1749  -0.1534   0.00    0.0
2061 209175.000  -3120040.2955   4084613.8322   3764025.6589   6   7   0.1641   0.2349   0.1735  -0.1769   0.1748  -0.1533   0.00    0.0
2061 209176.000  -3120040.2974   4084613.8361   3764025.6561   6   7   0.1640   0.2348   0.1733  -0.1768   0.1747  -0.1532   0.00    0.0
2061 209177.000  -3120040.3048   4084613.8427   3764025.6599   6   7   0.1639   0.2347   0.1732  -0.1767   0.1747  -0.1531   0.00    0.0
2061 209178.000  -3120040.3072   4084613.8444   3764025.6637   6   7   0.1637   0.2346   0.1731  -0.1766   0.1746  -0.1530   0.00    0.0
2061 209179.000  -3120040.3061   4084613.8398   3764025.6634   6   7   0.1636   0.2344   0.1730  -0.1765   0.1745  -0.1529   0.00    0.0
2061 209180.000  -3120040.3055   4084613.8393   3764025.6620   6   7   0.1635   0.2343   0.1728  -0.1764   0.1745  -0.1528   0.00    0.0
2061 209181.000  -3120040.2999   4084613.8372   3764025.6562   6   7   0.1634   0.2342   0.1727  -0.1763   0.1744  -0.1527   0.00    0.0
2061 209182.000  -3120040.2987   4084613.8398   3764025.6555   6   7   0.1632   0.2341   0.1726  -0.1762   0.1743  -0.1527   0.00    0.0
2061 209183.000  -3120040.2981   4084613.8380   3764025.6542   6   7   0.1631   0.2339   0.1725  -0.1761   0.1743  -0.1526   0.00    0.0
2061 209184.000  -3120040.3011   4084613.8380   3764025.6568   6   7   0.1630   0.2338   0.1724  -0.1760   0.1742  -0.1525   0.00    0.0
2061 209185.000  -3120040.2987   4084613.8336   3764025.6547   6   7   0.1628   0.2337   0.1722  -0.1759   0.1741  -0.1524   0.00    0.0
2061 209186.000  -3120040.3009   4084613.8354   3764025.6567   6   7   0.1627   0.2336   0.1721  -0.1759   0.1740  -0.1523   0.00    0.0
2061 209187.000  -3120040.3021   4084613.8375   3764025.6550   6   7   0.1626   0.2334   0.1720  -0.1758   0.1740  -0.1522   0.00    0.0
2061 209188.000  -3120040.3047   4084613.8356   3764025.6531   6   7   0.1625   0.2333   0.1719  -0.1757   0.1739  -0.1521   0.00    0.0
2061 209189.000  -3120040.3056   4084613.8360   3764025.6517   6   7   0.1623   0.2332   0.1718  -0.1756   0.1738  -0.1520   0.00    0.0
2061 209190.000  -3120040.3104   4084613.8370   3764025.6549   6   7   0.1622   0.2331   0.1716  -0.1755   0.1738  -0.1519   0.00    0.0
2061 209191.000  -3120040.3130   4084613.8385   3764025.6545   6   7   0.1621   0.2330   0.1715  -0.1754   0.1737  -0.1518   0.00    0.0
2061 209192.000  -3120040.3112   4084613.8319   3764025.6539   6   7   0.1620   0.2329   0.1714  -0.1753   0.1736  -0.1517   0.00    0.0
2061 209193.000  -3120040.3116   4084613.8290   3764025.6543   6   7   0.1619   0.2327   0.1713  -0.1752   0.1736  -0.1516   0.00    0.0
2061 209194.000  -3120040.3142   4084613.8273   3764025.6577   6   7   0.1617   0.2326   0.1712  -0.1751   0.1735  -0.1515   0.00    0.0
2061 209195.000  -3120040.3169   4084613.8275   3764025.6580   6   7   0.1616   0.2325   0.1711  -0.1751   0.1734  -0.1514   0.00    0.0
2061 209196.000  -3120040.3164   4084613.8222   3764025.6595   6   7   0.1615   0.2324   0.1709  -0.1750   0.1734  -0.1514   0.00    0.0
2061 209197.000  -3120040.3142   4084613.8159   3764025.6594   6   7   0.1614   0.2323   0.1708  -0.1749   0.1733  -0.1513   0.00    0.0
2061 209198.000  -3120040.3147   4084613.8137   3764025.6603   6   7   0.1612   0.2321   0.1707  -0.1748   0.1733  -0.1512   0.00    0.0
2061 209199.000  -3120040.3208   4084613.8191   3764025.6644   6   7   0.1611   0.2320   0.1706  -0.1747   0.1732  -0.1511   0.00    0.0
2061 209200.000  -3120040.3234   4084613.8171   3764025.6682   6   7   0.1610   0.2319   0.1705  -0.1746   0.1731  -0.1510   0.00    0.0
2061 209201.000  -3120040.3263   4084613.8225   3764025.6705   6   7   0.1609   0.2318   0.1704  -0.1745   0.1731  -0.1509   0.00    0.0
2061 209202.000  -3120040.3332   4084613.8295   3764025.6782   6   7   0.1608   0.2317   0.1703  -0.1744   0.1730  -0.1508   0.00    0.0
2061 209203.000  -3120040.3379   4084613.8269   3764025.6802   6   7   0.1607   0.2316   0.1702  -0.1744   0.1729  -0.1507   0.00    0.0
2061 209204.000  -3120040.3399   4084613.8243   3764025.6840   6   7   0.1605   0.2315   0.1700  -0.1743   0.1729  -0.1506   0.00    0.0
2061 209205.000  -3120040.3422   4084613.8191   3764025.6866   6   7   0.1604   0.2313   0.1699  -0.1742   0.1728  -0.1506   0.00    0.0
2061 209206.000  -3120040.3374   4084613.8122   3764025.6861   6   7   0.1603   0.2312   0.1698  -0.1741   0.1727  -0.1505   0.00    0.0
2061 209207.000  -3120040.3401   4084613.8099   3764025.6899   6   7   0.1602   0.2311   0.1697  -0.1740   0.1727  -0.1504   0.00    0.0
2061 209208.000  -3120040.3397   4084613.8075   3764025.6884   6   7   0.1601   0.2310   0.1696  -0.1739   0.1726  -0.1503   0.00    0.0
2061 209209.000  -3120040.3390   4084613.7980   3764025.6898   6   7   0.1600   0.2309   0.1695  -0.1739   0.1725  -0.1502   0.00    0.0
2061 209210.000  -3120040.3376   4084613.7918   3764025.6870   6   7   0.1598   0.2308   0.1694  -0.1738   0.1725  -0.1501   0.00    0.0
2061 209211.000  -3120040.3429   4084613.7957   3764025.6909   6   7   0.1597   0.2307   0.1693  -0.1737   0.1724  -0.1500   0.00    0.0
2061 209212.000  -3120040.3481   4084613.7977   3764025.6958   6   7   0.1596   0.2306   0.1692  -0.1736   0.1724  -0.1500   0.00    0.0
2061 209213.000  -3120040.3524   4084613.7965   3764025.6983   6   7   0.1595   0.2304   0.1691  -0.1735   0.1723  -0.1499   0.00    0.0
2061 209214.000  -3120040.3500   4084613.7921   3764025.6944   6   7   0.1594   0.2303   0.1690  -0.1734   0.1722  -0.1498   0.00    0.0
2061 209215.000  -3120040.3514   4084613.7885   3764025.6962   6   7   0.1593   0.2302   0.1688  -0.1734   0.1722  -0.1497   0.00    0.0
2061 209216.000  -3120040.3476   4084613.7842   3764025.6938   6   7   0.1592   0.2301   0.1687  -0.1733   0.1721  -0.1496   0.00    0.0
2061 209217.000  -3120040.3460   4084613.7810   3764025.6973   6   7   0.1590   0.2300   0.1686  -0.1732   0.1720  -0.1495   0.00    0.0
2061 209218.000  -3120040.3410   4084613.7732   3764025.6935   6   7   0.1589   0.2299   0.1685  -0.1731   0.1720  -0.1495   0.00    0.0
2061 209219.000  -3120040.3415   4084613.7755   3764025.6902   6   7   0.1588   0.2298   0.1684  -0.1730   0.1719  -0.1494   0.00    0.0
2061 209220.000  -3120040.3424   4084613.7717   3764025.6904   6   7   0.1587   0.2297   0.1683  -0.1729   0.1719  -0.1493   0.00    0.0
2061 209221.000  -3120040.3481   4084613.7762   3764025.6952   6   7   0.1586   0.2296   0.1682  -0.1729   0.1718  -0.1492   0.00    0.0
2061 209222.000  -3120040.3471   4084613.7770   3764025.6933   6   7   0.1585   0.2295   0.1681  -0.1728   0.1717  -0.1491   0.00    0.0
2061 209223.000  -3120040.3471   4084613.7740   3764025.6951   6   7   0.1584   0.2294   0.1680  -0.1727   0.1717  -0.1490   0.00    0.0
2061 209224.000  -3120040.3454   4084613.7714   3764025.6955   6   7   0.1583   0.2292   0.1679  -0.1726   0.1716  -0.1490   0.00    0.0
2061 209225.000  -3120040.3393   4084613.7637   3764025.6927   6   7   0.1582   0.2291   0.1678  -0.1725   0.1715  -0.1489   0.00    0.0
