% program   : RTKLIB ver.2.4.3
% inp file  : D:\mycode\vscode\rtklib\rtklib\data\daej190k00.19n
% inp file  : D:\mycode\vscode\rtklib\rtklib\data\daej190k15.19n
% inp file  : D:\mycode\vscode\rtklib\rtklib\data\daej190k30.19n
% inp file  : D:\mycode\vscode\rtklib\rtklib\data\daej190k45.19n
% inp file  : D:\mycode\vscode\rtklib\rtklib\data\daej190k00.19o
% inp file  : D:\mycode\vscode\rtklib\rtklib\data\daej190k15.19o
% inp file  : D:\mycode\vscode\rtklib\rtklib\data\daej190k30.19o
% inp file  : D:\mycode\vscode\rtklib\rtklib\data\daej190k45.19o
% inp file  : D:\mycode\vscode\rtklib\rtklib\data\igs20612.clk
% inp file  : D:\mycode\vscode\rtklib\rtklib\data\igs20612.sp3
% inp file  : D:\mycode\vscode\rtklib\rtklib\data\igs20617.erp
% inp file  : D:\mycode\vscode\rtklib\rtklib\data\igs14.atx
% obs start : 2019/07/09 10:00:00.0 GPST (week2061 208800.0s)
% obs end   : 2019/07/09 10:59:59.0 GPST (week2061 212399.0s)
% pos mode  : PPP Static
% solution  : Forward
% elev mask : 15.0 deg
% dynamics  : off
% tidecorr  : on
% tropo opt : Estimate ZTD
% ephemeris : Precise
% navi sys  : GPS
% antenna1  :                       ( 0.0000  0.0000  0.0000)
%
% (x/y/z-ecef=WGS84,Q=1:fix,2:float,3:sbas,4:dgps,5:single,6:ppp,ns=# of satellites)
%  GPST              x-ecef(m)      y-ecef(m)      z-ecef(m)   Q  ns   sdx(m)   sdy(m)   sdz(m)  sdxy(m)  sdyz(m)  sdzx(m) age(s)  ratio
2061 208800.000  -3120040.3431   4084612.9391   3764025.0225   6   7   2.2047   2.2926   2.1955  -1.6625   1.2134  -1.7225   0.00    0.0
2061 208801.000  -3120039.9891   4084613.1796   3764025.1019   6   7   1.5632   1.6306   1.5570  -1.1835   0.8690  -1.2232   0.00    0.0
2061 208802.000  -3120039.9807   4084613.5731   3764025.2580   6   7   1.2790   1.3383   1.2743  -0.9719   0.7178  -1.0023   0.00    0.0
2061 208803.000  -3120040.2412   4084613.6883   3764025.5738   6   7   1.1098   1.1648   1.1060  -0.8464   0.6285  -0.8709   0.00    0.0
2061 208804.000  -3120040.4416   4084613.6210   3764025.7462   6   7   0.9944   1.0469   0.9913  -0.7611   0.5682  -0.7815   0.00    0.0
2061 208805.000  -3120040.2672   4084613.6699   3764025.5281   6   7   0.9094   0.9602   0.9067  -0.6985   0.5241  -0.7156   0.00    0.0
2061 208806.000  -3120040.2594   4084613.8070   3764025.6178   6   7   0.8434   0.8931   0.8411  -0.6500   0.4901  -0.6646   0.00    0.0
2061 208807.000  -3120040.3009   4084613.9586   3764025.7903   6   7   0.7903   0.8393   0.7883  -0.6111   0.4630  -0.6235   0.00    0.0
2061 208808.000  -3120040.0819   4084613.9948   3764025.6236   6   7   0.7464   0.7949   0.7446  -0.5791   0.4408  -0.5896   0.00    0.0
2061 208809.000  -3120039.9887   4084613.9368   3764025.6694   6   7   0.7093   0.7574   0.7076  -0.5521   0.4221  -0.5609   0.00    0.0
2061 208810.000  -3120040.0561   4084613.9316   3764025.6795   6   7   0.6774   0.7254   0.6759  -0.5289   0.4062  -0.5363   0.00    0.0
2061 208811.000  -3120040.1847   4084614.0674   3764025.6711   6   7   0.6496   0.6975   0.6483  -0.5088   0.3924  -0.5149   0.00    0.0
2061 208812.000  -3120040.1904   4084614.0524   3764025.6793   6   7   0.6251   0.6730   0.6239  -0.4912   0.3804  -0.4961   0.00    0.0
2061 208813.000  -3120040.2570   4084614.1234   3764025.7297   6   7   0.6033   0.6513   0.6022  -0.4755   0.3697  -0.4793   0.00    0.0
2061 208814.000  -3120040.2855   4084614.0796   3764025.7351   6   7   0.5837   0.6319   0.5828  -0.4615   0.3602  -0.4643   0.00    0.0
2061 208815.000  -3120040.3323   4084614.0547   3764025.7756   6   7   0.5661   0.6143   0.5652  -0.4489   0.3517  -0.4508   0.00    0.0
2061 208816.000  -3120040.3940   4084614.0801   3764025.8284   6   7   0.5500   0.5984   0.5492  -0.4375   0.3440  -0.4385   0.00    0.0
2061 208817.000  -3120040.4426   4084614.0418   3764025.8087   6   7   0.5353   0.5839   0.5346  -0.4270   0.3370  -0.4272   0.00    0.0
2061 208818.000  -3120040.3226   4084613.9449   3764025.6820   6   7   0.5219   0.5706   0.5212  -0.4175   0.3306  -0.4169   0.00    0.0
2061 208819.000  -3120040.3565   4084613.9760   3764025.7200   6   7   0.5094   0.5584   0.5088  -0.4086   0.3248  -0.4074   0.00    0.0
2061 208820.000  -3120040.3815   4084614.0602   3764025.7476   6   7   0.4979   0.5471   0.4974  -0.4005   0.3194  -0.3986   0.00    0.0
2061 208821.000  -3120040.4546   4084614.1773   3764025.7679   6   7   0.4871   0.5366   0.4867  -0.3930   0.3144  -0.3904   0.00    0.0
2061 208822.000  -3120040.3981   4084614.1654   3764025.6769   6   7   0.4771   0.5268   0.4768  -0.3859   0.3098  -0.3828   0.00    0.0
2061 208823.000  -3120040.3919   4084614.2090   3764025.6712   6   7   0.4678   0.5177   0.4675  -0.3794   0.3055  -0.3757   0.00    0.0
2061 208824.000  -3120040.3631   4084614.1758   3764025.6906   6   7   0.4590   0.5091   0.4588  -0.3732   0.3015  -0.3690   0.00    0.0
2061 208825.000  -3120040.2377   4084614.1321   3764025.6026   6   7   0.4507   0.5011   0.4506  -0.3675   0.2977  -0.3627   0.00    0.0
2061 208826.000  -3120040.2112   4084614.1336   3764025.5794   6   7   0.4430   0.4935   0.4428  -0.3621   0.2942  -0.3568   0.00    0.0
2061 208827.000  -3120040.1739   4084614.1480   3764025.5531   6   7   0.4356   0.4864   0.4355  -0.3570   0.2909  -0.3513   0.00    0.0
2061 208828.000  -3120040.1250   4084614.1212   3764025.5179   6   7   0.4286   0.4797   0.4286  -0.3521   0.2878  -0.3460   0.00    0.0
2061 208829.000  -3120040.0793   4084614.0739   3764025.5493   6   7   0.4220   0.4733   0.4221  -0.3476   0.2848  -0.3410   0.00    0.0
2061 208830.000  -3120040.0154   4084614.0119   3764025.5433   6   7   0.4158   0.4673   0.4159  -0.3432   0.2820  -0.3363   0.00    0.0
2061 208831.000  -3120040.0330   4084613.9875   3764025.5851   6   7   0.4098   0.4615   0.4100  -0.3391   0.2794  -0.3318   0.00    0.0
2061 208832.000  -3120040.0420   4084614.0107   3764025.6363   6   7   0.4041   0.4561   0.4043  -0.3352   0.2769  -0.3275   0.00    0.0
2061 208833.000  -3120040.0021   4084614.0307   3764025.6174   6   7   0.3987   0.4509   0.3990  -0.3315   0.2745  -0.3234   0.00    0.0
2061 208834.000  -3120039.9663   4084613.9964   3764025.6222   6   7   0.3935   0.4459   0.3938  -0.3279   0.2723  -0.3195   0.00    0.0
2061 208835.000  -3120039.9487   4084613.9858   3764025.6514   6   7   0.3885   0.4412   0.3889  -0.3245   0.2701  -0.3158   0.00    0.0
2061 208836.000  -3120039.9356   4084613.9901   3764025.6709   6   7   0.3838   0.4366   0.3842  -0.3213   0.2680  -0.3122   0.00    0.0
2061 208837.000  -3120039.9368   4084613.9577   3764025.6701   6   7   0.3792   0.4323   0.3797  -0.3182   0.2661  -0.3088   0.00    0.0
2061 208838.000  -3120039.8896   4084613.9312   3764025.6644   6   7   0.3748   0.4281   0.3754  -0.3152   0.2642  -0.3055   0.00    0.0
2061 208839.000  -3120039.8690   4084613.9045   3764025.6695   6   7   0.3706   0.4241   0.3713  -0.3123   0.2624  -0.3024   0.00    0.0
2061 208840.000  -3120039.8301   4084613.8517   3764025.6549   6   7   0.3666   0.4203   0.3673  -0.3096   0.2607  -0.2993   0.00    0.0
2061 208841.000  -3120039.8058   4084613.8588   3764025.6366   6   7   0.3627   0.4166   0.3634  -0.3069   0.2590  -0.2964   0.00    0.0
2061 208842.000  -3120039.7635   4084613.8296   3764025.5914   6   7   0.3589   0.4130   0.3597  -0.3044   0.2574  -0.2936   0.00    0.0
2061 208843.000  -3120039.7223   4084613.8179   3764025.5566   6   7   0.3553   0.4096   0.3562  -0.3019   0.2559  -0.2909   0.00    0.0
2061 208844.000  -3120039.7311   4084613.8243   3764025.5700   6   7   0.3518   0.4063   0.3528  -0.2996   0.2544  -0.2883   0.00    0.0
2061 208845.000  -3120039.7031   4084613.8191   3764025.5267   6   7   0.3484   0.4031   0.3494  -0.2973   0.2530  -0.2858   0.00    0.0
2061 208846.000  -3120039.6771   4084613.8223   3764025.4957   6   7   0.3451   0.4000   0.3462  -0.2951   0.2516  -0.2834   0.00    0.0
2061 208847.000  -3120039.7018   4084613.8561   3764025.4831   6   7   0.3420   0.3970   0.3431  -0.2930   0.2503  -0.2811   0.00    0.0
2061 208848.000  -3120039.7133   4084613.8789   3764025.4825   6   7   0.3389   0.3941   0.3401  -0.2909   0.2490  -0.2788   0.00    0.0
2061 208849.000  -3120039.7070   4084613.8657   3764025.4906   6   7   0.3360   0.3913   0.3372  -0.2889   0.2478  -0.2766   0.00    0.0
2061 208850.000  -3120039.6922   4084613.8587   3764025.4643   6   7   0.3331   0.3886   0.3344  -0.2870   0.2466  -0.2745   0.00    0.0
2061 208851.000  -3120039.6844   4084613.8501   3764025.4557   6   7   0.3303   0.3860   0.3317  -0.2851   0.2454  -0.2724   0.00    0.0
2061 208852.000  -3120039.6863   4084613.8521   3764025.4504   6   7   0.3276   0.3835   0.3291  -0.2833   0.2443  -0.2704   0.00    0.0
2061 208853.000  -3120039.6893   4084613.8590   3764025.4630   6   7   0.3250   0.3810   0.3265  -0.2816   0.2432  -0.2685   0.00    0.0
2061 208854.000  -3120039.6792   4084613.8600   3764025.4344   6   7   0.3224   0.3786   0.3240  -0.2799   0.2422  -0.2666   0.00    0.0
2061 208855.000  -3120039.6986   4084613.8683   3764025.4343   6   7   0.3199   0.3763   0.3216  -0.2782   0.2411  -0.2648   0.00    0.0
2061 208856.000  -3120039.7481   4084613.9124   3764025.4508   6   7   0.3175   0.3740   0.3192  -0.2766   0.2402  -0.2630   0.00    0.0
2061 208857.000  -3120039.7508   4084613.9135   3764025.4601   6   7   0.3152   0.3718   0.3169  -0.2750   0.2392  -0.2613   0.00    0.0
2061 208858.000  -3120039.7849   4084613.9307   3764025.4426   6   7   0.3129   0.3697   0.3147  -0.2735   0.2383  -0.2596   0.00    0.0
2061 208859.000  -3120039.7988   4084613.9364   3764025.4510   6   7   0.3107   0.3676   0.3126  -0.2720   0.2373  -0.2580   0.00    0.0
2061 208860.000  -3120039.7984   4084613.9278   3764025.4405   6   7   0.3085   0.3656   0.3105  -0.2706   0.2365  -0.2564   0.00    0.0
2061 208861.000  -3120039.8055   4084613.8988   3764025.4563   6   7   0.3064   0.3636   0.3084  -0.2692   0.2356  -0.2549   0.00    0.0
2061 208862.000  -3120039.8253   4084613.8920   3764025.4594   6   7   0.3043   0.3617   0.3064  -0.2678   0.2347  -0.2534   0.00    0.0
2061 208863.000  -3120039.8510   4084613.9098   3764025.4486   6   7   0.3023   0.3598   0.3044  -0.2665   0.2339  -0.2519   0.00    0.0
2061 208864.000  -3120039.8474   4084613.8898   3764025.4262   6   7   0.3003   0.3580   0.3025  -0.2652   0.2331  -0.2505   0.00    0.0
2061 208865.000  -3120039.8588   4084613.8992   3764025.4466   6   7   0.2984   0.3562   0.3007  -0.2639   0.2323  -0.2491   0.00    0.0
2061 208866.000  -3120039.8790   4084613.9331   3764025.4697   6   7   0.2966   0.3544   0.2989  -0.2626   0.2316  -0.2477   0.00    0.0
2061 208867.000  -3120039.8980   4084613.9438   3764025.4839   6   7   0.2947   0.3527   0.2971  -0.2614   0.2308  -0.2464   0.00    0.0
2061 208868.000  -3120039.9045   4084613.9423   3764025.4985   6   7   0.2929   0.3510   0.2954  -0.2602   0.2301  -0.2451   0.00    0.0
2061 208869.000  -3120039.8890   4084613.9375   3764025.4796   6   7   0.2912   0.3494   0.2937  -0.2591   0.2294  -0.2438   0.00    0.0
2061 208870.000  -3120039.9017   4084613.9329   3764025.4947   6   7   0.2895   0.3478   0.2920  -0.2580   0.2287  -0.2425   0.00    0.0
2061 208871.000  -3120039.8981   4084613.9193   3764025.4925   6   7   0.2878   0.3463   0.2904  -0.2568   0.2280  -0.2413   0.00    0.0
2061 208872.000  -3120039.8824   4084613.9362   3764025.4748   6   7   0.2862   0.3447   0.2889  -0.2558   0.2274  -0.2401   0.00    0.0
2061 208873.000  -3120039.8690   4084613.9496   3764025.4648   6   7   0.2846   0.3432   0.2873  -0.2547   0.2267  -0.2390   0.00    0.0
2061 208874.000  -3120039.8934   4084613.9681   3764025.4831   6   7   0.2830   0.3418   0.2858  -0.2537   0.2261  -0.2378   0.00    0.0
2061 208875.000  -3120039.8983   4084613.9564   3764025.4982   6   7   0.2815   0.3403   0.2843  -0.2526   0.2254  -0.2367   0.00    0.0
2061 208876.000  -3120039.9029   4084613.9534   3764025.4866   6   7   0.2800   0.3389   0.2829  -0.2516   0.2248  -0.2356   0.00    0.0
2061 208877.000  -3120039.8859   4084613.9368   3764025.4814   6   7   0.2785   0.3376   0.2815  -0.2507   0.2242  -0.2346   0.00    0.0
2061 208878.000  -3120039.9065   4084613.9688   3764025.4890   6   7   0.2770   0.3362   0.2801  -0.2497   0.2236  -0.2335   0.00    0.0
2061 208879.000  -3120039.9051   4084613.9525   3764025.4673   6   7   0.2756   0.3349   0.2787  -0.2488   0.2231  -0.2325   0.00    0.0
2061 208880.000  -3120039.9125   4084613.9431   3764025.4614   6   7   0.2742   0.3336   0.2774  -0.2478   0.2225  -0.2315   0.00    0.0
2061 208881.000  -3120039.9105   4084613.9463   3764025.4529   6   7   0.2729   0.3323   0.2761  -0.2469   0.2219  -0.2305   0.00    0.0
2061 208882.000  -3120039.9155   4084613.9503   3764025.4540   6   7   0.2715   0.3311   0.2748  -0.2461   0.2214  -0.2295   0.00    0.0
2061 208883.000  -3120039.9316   4084613.9542   3764025.4522   6   7   0.2702   0.3299   0.2735  -0.2452   0.2208  -0.2286   0.00    0.0
2061 208884.000  -3120039.9487   4084613.9492   3764025.4549   6   7   0.2689   0.3286   0.2723  -0.2443   0.2203  -0.2277   0.00    0.0
2061 208885.000  -3120039.9546   4084613.9419   3764025.4475   6   7   0.2677   0.3275   0.2711  -0.2435   0.2198  -0.2267   0.00    0.0
2061 208886.000  -3120039.9786   4084613.9397   3764025.4564   6   7   0.2664   0.3263   0.2699  -0.2427   0.2193  -0.2259   0.00    0.0
2061 208887.000  -3120039.9963   4084613.9489   3764025.4645   6   7   0.2652   0.3252   0.2687  -0.2419   0.2188  -0.2250   0.00    0.0
2061 208888.000  -3120040.0017   4084613.9435   3764025.4638   6   7   0.2640   0.3240   0.2676  -0.2411   0.2183  -0.2241   0.00    0.0
2061 208889.000  -3120040.0178   4084613.9291   3764025.4825   6   7   0.2628   0.3229   0.2665  -0.2403   0.2178  -0.2233   0.00    0.0
2061 208890.000  -3120040.0259   4084613.9180   3764025.4726   6   7   0.2617   0.3219   0.2653  -0.2395   0.2173  -0.2224   0.00    0.0
2061 208891.000  -3120040.0467   4084613.9183   3764025.4847   6   7   0.2605   0.3208   0.2643  -0.2387   0.2169  -0.2216   0.00    0.0
2061 208892.000  -3120040.0622   4084613.9272   3764025.4838   6   7   0.2594   0.3197   0.2632  -0.2380   0.2164  -0.2208   0.00    0.0
2061 208893.000  -3120040.0796   4084613.9301   3764025.4904   6   7   0.2583   0.3187   0.2621  -0.2373   0.2159  -0.2200   0.00    0.0
2061 208894.000  -3120040.0945   4084613.9162   3764025.4793   6   7   0.2572   0.3177   0.2611  -0.2365   0.2155  -0.2192   0.00    0.0
2061 208895.000  -3120040.0949   4084613.9147   3764025.4786   6   7   0.2561   0.3167   0.2601  -0.2358   0.2150  -0.2185   0.00    0.0
2061 208896.000  -3120040.0937   4084613.9053   3764025.4822   6   7   0.2551   0.3157   0.2591  -0.2351   0.2146  -0.2177   0.00    0.0
2061 208897.000  -3120040.1164   4084613.9209   3764025.4968   6   7   0.2541   0.3147   0.2581  -0.2345   0.2142  -0.2170   0.00    0.0
2061 208898.000  -3120040.1162   4084613.9193   3764025.4960   6   7   0.2530   0.3138   0.2571  -0.2338   0.2138  -0.2162   0.00    0.0
2061 208899.000  -3120040.1316   4084613.9257   3764025.5075   6   7   0.2520   0.3128   0.2562  -0.2331   0.2133  -0.2155   0.00    0.0
2061 208900.000  -3120040.1381   4084613.9183   3764025.5120   6   7   0.2510   0.3119   0.2553  -0.2324   0.2129  -0.2148   0.00    0.0
2061 208901.000  -3120040.1601   4084613.9357   3764025.5386   6   7   0.2501   0.3110   0.2543  -0.2318   0.2125  -0.2141   0.00    0.0
2061 208902.000  -3120040.1734   4084613.9460   3764025.5534   6   7   0.2491   0.3101   0.2534  -0.2312   0.2121  -0.2134   0.00    0.0
2061 208903.000  -3120040.1905   4084613.9624   3764025.5596   6   7   0.2482   0.3092   0.2525  -0.2305   0.2117  -0.2127   0.00    0.0
2061 208904.000  -3120040.2063   4084613.9738   3764025.5669   6   7   0.2472   0.3084   0.2516  -0.2299   0.2113  -0.2121   0.00    0.0
2061 208905.000  -3120040.2309   4084613.9974   3764025.5717   6   7   0.2463   0.3075   0.2508  -0.2293   0.2109  -0.2114   0.00    0.0
2061 208906.000  -3120040.2584   4084614.0113   3764025.5993   6   7   0.2454   0.3066   0.2499  -0.2287   0.2106  -0.2108   0.00    0.0
2061 208907.000  -3120040.2770   4084614.0175   3764025.6099   6   7   0.2445   0.3058   0.2491  -0.2281   0.2102  -0.2101   0.00    0.0
2061 208908.000  -3120040.2941   4084614.0271   3764025.6107   6   7   0.2437   0.3050   0.2482  -0.2275   0.2098  -0.2095   0.00    0.0
2061 208909.000  -3120040.2950   4084614.0231   3764025.5879   6   7   0.2428   0.3042   0.2474  -0.2269   0.2094  -0.2089   0.00    0.0
2061 208910.000  -3120040.2982   4084614.0211   3764025.5816   6   7   0.2419   0.3034   0.2466  -0.2264   0.2091  -0.2083   0.00    0.0
2061 208911.000  -3120040.2942   4084614.0175   3764025.5711   6   7   0.2411   0.3026   0.2458  -0.2258   0.2087  -0.2077   0.00    0.0
2061 208912.000  -3120040.2852   4084614.0139   3764025.5560   6   7   0.2403   0.3018   0.2450  -0.2252   0.2084  -0.2071   0.00    0.0
2061 208913.000  -3120040.2893   4084614.0229   3764025.5556   6   7   0.2395   0.3010   0.2443  -0.2247   0.2080  -0.2065   0.00    0.0
2061 208914.000  -3120040.2923   4084614.0239   3764025.5568   6   7   0.2386   0.3002   0.2435  -0.2241   0.2077  -0.2059   0.00    0.0
2061 208915.000  -3120040.2877   4084614.0268   3764025.5482   6   7   0.2378   0.2995   0.2428  -0.2236   0.2073  -0.2053   0.00    0.0
2061 208916.000  -3120040.2879   4084614.0179   3764025.5405   6   7   0.2371   0.2987   0.2420  -0.2231   0.2070  -0.2048   0.00    0.0
2061 208917.000  -3120040.3014   4084614.0125   3764025.5392   6   7   0.2363   0.2980   0.2413  -0.2226   0.2067  -0.2042   0.00    0.0
2061 208918.000  -3120040.2893   4084614.0037   3764025.5244   6   7   0.2355   0.2973   0.2406  -0.2220   0.2063  -0.2037   0.00    0.0
2061 208919.000  -3120040.2902   4084614.0095   3764025.5264   6   7   0.2348   0.2966   0.2398  -0.2215   0.2060  -0.2031   0.00    0.0
2061 208920.000  -3120040.2971   4084614.0204   3764025.5276   6   7   0.2340   0.2959   0.2391  -0.2210   0.2057  -0.2026   0.00    0.0
2061 208921.000  -3120040.2934   4084614.0073   3764025.5233   6   7   0.2333   0.2952   0.2384  -0.2205   0.2054  -0.2020   0.00    0.0
2061 208922.000  -3120040.2783   4084614.0073   3764025.5062   6   7   0.2325   0.2945   0.2378  -0.2200   0.2050  -0.2015   0.00    0.0
2061 208923.000  -3120040.2804   4084613.9992   3764025.5047   6   7   0.2318   0.2938   0.2371  -0.2195   0.2047  -0.2010   0.00    0.0
2061 208924.000  -3120040.2833   4084614.0007   3764025.5064   6   7   0.2311   0.2931   0.2364  -0.2191   0.2044  -0.2005   0.00    0.0
2061 208925.000  -3120040.2773   4084613.9845   3764025.5031   6   7   0.2304   0.2924   0.2357  -0.2186   0.2041  -0.2000   0.00    0.0
2061 208926.000  -3120040.2794   4084613.9700   3764025.5023   6   7   0.2297   0.2918   0.2351  -0.2181   0.2038  -0.1995   0.00    0.0
2061 208927.000  -3120040.2878   4084613.9635   3764025.5103   6   7   0.2290   0.2911   0.2344  -0.2176   0.2035  -0.1990   0.00    0.0
2061 208928.000  -3120040.2871   4084613.9577   3764025.5117   6   7   0.2283   0.2905   0.2338  -0.2172   0.2032  -0.1985   0.00    0.0
2061 208929.000  -3120040.2798   4084613.9556   3764025.5051   6   7   0.2277   0.2898   0.2332  -0.2167   0.2029  -0.1980   0.00    0.0
2061 208930.000  -3120040.2888   4084613.9589   3764025.5137   6   7   0.2270   0.2892   0.2326  -0.2163   0.2026  -0.1976   0.00    0.0
2061 208931.000  -3120040.2872   4084613.9511   3764025.5168   6   7   0.2264   0.2886   0.2319  -0.2158   0.2023  -0.1971   0.00    0.0
2061 208932.000  -3120040.2825   4084613.9489   3764025.5120   6   7   0.2257   0.2879   0.2313  -0.2154   0.2020  -0.1966   0.00    0.0
2061 208933.000  -3120040.2912   4084613.9553   3764025.5103   6   7   0.2251   0.2873   0.2307  -0.2150   0.2017  -0.1962   0.00    0.0
2061 208934.000  -3120040.3076   4084613.9729   3764025.5202   6   7   0.2244   0.2867   0.2301  -0.2145   0.2015  -0.1957   0.00    0.0
2061 208935.000  -3120040.3153   4084613.9842   3764025.5196   6   7   0.2238   0.2861   0.2296  -0.2141   0.2012  -0.1953   0.00    0.0
2061 208936.000  -3120040.3135   4084613.9811   3764025.5193   6   7   0.2232   0.2855   0.2290  -0.2137   0.2009  -0.1948   0.00    0.0
2061 208937.000  -3120040.3185   4084613.9874   3764025.5221   6   7   0.2226   0.2849   0.2284  -0.2132   0.2006  -0.1944   0.00    0.0
2061 208938.000  -3120040.3291   4084614.0011   3764025.5364   6   7   0.2220   0.2844   0.2278  -0.2128   0.2003  -0.1939   0.00    0.0
2061 208939.000  -3120040.3404   4084614.0051   3764025.5435   6   7   0.2214   0.2838   0.2273  -0.2124   0.2001  -0.1935   0.00    0.0
2061 208940.000  -3120040.3391   4084614.0074   3764025.5461   6   7   0.2208   0.2832   0.2267  -0.2120   0.1998  -0.1931   0.00    0.0
2061 208941.000  -3120040.3427   4084614.0103   3764025.5490   6   7   0.2202   0.2826   0.2262  -0.2116   0.1995  -0.1927   0.00    0.0
2061 208942.000  -3120040.3488   4084614.0093   3764025.5657   6   7   0.2196   0.2821   0.2256  -0.2112   0.1993  -0.1922   0.00    0.0
2061 208943.000  -3120040.3464   4084614.0158   3764025.5819   6   7   0.2190   0.2815   0.2251  -0.2108   0.1990  -0.1918   0.00    0.0
2061 208944.000  -3120040.3463   4084614.0208   3764025.5826   6   7   0.2185   0.2810   0.2245  -0.2104   0.1987  -0.1914   0.00    0.0
2061 208945.000  -3120040.3383   4084614.0130   3764025.5838   6   7   0.2179   0.2804   0.2240  -0.2100   0.1985  -0.1910   0.00    0.0
2061 208946.000  -3120040.3355   4084614.0093   3764025.5882   6   7   0.2173   0.2799   0.2235  -0.2096   0.1982  -0.1906   0.00    0.0
2061 208947.000  -3120040.3348   4084614.0117   3764025.5874   6   7   0.2168   0.2794   0.2230  -0.2093   0.1980  -0.1902   0.00    0.0
2061 208948.000  -3120040.3475   4084614.0116   3764025.6045   6   7   0.2162   0.2788   0.2225  -0.2089   0.1977  -0.1898   0.00    0.0
2061 208949.000  -3120040.3489   4084614.0119   3764025.6217   6   7   0.2157   0.2783   0.2220  -0.2085   0.1975  -0.1894   0.00    0.0
2061 208950.000  -3120040.3500   4084614.0119   3764025.6238   6   7   0.2152   0.2778   0.2215  -0.2081   0.1972  -0.1891   0.00    0.0
2061 208951.000  -3120040.3549   4084614.0242   3764025.6240   6   7   0.2146   0.2773   0.2210  -0.2078   0.1970  -0.1887   0.00    0.0
2061 208952.000  -3120040.3566   4084614.0245   3764025.6353   6   7   0.2141   0.2768   0.2205  -0.2074   0.1967  -0.1883   0.00    0.0
2061 208953.000  -3120040.3565   4084614.0331   3764025.6468   6   7   0.2136   0.2762   0.2200  -0.2070   0.1965  -0.1879   0.00    0.0
2061 208954.000  -3120040.3564   4084614.0427   3764025.6533   6   7   0.2131   0.2757   0.2195  -0.2067   0.1962  -0.1875   0.00    0.0
2061 208955.000  -3120040.3534   4084614.0372   3764025.6550   6   7   0.2126   0.2752   0.2190  -0.2063   0.1960  -0.1872   0.00    0.0
2061 208956.000  -3120040.3433   4084614.0317   3764025.6426   6   7   0.2120   0.2747   0.2185  -0.2059   0.1957  -0.1868   0.00    0.0
2061 208957.000  -3120040.3430   4084614.0334   3764025.6449   6   7   0.2115   0.2742   0.2180  -0.2056   0.1955  -0.1864   0.00    0.0
2061 208958.000  -3120040.3381   4084614.0345   3764025.6534   6   7   0.2110   0.2737   0.2176  -0.2052   0.1952  -0.1860   0.00    0.0
2061 208959.000  -3120040.3398   4084614.0371   3764025.6693   6   7   0.2105   0.2732   0.2171  -0.2049   0.1950  -0.1857   0.00    0.0
2061 208960.000  -3120040.3466   4084614.0476   3764025.6794   6   7   0.2100   0.2727   0.2166  -0.2045   0.1948  -0.1853   0.00    0.0
2061 208961.000  -3120040.3548   4084614.0558   3764025.6860   6   7   0.2095   0.2722   0.2162  -0.2041   0.1945  -0.1850   0.00    0.0
2061 208962.000  -3120040.3578   4084614.0590   3764025.6919   6   7   0.2090   0.2717   0.2157  -0.2038   0.1943  -0.1846   0.00    0.0
2061 208963.000  -3120040.3608   4084614.0672   3764025.7044   6   7   0.2085   0.2712   0.2152  -0.2034   0.1940  -0.1842   0.00    0.0
2061 208964.000  -3120040.3644   4084614.0712   3764025.7131   6   7   0.2080   0.2707   0.2148  -0.2031   0.1938  -0.1839   0.00    0.0
2061 208965.000  -3120040.3623   4084614.0686   3764025.7190   6   7   0.2075   0.2702   0.2143  -0.2027   0.1935  -0.1835   0.00    0.0
2061 208966.000  -3120040.3609   4084614.0718   3764025.7251   6   7   0.2071   0.2697   0.2139  -0.2024   0.1933  -0.1832   0.00    0.0
2061 208967.000  -3120040.3700   4084614.0847   3764025.7380   6   7   0.2066   0.2692   0.2134  -0.2020   0.1931  -0.1828   0.00    0.0
2061 208968.000  -3120040.3708   4084614.0915   3764025.7423   6   7   0.2061   0.2688   0.2129  -0.2017   0.1928  -0.1824   0.00    0.0
2061 208969.000  -3120040.3764   4084614.0984   3764025.7593   6   7   0.2056   0.2683   0.2125  -0.2013   0.1926  -0.1821   0.00    0.0
2061 208970.000  -3120040.3778   4084614.1020   3764025.7653   6   7   0.2051   0.2678   0.2120  -0.2009   0.1923  -0.1817   0.00    0.0
2061 208971.000  -3120040.3861   4084614.1117   3764025.7807   6   7   0.2047   0.2673   0.2116  -0.2006   0.1921  -0.1814   0.00    0.0
2061 208972.000  -3120040.3836   4084614.1132   3764025.7805   6   7   0.2042   0.2668   0.2112  -0.2002   0.1919  -0.1810   0.00    0.0
2061 208973.000  -3120040.3967   4084614.1205   3764025.7950   6   7   0.2037   0.2663   0.2107  -0.1999   0.1916  -0.1807   0.00    0.0
2061 208974.000  -3120040.3981   4084614.1220   3764025.7926   6   7   0.2032   0.2658   0.2103  -0.1995   0.1914  -0.1803   0.00    0.0
2061 208975.000  -3120040.3939   4084614.1169   3764025.7820   6   7   0.2028   0.2653   0.2098  -0.1992   0.1911  -0.1800   0.00    0.0
2061 208976.000  -3120040.3929   4084614.1186   3764025.7898   6   7   0.2023   0.2648   0.2094  -0.1988   0.1909  -0.1796   0.00    0.0
2061 208977.000  -3120040.3985   4084614.1209   3764025.7974   6   7   0.2019   0.2643   0.2090  -0.1985   0.1906  -0.1793   0.00    0.0
2061 208978.000  -3120040.4121   4084614.1370   3764025.7999   6   7   0.2014   0.2638   0.2085  -0.1981   0.1904  -0.1789   0.00    0.0
2061 208979.000  -3120040.4168   4084614.1396   3764025.8092   6   7   0.2009   0.2633   0.2081  -0.1978   0.1901  -0.1786   0.00    0.0
2061 208980.000  -3120040.4153   4084614.1360   3764025.8058   6   7   0.2005   0.2629   0.2076  -0.1974   0.1899  -0.1783   0.00    0.0
2061 208981.000  -3120040.4158   4084614.1383   3764025.8085   6   7   0.2000   0.2624   0.2072  -0.1970   0.1896  -0.1779   0.00    0.0
2061 208982.000  -3120040.4136   4084614.1338   3764025.8113   6   7   0.1995   0.2619   0.2068  -0.1967   0.1894  -0.1776   0.00    0.0
2061 208983.000  -3120040.4164   4084614.1355   3764025.8061   6   7   0.1991   0.2614   0.2063  -0.1963   0.1891  -0.1772   0.00    0.0
2061 208984.000  -3120040.4264   4084614.1465   3764025.8167   6   7   0.1986   0.2609   0.2059  -0.1960   0.1889  -0.1769   0.00    0.0
2061 208985.000  -3120040.4223   4084614.1478   3764025.8127   6   7   0.1982   0.2604   0.2055  -0.1956   0.1886  -0.1765   0.00    0.0
2061 208986.000  -3120040.4226   4084614.1499   3764025.8156   6   7   0.1977   0.2599   0.2051  -0.1952   0.1884  -0.1762   0.00    0.0
2061 208987.000  -3120040.4243   4084614.1491   3764025.8239   6   7   0.1973   0.2594   0.2046  -0.1949   0.1881  -0.1758   0.00    0.0
2061 208988.000  -3120040.4293   4084614.1531   3764025.8255   6   7   0.1968   0.2589   0.2042  -0.1945   0.1879  -0.1755   0.00    0.0
2061 208989.000  -3120040.4320   4084614.1522   3764025.8236   6   7   0.1964   0.2584   0.2038  -0.1942   0.1876  -0.1751   0.00    0.0
2061 208990.000  -3120040.4406   4084614.1588   3764025.8295   6   7   0.1959   0.2579   0.2033  -0.1938   0.1874  -0.1748   0.00    0.0
2061 208991.000  -3120040.4467   4084614.1630   3764025.8319   6   7   0.1955   0.2574   0.2029  -0.1934   0.1871  -0.1744   0.00    0.0
2061 208992.000  -3120040.4538   4084614.1677   3764025.8393   6   7   0.1950   0.2568   0.2025  -0.1931   0.1868  -0.1741   0.00    0.0
2061 208993.000  -3120040.4683   4084614.1749   3764025.8483   6   7   0.1946   0.2563   0.2021  -0.1927   0.1866  -0.1737   0.00    0.0
2061 208994.000  -3120040.4848   4084614.1812   3764025.8578   6   7   0.1941   0.2558   0.2016  -0.1923   0.1863  -0.1734   0.00    0.0
2061 208995.000  -3120040.4970   4084614.1812   3764025.8655   6   7   0.1937   0.2553   0.2012  -0.1919   0.1860  -0.1731   0.00    0.0
2061 208996.000  -3120040.5152   4084614.1864   3764025.8680   6   7   0.1932   0.2548   0.2008  -0.1916   0.1858  -0.1727   0.00    0.0
2061 208997.000  -3120040.5166   4084614.1832   3764025.8676   6   7   0.1928   0.2543   0.2003  -0.1912   0.1855  -0.1723   0.00    0.0
2061 208998.000  -3120040.5217   4084614.1807   3764025.8654   6   7   0.1923   0.2537   0.1999  -0.1908   0.1852  -0.1720   0.00    0.0
2061 208999.000  -3120040.5251   4084614.1828   3764025.8704   6   7   0.1919   0.2532   0.1995  -0.1904   0.1850  -0.1716   0.00    0.0
2061 209000.000  -3120040.5277   4084614.1745   3764025.8742   6   7   0.1914   0.2527   0.1991  -0.1900   0.1847  -0.1713   0.00    0.0
2061 209001.000  -3120040.5370   4084614.1740   3764025.8785   6   7   0.1909   0.2522   0.1986  -0.1896   0.1844  -0.1709   0.00    0.0
2061 209002.000  -3120040.5449   4084614.1763   3764025.8839   6   7   0.1905   0.2516   0.1982  -0.1893   0.1841  -0.1706   0.00    0.0
2061 209003.000  -3120040.5428   4084614.1735   3764025.8838   6   7   0.1900   0.2511   0.1978  -0.1889   0.1838  -0.1702   0.00    0.0
2061 209004.000  -3120040.5422   4084614.1727   3764025.8830   6   7   0.1896   0.2506   0.1973  -0.1885   0.1836  -0.1699   0.00    0.0
2061 209005.000  -3120040.5485   4084614.1837   3764025.8889   6   7   0.1891   0.2500   0.1969  -0.1881   0.1833  -0.1695   0.00    0.0
2061 209006.000  -3120040.5507   4084614.1867   3764025.8899   6   7   0.1887   0.2495   0.1965  -0.1877   0.1830  -0.1691   0.00    0.0
2061 209007.000  -3120040.5560   4084614.1851   3764025.8957   6   7   0.1882   0.2489   0.1960  -0.1873   0.1827  -0.1688   0.00    0.0
2061 209008.000  -3120040.5580   4084614.1848   3764025.9024   6   7   0.1878   0.2484   0.1956  -0.1869   0.1824  -0.1684   0.00    0.0
2061 209009.000  -3120040.5564   4084614.1924   3764025.9083   6   7   0.1873   0.2478   0.1951  -0.1864   0.1821  -0.1680   0.00    0.0
2061 209010.000  -3120040.5627   4084614.1945   3764025.9134   6   7   0.1868   0.2472   0.1947  -0.1860   0.1818  -0.1677   0.00    0.0
2061 209011.000  -3120040.5645   4084614.1973   3764025.9196   6   7   0.1864   0.2467   0.1943  -0.1856   0.1815  -0.1673   0.00    0.0
2061 209012.000  -3120040.5680   4084614.1983   3764025.9220   6   7   0.1859   0.2461   0.1938  -0.1852   0.1812  -0.1669   0.00    0.0
2061 209013.000  -3120040.5817   4084614.2054   3764025.9319   6   7   0.1854   0.2455   0.1934  -0.1848   0.1809  -0.1665   0.00    0.0
2061 209014.000  -3120040.5839   4084614.2014   3764025.9382   6   7   0.1850   0.2449   0.1929  -0.1843   0.1805  -0.1662   0.00    0.0
2061 209015.000  -3120040.5837   4084614.1987   3764025.9433   6   7   0.1845   0.2444   0.1925  -0.1839   0.1802  -0.1658   0.00    0.0
2061 209016.000  -3120040.5865   4084614.2009   3764025.9491   6   7   0.1840   0.2438   0.1920  -0.1835   0.1799  -0.1654   0.00    0.0
2061 209017.000  -3120040.5827   4084614.1935   3764025.9466   6   7   0.1836   0.2432   0.1916  -0.1830   0.1796  -0.1650   0.00    0.0
2061 209018.000  -3120040.5887   4084614.1922   3764025.9556   6   7   0.1831   0.2426   0.1911  -0.1826   0.1792  -0.1646   0.00    0.0
2061 209019.000  -3120040.5957   4084614.1992   3764025.9644   6   7   0.1826   0.2420   0.1906  -0.1822   0.1789  -0.1642   0.00    0.0
2061 209020.000  -3120040.5999   4084614.2014   3764025.9661   6   7   0.1821   0.2414   0.1902  -0.1817   0.1786  -0.1638   0.00    0.0
2061 209021.000  -3120040.6064   4084614.2035   3764025.9733   6   7   0.1817   0.2407   0.1897  -0.1812   0.1782  -0.1634   0.00    0.0
2061 209022.000  -3120040.6118   4084614.2049   3764025.9732   6   7   0.1812   0.2401   0.1893  -0.1808   0.1779  -0.1630   0.00    0.0
2061 209023.000  -3120040.6198   4084614.2050   3764025.9776   6   7   0.1807   0.2395   0.1888  -0.1803   0.1775  -0.1626   0.00    0.0
2061 209024.000  -3120040.6260   4084614.2060   3764025.9874   6   7   0.1802   0.2389   0.1883  -0.1799   0.1772  -0.1622   0.00    0.0
2061 209025.000  -3120040.6339   4084614.2107   3764025.9974   6   7   0.1797   0.2382   0.1878  -0.1794   0.1768  -0.1618   0.00    0.0
2061 209026.000  -3120040.6395   4084614.2114   3764026.0108   6   7   0.1792   0.2376   0.1873  -0.1789   0.1764  -0.1614   0.00    0.0
2061 209027.000  -3120040.6459   4084614.2078   3764026.0170   6   7   0.1787   0.2369   0.1869  -0.1784   0.1761  -0.1609   0.00    0.0
2061 209028.000  -3120040.6518   4084614.2078   3764026.0185   6   7   0.1782   0.2363   0.1864  -0.1779   0.1757  -0.1605   0.00    0.0
2061 209029.000  -3120040.6574   4084614.2110   3764026.0246   6   7   0.1777   0.2356   0.1859  -0.1774   0.1753  -0.1601   0.00    0.0
2061 209030.000  -3120040.6643   4084614.2163   3764026.0312   6   7   0.1772   0.2350   0.1854  -0.1769   0.1749  -0.1597   0.00    0.0
2061 209031.000  -3120040.6753   4084614.2304   3764026.0421   6   7   0.1767   0.2343   0.1849  -0.1764   0.1746  -0.1592   0.00    0.0
2061 209032.000  -3120040.6819   4084614.2337   3764026.0504   6   7   0.1762   0.2336   0.1844  -0.1759   0.1742  -0.1588   0.00    0.0
2061 209033.000  -3120040.6883   4084614.2378   3764026.0576   6   7   0.1757   0.2329   0.1839  -0.1754   0.1738  -0.1583   0.00    0.0
2061 209034.000  -3120040.6997   4084614.2504   3764026.0715   6   7   0.1751   0.2322   0.1834  -0.1749   0.1734  -0.1579   0.00    0.0
2061 209035.000  -3120040.7102   4084614.2605   3764026.0805   6   7   0.1746   0.2315   0.1828  -0.1744   0.1730  -0.1574   0.00    0.0
2061 209036.000  -3120040.7169   4084614.2730   3764026.0839   6   7   0.1741   0.2308   0.1823  -0.1738   0.1725  -0.1570   0.00    0.0
2061 209037.000  -3120040.7181   4084614.2799   3764026.0857   6   7   0.1736   0.2301   0.1818  -0.1733   0.1721  -0.1565   0.00    0.0
2061 209038.000  -3120040.7222   4084614.2836   3764026.0911   6   7   0.1730   0.2294   0.1812  -0.1727   0.1717  -0.1560   0.00    0.0
2061 209039.000  -3120040.7239   4084614.2839   3764026.0937   6   7   0.1725   0.2286   0.1807  -0.1722   0.1713  -0.1555   0.00    0.0
2061 209040.000  -3120040.7295   4084614.2862   3764026.0990   6   7   0.1719   0.2279   0.1802  -0.1716   0.1708  -0.1551   0.00    0.0
2061 209041.000  -3120040.7408   4084614.2951   3764026.1047   6   7   0.1714   0.2271   0.1796  -0.1711   0.1704  -0.1546   0.00    0.0
2061 209042.000  -3120040.7407   4084614.2903   3764026.1000   6   7   0.1708   0.2264   0.1791  -0.1705   0.1699  -0.1541   0.00    0.0
2061 209043.000  -3120040.7402   4084614.2876   3764026.1010   6   7   0.1703   0.2256   0.1785  -0.1699   0.1695  -0.1536   0.00    0.0
2061 209044.000  -3120040.7414   4084614.2882   3764026.1028   6   7   0.1697   0.2248   0.1779  -0.1693   0.1690  -0.1531   0.00    0.0
2061 209045.000  -3120040.7375   4084614.2893   3764026.1016   6   7   0.1691   0.2241   0.1773  -0.1687   0.1685  -0.1525   0.00    0.0
2061 209046.000  -3120040.7358   4084614.2899   3764026.1050   6   7   0.1685   0.2233   0.1768  -0.1681   0.1680  -0.1520   0.00    0.0
2061 209047.000  -3120040.7355   4084614.2905   3764026.1084   6   7   0.1680   0.2225   0.1762  -0.1675   0.1675  -0.1515   0.00    0.0
2061 209048.000  -3120040.7381   4084614.2879   3764026.1134   6   7   0.1674   0.2217   0.1756  -0.1669   0.1670  -0.1510   0.00    0.0
2061 209049.000  -3120040.7365   4084614.2834   3764026.1162   6   7   0.1668   0.2209   0.1750  -0.1663   0.1665  -0.1504   0.00    0.0
2061 209050.000  -3120040.7376   4084614.2877   3764026.1227   6   7   0.1662   0.2200   0.1744  -0.1657   0.1660  -0.1499   0.00    0.0
2061 209051.000  -3120040.7399   4084614.2883   3764026.1277   6   7   0.1656   0.2192   0.1737  -0.1650   0.1655  -0.1493   0.00    0.0
2061 209052.000  -3120040.7408   4084614.2931   3764026.1311   6   7   0.1650   0.2184   0.1731  -0.1644   0.1650  -0.1488   0.00    0.0
2061 209053.000  -3120040.7421   4084614.2970   3764026.1346   6   7   0.1644   0.2175   0.1725  -0.1637   0.1645  -0.1482   0.00    0.0
2061 209054.000  -3120040.7414   4084614.2930   3764026.1363   6   7   0.1637   0.2167   0.1718  -0.1631   0.1639  -0.1476   0.00    0.0
2061 209055.000  -3120040.7424   4084614.2884   3764026.1404   6   7   0.1631   0.2158   0.1712  -0.1624   0.1634  -0.1470   0.00    0.0
2061 209056.000  -3120040.7471   4084614.2878   3764026.1499   6   7   0.1625   0.2149   0.1705  -0.1617   0.1628  -0.1464   0.00    0.0
2061 209057.000  -3120040.7486   4084614.2904   3764026.1568   6   7   0.1618   0.2140   0.1699  -0.1610   0.1622  -0.1458   0.00    0.0
2061 209058.000  -3120040.7500   4084614.2922   3764026.1636   6   7   0.1612   0.2131   0.1692  -0.1603   0.1617  -0.1452   0.00    0.0
2061 209059.000  -3120040.7525   4084614.2872   3764026.1700   6   7   0.1605   0.2122   0.1685  -0.1596   0.1611  -0.1446   0.00    0.0
2061 209060.000  -3120040.7496   4084614.2854   3764026.1706   6   7   0.1599   0.2113   0.1678  -0.1589   0.1605  -0.1440   0.00    0.0
2061 209061.000  -3120040.7458   4084614.2808   3764026.1695   6   7   0.1592   0.2104   0.1671  -0.1582   0.1599  -0.1434   0.00    0.0
2061 209062.000  -3120040.7391   4084614.2785   3764026.1701   6   7   0.1585   0.2094   0.1664  -0.1575   0.1593  -0.1427   0.00    0.0
2061 209063.000  -3120040.7415   4084614.2818   3764026.1704   6   7   0.1578   0.2085   0.1656  -0.1567   0.1587  -0.1421   0.00    0.0
2061 209064.000  -3120040.7450   4084614.2812   3764026.1742   6   7   0.1572   0.2075   0.1649  -0.1560   0.1581  -0.1414   0.00    0.0
2061 209065.000  -3120040.7451   4084614.2778   3764026.1758   6   7   0.1565   0.2066   0.1642  -0.1553   0.1574  -0.1407   0.00    0.0
2061 209066.000  -3120040.7414   4084614.2740   3764026.1748   6   7   0.1558   0.2056   0.1634  -0.1545   0.1568  -0.1401   0.00    0.0
2061 209067.000  -3120040.7441   4084614.2732   3764026.1759   6   7   0.1551   0.2046   0.1626  -0.1537   0.1561  -0.1394   0.00    0.0
2061 209068.000  -3120040.7445   4084614.2733   3764026.1789   6   7   0.1543   0.2036   0.1619  -0.1530   0.1555  -0.1387   0.00    0.0
2061 209069.000  -3120040.7482   4084614.2743   3764026.1821   6   7   0.1536   0.2027   0.1611  -0.1522   0.1548  -0.1380   0.00    0.0
2061 209070.000  -3120040.7527   4084614.2771   3764026.1833   6   7   0.1529   0.2016   0.1603  -0.1514   0.1541  -0.1373   0.00    0.0
2061 209071.000  -3120040.7561   4084614.2821   3764026.1918   6   7   0.1522   0.2006   0.1595  -0.1506   0.1534  -0.1365   0.00    0.0
2061 209072.000  -3120040.7654   4084614.2875   3764026.1977   6   7   0.1514   0.1996   0.1587  -0.1498   0.1527  -0.1358   0.00    0.0
2061 209073.000  -3120040.7732   4084614.2883   3764026.2059   6   7   0.1507   0.1986   0.1578  -0.1490   0.1520  -0.1351   0.00    0.0
2061 209074.000  -3120040.7769   4084614.2891   3764026.2059   6   7   0.1499   0.1975   0.1570  -0.1481   0.1513  -0.1343   0.00    0.0
2061 209075.000  -3120040.7781   4084614.2911   3764026.2127   6   7   0.1492   0.1965   0.1562  -0.1473   0.1506  -0.1336   0.00    0.0
2061 209076.000  -3120040.7782   4084614.2897   3764026.2151   6   7   0.1484   0.1955   0.1553  -0.1465   0.1499  -0.1328   0.00    0.0
2061 209077.000  -3120040.7846   4084614.2905   3764026.2209   6   7   0.1476   0.1944   0.1544  -0.1456   0.1491  -0.1320   0.00    0.0
2061 209078.000  -3120040.7845   4084614.2906   3764026.2261   6   7   0.1469   0.1933   0.1536  -0.1448   0.1484  -0.1313   0.00    0.0
2061 209079.000  -3120040.7875   4084614.2942   3764026.2330   6   7   0.1461   0.1923   0.1527  -0.1440   0.1477  -0.1305   0.00    0.0
2061 209080.000  -3120040.7927   4084614.2956   3764026.2399   6   7   0.1453   0.1912   0.1518  -0.1431   0.1469  -0.1297   0.00    0.0
2061 209081.000  -3120040.7992   4084614.2999   3764026.2466   6   7   0.1445   0.1901   0.1509  -0.1423   0.1462  -0.1289   0.00    0.0
2061 209082.000  -3120040.8055   4084614.3061   3764026.2579   6   7   0.1437   0.1890   0.1500  -0.1414   0.1454  -0.1281   0.00    0.0
2061 209083.000  -3120040.8059   4084614.3035   3764026.2624   6   7   0.1430   0.1880   0.1491  -0.1405   0.1446  -0.1273   0.00    0.0
2061 209084.000  -3120040.8141   4084614.3054   3764026.2721   6   7   0.1422   0.1869   0.1482  -0.1397   0.1439  -0.1265   0.00    0.0
2061 209085.000  -3120040.8225   4084614.3081   3764026.2805   6   7   0.1414   0.1858   0.1473  -0.1388   0.1431  -0.1257   0.00    0.0
2061 209086.000  -3120040.8307   4084614.3052   3764026.2906   6   7   0.1406   0.1847   0.1464  -0.1380   0.1423  -0.1249   0.00    0.0
2061 209087.000  -3120040.8415   4084614.3113   3764026.3028   6   7   0.1398   0.1837   0.1454  -0.1371   0.1416  -0.1241   0.00    0.0
2061 209088.000  -3120040.8512   4084614.3136   3764026.3119   6   7   0.1390   0.1826   0.1445  -0.1363   0.1408  -0.1233   0.00    0.0
2061 209089.000  -3120040.8605   4084614.3135   3764026.3212   6   7   0.1383   0.1815   0.1436  -0.1354   0.1400  -0.1225   0.00    0.0
2061 209090.000  -3120040.8670   4084614.3166   3764026.3330   6   7   0.1375   0.1805   0.1427  -0.1346   0.1393  -0.1217   0.00    0.0
2061 209091.000  -3120040.8807   4084614.3237   3764026.3460   6   7   0.1367   0.1794   0.1418  -0.1338   0.1385  -0.1209   0.00    0.0
2061 209092.000  -3120040.8964   4084614.3335   3764026.3610   6   7   0.1360   0.1784   0.1409  -0.1329   0.1378  -0.1201   0.00    0.0
2061 209093.000  -3120040.9096   4084614.3405   3764026.3748   6   7   0.1352   0.1774   0.1400  -0.1321   0.1370  -0.1194   0.00    0.0
2061 209094.000  -3120040.9231   4084614.3436   3764026.3904   6   7   0.1345   0.1764   0.1391  -0.1313   0.1363  -0.1186   0.00    0.0
2061 209095.000  -3120040.9395   4084614.3545   3764026.4091   6   7   0.1338   0.1754   0.1383  -0.1305   0.1356  -0.1178   0.00    0.0
2061 209096.000  -3120040.9513   4084614.3595   3764026.4243   6   7   0.1331   0.1744   0.1374  -0.1298   0.1349  -0.1171   0.00    0.0
2061 209097.000  -3120040.9628   4084614.3649   3764026.4387   6   7   0.1324   0.1734   0.1366  -0.1290   0.1342  -0.1164   0.00    0.0
2061 209098.000  -3120040.9789   4084614.3759   3764026.4601   6   7   0.1317   0.1725   0.1358  -0.1283   0.1335  -0.1157   0.00    0.0
2061 209099.000  -3120040.9929   4084614.3828   3764026.4756   6   7   0.1310   0.1716   0.1350  -0.1276   0.1328  -0.1150   0.00    0.0
2061 209100.000  -3120041.0031   4084614.3882   3764026.4894   6   7   0.1304   0.1707   0.1343  -0.1269   0.1322  -0.1144   0.00    0.0
2061 209101.000  -3120041.0147   4084614.3935   3764026.5036   6   7   0.1298   0.1698   0.1335  -0.1262   0.1315  -0.1137   0.00    0.0
2061 209102.000  -3120041.0270   4084614.4036   3764026.5149   6   7   0.1292   0.1690   0.1328  -0.1256   0.1309  -0.1131   0.00    0.0
2061 209103.000  -3120041.0432   4084614.4133   3764026.5267   6   7   0.1286   0.1682   0.1322  -0.1249   0.1304  -0.1126   0.00    0.0
2061 209104.000  -3120041.0550   4084614.4227   3764026.5381   6   7   0.1281   0.1675   0.1316  -0.1244   0.1298  -0.1120   0.00    0.0
2061 209105.000  -3120041.0622   4084614.4311   3764026.5462   6   7   0.1276   0.1668   0.1310  -0.1238   0.1293  -0.1115   0.00    0.0
2061 209106.000  -3120041.0700   4084614.4414   3764026.5583   6   7   0.1271   0.1661   0.1304  -0.1233   0.1288  -0.1110   0.00    0.0
2061 209107.000  -3120041.0810   4084614.4543   3764026.5684   6   7   0.1266   0.1654   0.1299  -0.1227   0.1283  -0.1106   0.00    0.0
2061 209108.000  -3120041.0922   4084614.4613   3764026.5758   6   7   0.1262   0.1648   0.1294  -0.1223   0.1279  -0.1101   0.00    0.0
2061 209109.000  -3120041.0985   4084614.4645   3764026.5805   6   7   0.1257   0.1642   0.1289  -0.1218   0.1274  -0.1097   0.00    0.0
2061 209110.000  -3120041.1053   4084614.4704   3764026.5882   6   7   0.1253   0.1636   0.1285  -0.1214   0.1270  -0.1093   0.00    0.0
2061 209111.000  -3120041.1116   4084614.4792   3764026.5943   6   7   0.1249   0.1631   0.1281  -0.1209   0.1266  -0.1090   0.00    0.0
2061 209112.000  -3120041.1172   4084614.4868   3764026.6006   6   7   0.1245   0.1626   0.1277  -0.1205   0.1262  -0.1086   0.00    0.0
2061 209113.000  -3120041.1221   4084614.4910   3764026.6049   6   7   0.1242   0.1621   0.1273  -0.1201   0.1259  -0.1083   0.00    0.0
2061 209114.000  -3120041.1271   4084614.4982   3764026.6086   6   7   0.1238   0.1616   0.1269  -0.1198   0.1255  -0.1079   0.00    0.0
2061 209115.000  -3120041.1337   4084614.5069   3764026.6155   6   7   0.1235   0.1612   0.1266  -0.1194   0.1252  -0.1076   0.00    0.0
2061 209116.000  -3120041.1400   4084614.5133   3764026.6239   6   7   0.1232   0.1607   0.1262  -0.1191   0.1249  -0.1073   0.00    0.0
2061 209117.000  -3120041.1438   4084614.5156   3764026.6264   6   7   0.1229   0.1603   0.1259  -0.1188   0.1246  -0.1071   0.00    0.0
2061 209118.000  -3120041.1484   4084614.5188   3764026.6298   6   7   0.1226   0.1599   0.1256  -0.1185   0.1243  -0.1068   0.00    0.0
2061 209119.000  -3120041.1519   4084614.5222   3764026.6320   6   7   0.1223   0.1595   0.1253  -0.1182   0.1240  -0.1066   0.00    0.0
2061 209120.000  -3120041.1577   4084614.5278   3764026.6374   6   7   0.1220   0.1591   0.1251  -0.1179   0.1237  -0.1063   0.00    0.0
2061 209121.000  -3120041.1622   4084614.5327   3764026.6425   6   7   0.1218   0.1588   0.1248  -0.1176   0.1235  -0.1061   0.00    0.0
2061 209122.000  -3120041.1615   4084614.5344   3764026.6449   6   7   0.1215   0.1584   0.1245  -0.1173   0.1232  -0.1058   0.00    0.0
2061 209123.000  -3120041.1624   4084614.5362   3764026.6476   6   7   0.1213   0.1581   0.1243  -0.1171   0.1230  -0.1056   0.00    0.0
2061 209124.000  -3120041.1647   4084614.5401   3764026.6478   6   7   0.1210   0.1578   0.1241  -0.1168   0.1228  -0.1054   0.00    0.0
2061 209125.000  -3120041.1639   4084614.5421   3764026.6480   6   7   0.1208   0.1575   0.1238  -0.1166   0.1225  -0.1052   0.00    0.0
2061 209126.000  -3120041.1634   4084614.5416   3764026.6486   6   7   0.1206   0.1572   0.1236  -0.1164   0.1223  -0.1050   0.00    0.0
2061 209127.000  -3120041.1643   4084614.5413   3764026.6484   6   7   0.1203   0.1569   0.1234  -0.1162   0.1221  -0.1048   0.00    0.0
2061 209128.000  -3120041.1635   4084614.5437   3764026.6506   6   7   0.1201   0.1566   0.1232  -0.1160   0.1219  -0.1047   0.00    0.0
2061 209129.000  -3120041.1654   4084614.5453   3764026.6536   6   7   0.1199   0.1563   0.1230  -0.1157   0.1217  -0.1045   0.00    0.0
2061 209130.000  -3120041.1685   4084614.5462   3764026.6566   6   7   0.1197   0.1560   0.1228  -0.1156   0.1215  -0.1043   0.00    0.0
2061 209131.000  -3120041.1701   4084614.5483   3764026.6586   6   7   0.1195   0.1558   0.1226  -0.1154   0.1214  -0.1042   0.00    0.0
2061 209132.000  -3120041.1670   4084614.5516   3764026.6595   6   7   0.1193   0.1555   0.1224  -0.1152   0.1212  -0.1040   0.00    0.0
2061 209133.000  -3120041.1643   4084614.5523   3764026.6617   6   7   0.1191   0.1553   0.1223  -0.1150   0.1210  -0.1039   0.00    0.0
2061 209134.000  -3120041.1633   4084614.5504   3764026.6624   6   7   0.1190   0.1550   0.1221  -0.1148   0.1208  -0.1037   0.00    0.0
2061 209135.000  -3120041.1610   4084614.5491   3764026.6620   6   7   0.1188   0.1548   0.1219  -0.1146   0.1207  -0.1036   0.00    0.0
2061 209136.000  -3120041.1582   4084614.5492   3764026.6626   6   7   0.1186   0.1546   0.1218  -0.1145   0.1205  -0.1034   0.00    0.0
2061 209137.000  -3120041.1550   4084614.5513   3764026.6646   6   7   0.1184   0.1544   0.1216  -0.1143   0.1203  -0.1033   0.00    0.0
2061 209138.000  -3120041.1521   4084614.5538   3764026.6637   6   7   0.1183   0.1541   0.1214  -0.1142   0.1202  -0.1032   0.00    0.0
2061 209139.000  -3120041.1504   4084614.5571   3764026.6668   6   7   0.1181   0.1539   0.1213  -0.1140   0.1200  -0.1030   0.00    0.0
2061 209140.000  -3120041.1467   4084614.5601   3764026.6691   6   7   0.1179   0.1537   0.1211  -0.1139   0.1199  -0.1029   0.00    0.0
2061 209141.000  -3120041.1465   4084614.5628   3764026.6720   6   7   0.1178   0.1535   0.1210  -0.1137   0.1198  -0.1028   0.00    0.0
2061 209142.000  -3120041.1489   4084614.5636   3764026.6746   6   7   0.1176   0.1533   0.1209  -0.1136   0.1196  -0.1027   0.00    0.0
2061 209143.000  -3120041.1473   4084614.5617   3764026.6724   6   7   0.1175   0.1531   0.1207  -0.1134   0.1195  -0.1025   0.00    0.0
2061 209144.000  -3120041.1475   4084614.5633   3764026.6728   6   7   0.1173   0.1529   0.1206  -0.1133   0.1193  -0.1024   0.00    0.0
2061 209145.000  -3120041.1455   4084614.5630   3764026.6738   6   7   0.1172   0.1528   0.1204  -0.1132   0.1192  -0.1023   0.00    0.0
2061 209146.000  -3120041.1441   4084614.5620   3764026.6752   6   7   0.1170   0.1526   0.1203  -0.1130   0.1191  -0.1022   0.00    0.0
2061 209147.000  -3120041.1429   4084614.5576   3764026.6754   6   7   0.1169   0.1524   0.1202  -0.1129   0.1190  -0.1021   0.00    0.0
2061 209148.000  -3120041.1428   4084614.5569   3764026.6776   6   7   0.1167   0.1522   0.1201  -0.1128   0.1188  -0.1020   0.00    0.0
2061 209149.000  -3120041.1443   4084614.5572   3764026.6788   6   7   0.1166   0.1520   0.1199  -0.1126   0.1187  -0.1019   0.00    0.0
2061 209150.000  -3120041.1425   4084614.5536   3764026.6779   6   7   0.1165   0.1519   0.1198  -0.1125   0.1186  -0.1018   0.00    0.0
2061 209151.000  -3120041.1400   4084614.5498   3764026.6771   6   7   0.1163   0.1517   0.1197  -0.1124   0.1185  -0.1017   0.00    0.0
2061 209152.000  -3120041.1401   4084614.5498   3764026.6772   6   7   0.1162   0.1515   0.1196  -0.1123   0.1184  -0.1016   0.00    0.0
2061 209153.000  -3120041.1383   4084614.5508   3764026.6779   6   7   0.1161   0.1514   0.1195  -0.1122   0.1183  -0.1015   0.00    0.0
2061 209154.000  -3120041.1355   4084614.5457   3764026.6754   6   7   0.1159   0.1512   0.1193  -0.1121   0.1181  -0.1014   0.00    0.0
2061 209155.000  -3120041.1353   4084614.5450   3764026.6762   6   7   0.1158   0.1510   0.1192  -0.1120   0.1180  -0.1013   0.00    0.0
2061 209156.000  -3120041.1332   4084614.5414   3764026.6740   6   7   0.1157   0.1509   0.1191  -0.1118   0.1179  -0.1012   0.00    0.0
2061 209157.000  -3120041.1288   4084614.5396   3764026.6724   6   7   0.1155   0.1507   0.1190  -0.1117   0.1178  -0.1011   0.00    0.0
2061 209158.000  -3120041.1257   4084614.5368   3764026.6688   6   7   0.1154   0.1506   0.1189  -0.1116   0.1177  -0.1010   0.00    0.0
2061 209159.000  -3120041.1214   4084614.5331   3764026.6666   6   7   0.1153   0.1504   0.1188  -0.1115   0.1176  -0.1009   0.00    0.0
2061 209160.000  -3120041.1223   4084614.5288   3764026.6657   6   7   0.1152   0.1503   0.1187  -0.1114   0.1175  -0.1008   0.00    0.0
2061 209161.000  -3120041.1224   4084614.5276   3764026.6655   6   7   0.1151   0.1501   0.1186  -0.1113   0.1174  -0.1007   0.00    0.0
2061 209162.000  -3120041.1225   4084614.5265   3764026.6634   6   7   0.1149   0.1500   0.1185  -0.1112   0.1173  -0.1007   0.00    0.0
2061 209163.000  -3120041.1225   4084614.5235   3764026.6626   6   7   0.1148   0.1499   0.1184  -0.1111   0.1172  -0.1006   0.00    0.0
2061 209164.000  -3120041.1262   4084614.5265   3764026.6647   6   7   0.1147   0.1497   0.1183  -0.1110   0.1171  -0.1005   0.00    0.0
2061 209165.000  -3120041.1263   4084614.5225   3764026.6639   6   7   0.1146   0.1496   0.1182  -0.1109   0.1170  -0.1004   0.00    0.0
2061 209166.000  -3120041.1253   4084614.5209   3764026.6639   6   7   0.1145   0.1494   0.1181  -0.1108   0.1169  -0.1003   0.00    0.0
2061 209167.000  -3120041.1233   4084614.5205   3764026.6625   6   7   0.1144   0.1493   0.1180  -0.1107   0.1168  -0.1003   0.00    0.0
2061 209168.000  -3120041.1230   4084614.5181   3764026.6608   6   7   0.1142   0.1492   0.1179  -0.1107   0.1167  -0.1002   0.00    0.0
2061 209169.000  -3120041.1220   4084614.5177   3764026.6617   6   7   0.1141   0.1490   0.1178  -0.1106   0.1166  -0.1001   0.00    0.0
2061 209170.000  -3120041.1212   4084614.5139   3764026.6615   6   7   0.1140   0.1489   0.1177  -0.1105   0.1165  -0.1000   0.00    0.0
2061 209171.000  -3120041.1197   4084614.5109   3764026.6612   6   7   0.1139   0.1488   0.1176  -0.1104   0.1165  -0.0999   0.00    0.0
2061 209172.000  -3120041.1180   4084614.5057   3764026.6601   6   7   0.1138   0.1486   0.1175  -0.1103   0.1164  -0.0999   0.00    0.0
2061 209173.000  -3120041.1175   4084614.5030   3764026.6580   6   7   0.1137   0.1485   0.1174  -0.1102   0.1163  -0.0998   0.00    0.0
2061 209174.000  -3120041.1199   4084614.5016   3764026.6567   6   7   0.1136   0.1484   0.1173  -0.1101   0.1162  -0.0997   0.00    0.0
2061 209175.000  -3120041.1209   4084614.5027   3764026.6564   6   7   0.1135   0.1483   0.1173  -0.1100   0.1161  -0.0996   0.00    0.0
2061 209176.000  -3120041.1213   4084614.5027   3764026.6552   6   7   0.1134   0.1481   0.1172  -0.1100   0.1160  -0.0996   0.00    0.0
2061 209177.000  -3120041.1250   4084614.5051   3764026.6571   6   7   0.1133   0.1480   0.1171  -0.1099   0.1159  -0.0995   0.00    0.0
2061 209178.000  -3120041.1259   4084614.5057   3764026.6597   6   7   0.1132   0.1479   0.1170  -0.1098   0.1159  -0.0994   0.00    0.0
2061 209179.000  -3120041.1252   4084614.5029   3764026.6601   6   7   0.1131   0.1478   0.1169  -0.1097   0.1158  -0.0994   0.00    0.0
2061 209180.000  -3120041.1246   4084614.5014   3764026.6600   6   7   0.1130   0.1477   0.1168  -0.1096   0.1157  -0.0993   0.00    0.0
2061 209181.000  -3120041.1204   4084614.4983   3764026.6576   6   7   0.1129   0.1475   0.1167  -0.1095   0.1156  -0.0992   0.00    0.0
2061 209182.000  -3120041.1190   4084614.4994   3764026.6581   6   7   0.1128   0.1474   0.1167  -0.1095   0.1155  -0.0992   0.00    0.0
2061 209183.000  -3120041.1180   4084614.4967   3764026.6574   6   7   0.1127   0.1473   0.1166  -0.1094   0.1154  -0.0991   0.00    0.0
2061 209184.000  -3120041.1195   4084614.4961   3764026.6588   6   7   0.1126   0.1472   0.1165  -0.1093   0.1154  -0.0990   0.00    0.0
2061 209185.000  -3120041.1177   4084614.4923   3764026.6578   6   7   0.1125   0.1471   0.1164  -0.1092   0.1153  -0.0990   0.00    0.0
2061 209186.000  -3120041.1181   4084614.4930   3764026.6589   6   7   0.1124   0.1470   0.1163  -0.1092   0.1152  -0.0989   0.00    0.0
2061 209187.000  -3120041.1181   4084614.4926   3764026.6579   6   7   0.1123   0.1468   0.1162  -0.1091   0.1151  -0.0988   0.00    0.0
2061 209188.000  -3120041.1197   4084614.4902   3764026.6567   6   7   0.1122   0.1467   0.1162  -0.1090   0.1151  -0.0988   0.00    0.0
2061 209189.000  -3120041.1198   4084614.4890   3764026.6560   6   7   0.1121   0.1466   0.1161  -0.1089   0.1150  -0.0987   0.00    0.0
2061 209190.000  -3120041.1221   4084614.4886   3764026.6572   6   7   0.1120   0.1465   0.1160  -0.1089   0.1149  -0.0986   0.00    0.0
2061 209191.000  -3120041.1234   4084614.4884   3764026.6570   6   7   0.1119   0.1464   0.1159  -0.1088   0.1148  -0.0986   0.00    0.0
2061 209192.000  -3120041.1222   4084614.4847   3764026.6566   6   7   0.1118   0.1463   0.1158  -0.1087   0.1148  -0.0985   0.00    0.0
2061 209193.000  -3120041.1224   4084614.4838   3764026.6570   6   7   0.1117   0.1462   0.1158  -0.1086   0.1147  -0.0984   0.00    0.0
2061 209194.000  -3120041.1240   4084614.4837   3764026.6588   6   7   0.1116   0.1461   0.1157  -0.1086   0.1146  -0.0984   0.00    0.0
2061 209195.000  -3120041.1253   4084614.4831   3764026.6586   6   7   0.1115   0.1460   0.1156  -0.1085   0.1145  -0.0983   0.00    0.0
2061 209196.000  -3120041.1246   4084614.4803   3764026.6590   6   7   0.1114   0.1459   0.1155  -0.1084   0.1145  -0.0983   0.00    0.0
2061 209197.000  -3120041.1226   4084614.4752   3764026.6584   6   7   0.1114   0.1458   0.1155  -0.1083   0.1144  -0.0982   0.00    0.0
2061 209198.000  -3120041.1223   4084614.4730   3764026.6586   6   7   0.1113   0.1457   0.1154  -0.1083   0.1143  -0.0981   0.00    0.0
2061 209199.000  -3120041.1247   4084614.4741   3764026.6598   6   7   0.1112   0.1456   0.1153  -0.1082   0.1142  -0.0981   0.00    0.0
2061 209200.000  -3120041.1255   4084614.4724   3764026.6610   6   7   0.1111   0.1455   0.1152  -0.1081   0.1142  -0.0980   0.00    0.0
2061 209201.000  -3120041.1260   4084614.4745   3764026.6618   6   7   0.1110   0.1453   0.1152  -0.1081   0.1141  -0.0980   0.00    0.0
2061 209202.000  -3120041.1287   4084614.4778   3764026.6650   6   7   0.1109   0.1452   0.1151  -0.1080   0.1140  -0.0979   0.00    0.0
2061 209203.000  -3120041.1312   4084614.4750   3764026.6649   6   7   0.1108   0.1451   0.1150  -0.1079   0.1140  -0.0978   0.00    0.0
2061 209204.000  -3120041.1314   4084614.4726   3764026.6659   6   7   0.1107   0.1450   0.1150  -0.1079   0.1139  -0.0978   0.00    0.0
2061 209205.000  -3120041.1326   4084614.4699   3764026.6665   6   7   0.1107   0.1449   0.1149  -0.1078   0.1138  -0.0977   0.00    0.0
2061 209206.000  -3120041.1286   4084614.4653   3764026.6656   6   7   0.1106   0.1448   0.1148  -0.1077   0.1138  -0.0977   0.00    0.0
2061 209207.000  -3120041.1295   4084614.4639   3764026.6667   6   7   0.1105   0.1447   0.1147  -0.1077   0.1137  -0.0976   0.00    0.0
2061 209208.000  -3120041.1285   4084614.4611   3764026.6652   6   7   0.1104   0.1446   0.1147  -0.1076   0.1136  -0.0976   0.00    0.0
2061 209209.000  -3120041.1279   4084614.4559   3764026.6651   6   7   0.1103   0.1446   0.1146  -0.1075   0.1136  -0.0975   0.00    0.0
2061 209210.000  -3120041.1266   4084614.4507   3764026.6627   6   7   0.1102   0.1445   0.1145  -0.1075   0.1135  -0.0974   0.00    0.0
2061 209211.000  -3120041.1282   4084614.4505   3764026.6633   6   7   0.1101   0.1444   0.1145  -0.1074   0.1134  -0.0974   0.00    0.0
2061 209212.000  -3120041.1302   4084614.4509   3764026.6646   6   7   0.1101   0.1443   0.1144  -0.1074   0.1134  -0.0973   0.00    0.0
2061 209213.000  -3120041.1319   4084614.4487   3764026.6645   6   7   0.1100   0.1442   0.1143  -0.1073   0.1133  -0.0973   0.00    0.0
2061 209214.000  -3120041.1295   4084614.4439   3764026.6611   6   7   0.1099   0.1441   0.1143  -0.1072   0.1132  -0.0972   0.00    0.0
2061 209215.000  -3120041.1295   4084614.4414   3764026.6609   6   7   0.1098   0.1440   0.1142  -0.1072   0.1132  -0.0972   0.00    0.0
2061 209216.000  -3120041.1262   4084614.4380   3764026.6588   6   7   0.1097   0.1439   0.1141  -0.1071   0.1131  -0.0971   0.00    0.0
2061 209217.000  -3120041.1241   4084614.4366   3764026.6598   6   7   0.1096   0.1438   0.1141  -0.1070   0.1130  -0.0971   0.00    0.0
2061 209218.000  -3120041.1207   4084614.4322   3764026.6572   6   7   0.1096   0.1437   0.1140  -0.1070   0.1130  -0.0970   0.00    0.0
2061 209219.000  -3120041.1199   4084614.4314   3764026.6544   6   7   0.1095   0.1436   0.1139  -0.1069   0.1129  -0.0969   0.00    0.0
2061 209220.000  -3120041.1198   4084614.4287   3764026.6535   6   7   0.1094   0.1435   0.1139  -0.1069   0.1129  -0.0969   0.00    0.0
2061 209221.000  -3120041.1219   4084614.4301   3764026.6547   6   7   0.1093   0.1434   0.1138  -0.1068   0.1128  -0.0968   0.00    0.0
2061 209222.000  -3120041.1200   4084614.4287   3764026.6526   6   7   0.1092   0.1433   0.1137  -0.1067   0.1127  -0.0968   0.00    0.0
2061 209223.000  -3120041.1192   4084614.4272   3764026.6527   6   7   0.1092   0.1432   0.1137  -0.1067   0.1127  -0.0967   0.00    0.0
2061 209224.000  -3120041.1170   4084614.4248   3764026.6519   6   7   0.1091   0.1431   0.1136  -0.1066   0.1126  -0.0967   0.00    0.0
2061 209225.000  -3120041.1125   4084614.4204   3764026.6498   6   7   0.1090   0.1431   0.1135  -0.1066   0.1125  -0.0966   0.00    0.0
2061 209226.000  -3120041.1105   4084614.4215   3764026.6509   6   7   0.1089   0.1430   0.1135  -0.1065   0.1125  -0.0966   0.00    0.0
