% program   : RTKLIB ver.2.4.3
% inp file  : D:\mycode\vscode\rtklib\rtklib\data\daej190k00.19n
% inp file  : D:\mycode\vscode\rtklib\rtklib\data\daej190k15.19n
% inp file  : D:\mycode\vscode\rtklib\rtklib\data\daej190k30.19n
% inp file  : D:\mycode\vscode\rtklib\rtklib\data\daej190k45.19n
% inp file  : D:\mycode\vscode\rtklib\rtklib\data\daej190k00.19o
% inp file  : D:\mycode\vscode\rtklib\rtklib\data\daej190k15.19o
% inp file  : D:\mycode\vscode\rtklib\rtklib\data\daej190k30.19o
% inp file  : D:\mycode\vscode\rtklib\rtklib\data\daej190k45.19o
% inp file  : D:\mycode\vscode\rtklib\rtklib\data\igs20612.clk
% inp file  : D:\mycode\vscode\rtklib\rtklib\data\igs20612.sp3
% inp file  : D:\mycode\vscode\rtklib\rtklib\data\igs20617.erp
% inp file  : D:\mycode\vscode\rtklib\rtklib\data\igs14.atx
% obs start : 2019/07/09 10:00:00.0 GPST (week2061 208800.0s)
% obs end   : 2019/07/09 10:59:59.0 GPST (week2061 212399.0s)
% pos mode  : PPP Static
% solution  : Forward
% elev mask : 15.0 deg
% dynamics  : off
% tidecorr  : off
% tropo opt : Estimate ZTD
% ephemeris : Precise
% navi sys  : GPS
% antenna1  :                       ( 0.0000  0.0000  0.0000)
%
% (x/y/z-ecef=WGS84,Q=1:fix,2:float,3:sbas,4:dgps,5:single,6:ppp,ns=# of satellites)
%  GPST              x-ecef(m)      y-ecef(m)      z-ecef(m)   Q  ns   sdx(m)   sdy(m)   sdz(m)  sdxy(m)  sdyz(m)  sdzx(m) age(s)  ratio
2061 208800.000  -3120040.3775   4084613.0087   3764025.0216   6   7   2.2047   2.2926   2.1955  -1.6625   1.2134  -1.7225   0.00    0.0
2061 208801.000  -3120040.0235   4084613.2491   3764025.1010   6   7   1.5632   1.6306   1.5570  -1.1835   0.8690  -1.2232   0.00    0.0
2061 208802.000  -3120040.0151   4084613.6427   3764025.2572   6   7   1.2790   1.3383   1.2743  -0.9719   0.7178  -1.0023   0.00    0.0
2061 208803.000  -3120040.2756   4084613.7580   3764025.5730   6   7   1.1098   1.1648   1.1060  -0.8464   0.6285  -0.8709   0.00    0.0
2061 208804.000  -3120040.4760   4084613.6906   3764025.7454   6   7   0.9944   1.0469   0.9913  -0.7611   0.5682  -0.7815   0.00    0.0
2061 208805.000  -3120040.3016   4084613.7396   3764025.5272   6   7   0.9094   0.9602   0.9067  -0.6985   0.5241  -0.7156   0.00    0.0
2061 208806.000  -3120040.2938   4084613.8766   3764025.6169   6   7   0.8434   0.8931   0.8411  -0.6500   0.4901  -0.6646   0.00    0.0
2061 208807.000  -3120040.3353   4084614.0282   3764025.7895   6   7   0.7903   0.8393   0.7883  -0.6111   0.4630  -0.6235   0.00    0.0
2061 208808.000  -3120040.1164   4084614.0645   3764025.6228   6   7   0.7464   0.7949   0.7446  -0.5791   0.4408  -0.5896   0.00    0.0
2061 208809.000  -3120040.0232   4084614.0064   3764025.6686   6   7   0.7093   0.7574   0.7076  -0.5521   0.4221  -0.5609   0.00    0.0
2061 208810.000  -3120040.0906   4084614.0012   3764025.6787   6   7   0.6774   0.7254   0.6759  -0.5289   0.4062  -0.5363   0.00    0.0
2061 208811.000  -3120040.2191   4084614.1371   3764025.6703   6   7   0.6496   0.6975   0.6483  -0.5088   0.3924  -0.5149   0.00    0.0
2061 208812.000  -3120040.2249   4084614.1221   3764025.6785   6   7   0.6251   0.6730   0.6239  -0.4912   0.3804  -0.4961   0.00    0.0
2061 208813.000  -3120040.2915   4084614.1931   3764025.7289   6   7   0.6033   0.6513   0.6022  -0.4755   0.3697  -0.4793   0.00    0.0
2061 208814.000  -3120040.3199   4084614.1493   3764025.7343   6   7   0.5837   0.6319   0.5828  -0.4615   0.3602  -0.4643   0.00    0.0
2061 208815.000  -3120040.3668   4084614.1244   3764025.7748   6   7   0.5661   0.6143   0.5652  -0.4489   0.3517  -0.4508   0.00    0.0
2061 208816.000  -3120040.4285   4084614.1498   3764025.8277   6   7   0.5500   0.5984   0.5492  -0.4375   0.3440  -0.4385   0.00    2.4
2061 208817.000  -3120040.4771   4084614.1115   3764025.8080   6   7   0.5353   0.5839   0.5346  -0.4270   0.3370  -0.4272   0.00    1.3
2061 208818.000  -3120040.3571   4084614.0146   3764025.6812   6   7   0.5219   0.5706   0.5212  -0.4175   0.3306  -0.4169   0.00    0.0
2061 208819.000  -3120040.4012   4084614.0335   3764025.6909   1   7   0.2768   0.2871   0.1792  -0.2817   0.2267  -0.2224   0.00    4.3
2061 208820.000  -3120040.3765   4084614.0080   3764025.6749   1   7   0.0257   0.0373   0.0288  -0.0304   0.0320  -0.0268   0.00   58.3
2061 208821.000  -3120040.3736   4084614.0045   3764025.6721   1   7   0.0252   0.0366   0.0283  -0.0298   0.0314  -0.0263   0.00  999.9
2061 208822.000  -3120040.3703   4084614.0005   3764025.6689   1   7   0.0247   0.0360   0.0278  -0.0293   0.0309  -0.0259   0.00  999.9
2061 208823.000  -3120040.3672   4084613.9969   3764025.6661   1   7   0.0244   0.0355   0.0274  -0.0289   0.0304  -0.0255   0.00  999.9
2061 208824.000  -3120040.3635   4084613.9923   3764025.6628   1   7   0.0240   0.0350   0.0271  -0.0285   0.0300  -0.0251   0.00  999.9
2061 208825.000  -3120040.3600   4084613.9882   3764025.6596   1   7   0.0237   0.0346   0.0267  -0.0281   0.0296  -0.0248   0.00  999.9
2061 208826.000  -3120040.3566   4084613.9840   3764025.6563   1   7   0.0234   0.0342   0.0264  -0.0278   0.0293  -0.0245   0.00  999.9
2061 208827.000  -3120040.3545   4084613.9815   3764025.6546   1   7   0.0232   0.0338   0.0261  -0.0275   0.0289  -0.0242   0.00  999.9
2061 208828.000  -3120040.3524   4084613.9792   3764025.6530   6   7   0.0229   0.0335   0.0258  -0.0272   0.0286  -0.0239   0.00    0.0
2061 208829.000  -3120040.3492   4084613.9752   3764025.6499   6   7   0.0227   0.0332   0.0255  -0.0269   0.0284  -0.0237   0.00    0.0
2061 208830.000  -3120040.3472   4084613.9728   3764025.6481   6   7   0.0225   0.0329   0.0253  -0.0267   0.0281  -0.0235   0.00    0.0
2061 208831.000  -3120040.3460   4084613.9715   3764025.6473   6   7   0.0223   0.0326   0.0251  -0.0265   0.0279  -0.0233   0.00    0.0
2061 208832.000  -3120040.3439   4084613.9689   3764025.6451   6   7   0.0221   0.0323   0.0249  -0.0262   0.0276  -0.0231   0.00    0.0
2061 208833.000  -3120040.3427   4084613.9678   3764025.6442   6   7   0.0219   0.0321   0.0247  -0.0260   0.0274  -0.0229   0.00    0.0
2061 208834.000  -3120040.3407   4084613.9656   3764025.6423   6   7   0.0217   0.0318   0.0245  -0.0258   0.0272  -0.0227   0.00    0.0
2061 208835.000  -3120040.3682   4084614.0036   3764025.6798   1   7   0.0192   0.0286   0.0203  -0.0229   0.0234  -0.0194   0.00   17.1
2061 208836.000  -3120040.3669   4084614.0022   3764025.6788   1   7   0.0190   0.0283   0.0201  -0.0227   0.0232  -0.0192   0.00  999.9
2061 208837.000  -3120040.3648   4084613.9997   3764025.6768   1   7   0.0189   0.0282   0.0200  -0.0226   0.0231  -0.0191   0.00  999.9
2061 208838.000  -3120040.3637   4084613.9984   3764025.6759   1   7   0.0188   0.0280   0.0199  -0.0224   0.0229  -0.0190   0.00  999.9
2061 208839.000  -3120040.3621   4084613.9964   3764025.6744   1   7   0.0187   0.0279   0.0198  -0.0223   0.0228  -0.0189   0.00  999.9
2061 208840.000  -3120040.3599   4084613.9936   3764025.6723   1   7   0.0186   0.0277   0.0196  -0.0222   0.0227  -0.0188   0.00  999.9
2061 208841.000  -3120040.3578   4084613.9909   3764025.6701   1   7   0.0185   0.0276   0.0195  -0.0221   0.0226  -0.0187   0.00  999.9
2061 208842.000  -3120040.3558   4084613.9884   3764025.6681   1   7   0.0184   0.0274   0.0194  -0.0219   0.0225  -0.0186   0.00  999.9
2061 208843.000  -3120040.3544   4084613.9867   3764025.6669   1   7   0.0183   0.0273   0.0194  -0.0218   0.0224  -0.0185   0.00  999.9
2061 208844.000  -3120040.3529   4084613.9848   3764025.6654   1   7   0.0182   0.0272   0.0193  -0.0217   0.0223  -0.0184   0.00  999.9
2061 208845.000  -3120040.3514   4084613.9830   3764025.6640   1   7   0.0181   0.0271   0.0192  -0.0217   0.0222  -0.0183   0.00  999.9
2061 208846.000  -3120040.3498   4084613.9809   3764025.6625   1   7   0.0180   0.0270   0.0191  -0.0216   0.0221  -0.0182   0.00  999.9
2061 208847.000  -3120040.3482   4084613.9790   3764025.6609   1   7   0.0180   0.0269   0.0190  -0.0215   0.0220  -0.0182   0.00  999.9
2061 208848.000  -3120040.3463   4084613.9767   3764025.6591   1   7   0.0179   0.0268   0.0190  -0.0214   0.0219  -0.0181   0.00  999.9
2061 208849.000  -3120040.3446   4084613.9745   3764025.6575   1   7   0.0178   0.0267   0.0189  -0.0213   0.0218  -0.0180   0.00  999.9
2061 208850.000  -3120040.3431   4084613.9727   3764025.6561   1   7   0.0178   0.0266   0.0188  -0.0212   0.0217  -0.0180   0.00  999.9
2061 208851.000  -3120040.3420   4084613.9711   3764025.6550   1   7   0.0177   0.0265   0.0188  -0.0212   0.0217  -0.0179   0.00  999.9
2061 208852.000  -3120040.3406   4084613.9694   3764025.6537   1   7   0.0177   0.0264   0.0187  -0.0211   0.0216  -0.0179   0.00  999.9
2061 208853.000  -3120040.3392   4084613.9676   3764025.6523   1   7   0.0176   0.0263   0.0186  -0.0210   0.0215  -0.0178   0.00  999.9
2061 208854.000  -3120040.3380   4084613.9661   3764025.6512   1   7   0.0175   0.0263   0.0186  -0.0210   0.0215  -0.0177   0.00  999.9
2061 208855.000  -3120040.3365   4084613.9641   3764025.6497   1   7   0.0175   0.0262   0.0185  -0.0209   0.0214  -0.0177   0.00  999.9
2061 208856.000  -3120040.3353   4084613.9626   3764025.6486   1   7   0.0174   0.0261   0.0185  -0.0209   0.0214  -0.0176   0.00  999.9
2061 208857.000  -3120040.3341   4084613.9611   3764025.6475   1   7   0.0174   0.0261   0.0184  -0.0208   0.0213  -0.0176   0.00  999.9
2061 208858.000  -3120040.3329   4084613.9596   3764025.6463   1   7   0.0173   0.0260   0.0184  -0.0207   0.0212  -0.0175   0.00  999.9
2061 208859.000  -3120040.3317   4084613.9581   3764025.6452   1   7   0.0173   0.0259   0.0183  -0.0207   0.0212  -0.0175   0.00  999.9
2061 208860.000  -3120040.3307   4084613.9569   3764025.6443   1   7   0.0173   0.0259   0.0183  -0.0206   0.0211  -0.0175   0.00  999.9
2061 208861.000  -3120040.3297   4084613.9556   3764025.6434   1   7   0.0172   0.0258   0.0182  -0.0206   0.0211  -0.0174   0.00  999.9
2061 208862.000  -3120040.3286   4084613.9542   3764025.6423   1   7   0.0172   0.0258   0.0182  -0.0206   0.0210  -0.0174   0.00  999.9
2061 208863.000  -3120040.3275   4084613.9529   3764025.6413   1   7   0.0171   0.0257   0.0182  -0.0205   0.0210  -0.0173   0.00  999.9
2061 208864.000  -3120040.3267   4084613.9518   3764025.6405   1   7   0.0171   0.0256   0.0181  -0.0205   0.0209  -0.0173   0.00  999.9
2061 208865.000  -3120040.3259   4084613.9509   3764025.6398   1   7   0.0171   0.0256   0.0181  -0.0204   0.0209  -0.0173   0.00  999.9
2061 208866.000  -3120040.3251   4084613.9500   3764025.6392   1   7   0.0170   0.0255   0.0180  -0.0204   0.0209  -0.0172   0.00  999.9
2061 208867.000  -3120040.3243   4084613.9490   3764025.6385   1   7   0.0170   0.0255   0.0180  -0.0203   0.0208  -0.0172   0.00  999.9
2061 208868.000  -3120040.3236   4084613.9481   3764025.6378   1   7   0.0170   0.0255   0.0180  -0.0203   0.0208  -0.0171   0.00  999.9
2061 208869.000  -3120040.3228   4084613.9472   3764025.6370   1   7   0.0169   0.0254   0.0179  -0.0203   0.0207  -0.0171   0.00  999.9
2061 208870.000  -3120040.3221   4084613.9463   3764025.6364   1   7   0.0169   0.0254   0.0179  -0.0202   0.0207  -0.0171   0.00  999.9
2061 208871.000  -3120040.3214   4084613.9455   3764025.6358   1   7   0.0169   0.0253   0.0179  -0.0202   0.0207  -0.0171   0.00  999.9
2061 208872.000  -3120040.3208   4084613.9448   3764025.6352   1   7   0.0168   0.0253   0.0178  -0.0202   0.0206  -0.0170   0.00  999.9
2061 208873.000  -3120040.3202   4084613.9440   3764025.6347   1   7   0.0168   0.0252   0.0178  -0.0201   0.0206  -0.0170   0.00  999.9
2061 208874.000  -3120040.3196   4084613.9432   3764025.6341   1   7   0.0168   0.0252   0.0178  -0.0201   0.0206  -0.0170   0.00  999.9
2061 208875.000  -3120040.3190   4084613.9424   3764025.6335   1   7   0.0167   0.0252   0.0177  -0.0201   0.0205  -0.0169   0.00  999.9
2061 208876.000  -3120040.3184   4084613.9417   3764025.6330   1   7   0.0167   0.0251   0.0177  -0.0200   0.0205  -0.0169   0.00  999.9
2061 208877.000  -3120040.3178   4084613.9410   3764025.6324   1   7   0.0167   0.0251   0.0177  -0.0200   0.0205  -0.0169   0.00  999.9
2061 208878.000  -3120040.3174   4084613.9405   3764025.6320   1   7   0.0167   0.0251   0.0177  -0.0200   0.0204  -0.0169   0.00  999.9
2061 208879.000  -3120040.3169   4084613.9399   3764025.6316   1   7   0.0166   0.0250   0.0176  -0.0199   0.0204  -0.0168   0.00  999.9
2061 208880.000  -3120040.3165   4084613.9394   3764025.6312   1   7   0.0166   0.0250   0.0176  -0.0199   0.0204  -0.0168   0.00  999.9
2061 208881.000  -3120040.3161   4084613.9390   3764025.6309   1   7   0.0166   0.0250   0.0176  -0.0199   0.0204  -0.0168   0.00  999.9
2061 208882.000  -3120040.3157   4084613.9385   3764025.6305   1   7   0.0166   0.0249   0.0176  -0.0199   0.0203  -0.0168   0.00  999.9
2061 208883.000  -3120040.3154   4084613.9382   3764025.6303   1   7   0.0166   0.0249   0.0175  -0.0198   0.0203  -0.0167   0.00  999.9
2061 208884.000  -3120040.3152   4084613.9379   3764025.6301   1   7   0.0165   0.0249   0.0175  -0.0198   0.0203  -0.0167   0.00  999.9
2061 208885.000  -3120040.3149   4084613.9376   3764025.6299   1   7   0.0165   0.0248   0.0175  -0.0198   0.0203  -0.0167   0.00  999.9
2061 208886.000  -3120040.3147   4084613.9374   3764025.6297   1   7   0.0165   0.0248   0.0175  -0.0198   0.0202  -0.0167   0.00  999.9
2061 208887.000  -3120040.3146   4084613.9373   3764025.6296   1   7   0.0165   0.0248   0.0175  -0.0197   0.0202  -0.0167   0.00  999.9
2061 208888.000  -3120040.3144   4084613.9371   3764025.6295   1   7   0.0165   0.0247   0.0174  -0.0197   0.0202  -0.0166   0.00  999.9
2061 208889.000  -3120040.3142   4084613.9370   3764025.6294   1   7   0.0164   0.0247   0.0174  -0.0197   0.0202  -0.0166   0.00  999.9
2061 208890.000  -3120040.3141   4084613.9368   3764025.6293   1   7   0.0164   0.0247   0.0174  -0.0197   0.0201  -0.0166   0.00  999.9
2061 208891.000  -3120040.3140   4084613.9367   3764025.6292   1   7   0.0164   0.0247   0.0174  -0.0196   0.0201  -0.0166   0.00  999.9
2061 208892.000  -3120040.3140   4084613.9367   3764025.6292   1   7   0.0164   0.0246   0.0174  -0.0196   0.0201  -0.0166   0.00  999.9
2061 208893.000  -3120040.3140   4084613.9368   3764025.6292   1   7   0.0164   0.0246   0.0173  -0.0196   0.0201  -0.0165   0.00  999.9
2061 208894.000  -3120040.3139   4084613.9367   3764025.6292   1   7   0.0163   0.0246   0.0173  -0.0196   0.0201  -0.0165   0.00  999.9
2061 208895.000  -3120040.3139   4084613.9368   3764025.6293   1   7   0.0163   0.0246   0.0173  -0.0196   0.0200  -0.0165   0.00  999.9
2061 208896.000  -3120040.3139   4084613.9368   3764025.6293   1   7   0.0163   0.0246   0.0173  -0.0195   0.0200  -0.0165   0.00  999.9
2061 208897.000  -3120040.3140   4084613.9369   3764025.6294   1   7   0.0163   0.0245   0.0173  -0.0195   0.0200  -0.0165   0.00  999.9
2061 208898.000  -3120040.3140   4084613.9370   3764025.6295   1   7   0.0163   0.0245   0.0173  -0.0195   0.0200  -0.0165   0.00  999.9
2061 208899.000  -3120040.3141   4084613.9372   3764025.6296   1   7   0.0163   0.0245   0.0172  -0.0195   0.0200  -0.0164   0.00  999.9
2061 208900.000  -3120040.3142   4084613.9374   3764025.6297   1   7   0.0162   0.0245   0.0172  -0.0195   0.0199  -0.0164   0.00  999.9
2061 208901.000  -3120040.3144   4084613.9376   3764025.6299   1   7   0.0162   0.0244   0.0172  -0.0195   0.0199  -0.0164   0.00  999.9
2061 208902.000  -3120040.3145   4084613.9378   3764025.6301   1   7   0.0162   0.0244   0.0172  -0.0194   0.0199  -0.0164   0.00  999.9
2061 208903.000  -3120040.3146   4084613.9380   3764025.6302   1   7   0.0162   0.0244   0.0172  -0.0194   0.0199  -0.0164   0.00  999.9
2061 208904.000  -3120040.3147   4084613.9381   3764025.6303   1   7   0.0162   0.0244   0.0172  -0.0194   0.0199  -0.0164   0.00  999.9
2061 208905.000  -3120040.3148   4084613.9383   3764025.6304   1   7   0.0162   0.0244   0.0172  -0.0194   0.0199  -0.0164   0.00  999.9
2061 208906.000  -3120040.3150   4084613.9386   3764025.6306   1   7   0.0162   0.0244   0.0171  -0.0194   0.0198  -0.0163   0.00  999.9
2061 208907.000  -3120040.3151   4084613.9387   3764025.6308   1   7   0.0162   0.0243   0.0171  -0.0194   0.0198  -0.0163   0.00  999.9
2061 208908.000  -3120040.3152   4084613.9390   3764025.6309   1   7   0.0161   0.0243   0.0171  -0.0194   0.0198  -0.0163   0.00  999.9
2061 208909.000  -3120040.3153   4084613.9391   3764025.6310   1   7   0.0161   0.0243   0.0171  -0.0193   0.0198  -0.0163   0.00  999.9
2061 208910.000  -3120040.3154   4084613.9392   3764025.6311   1   7   0.0161   0.0243   0.0171  -0.0193   0.0198  -0.0163   0.00  999.9
2061 208911.000  -3120040.3155   4084613.9394   3764025.6313   1   7   0.0161   0.0243   0.0171  -0.0193   0.0198  -0.0163   0.00  999.9
2061 208912.000  -3120040.3155   4084613.9395   3764025.6313   1   7   0.0161   0.0242   0.0171  -0.0193   0.0198  -0.0163   0.00  999.9
2061 208913.000  -3120040.3156   4084613.9397   3764025.6314   1   7   0.0161   0.0242   0.0170  -0.0193   0.0197  -0.0163   0.00  999.9
2061 208914.000  -3120040.3157   4084613.9398   3764025.6315   1   7   0.0161   0.0242   0.0170  -0.0193   0.0197  -0.0163   0.00  999.9
2061 208915.000  -3120040.3157   4084613.9399   3764025.6315   1   7   0.0161   0.0242   0.0170  -0.0193   0.0197  -0.0162   0.00  999.9
2061 208916.000  -3120040.3158   4084613.9400   3764025.6316   1   7   0.0160   0.0242   0.0170  -0.0192   0.0197  -0.0162   0.00  999.9
2061 208917.000  -3120040.3158   4084613.9401   3764025.6317   1   7   0.0160   0.0242   0.0170  -0.0192   0.0197  -0.0162   0.00  999.9
2061 208918.000  -3120040.3159   4084613.9402   3764025.6317   1   7   0.0160   0.0242   0.0170  -0.0192   0.0197  -0.0162   0.00  999.9
2061 208919.000  -3120040.3160   4084613.9403   3764025.6318   1   7   0.0160   0.0241   0.0170  -0.0192   0.0197  -0.0162   0.00  999.9
2061 208920.000  -3120040.3161   4084613.9405   3764025.6319   1   7   0.0160   0.0241   0.0170  -0.0192   0.0197  -0.0162   0.00  999.9
2061 208921.000  -3120040.3161   4084613.9406   3764025.6320   1   7   0.0160   0.0241   0.0170  -0.0192   0.0196  -0.0162   0.00  999.9
2061 208922.000  -3120040.3161   4084613.9407   3764025.6320   1   7   0.0160   0.0241   0.0169  -0.0192   0.0196  -0.0162   0.00  999.9
2061 208923.000  -3120040.3163   4084613.9409   3764025.6322   1   7   0.0160   0.0241   0.0169  -0.0192   0.0196  -0.0162   0.00  999.9
2061 208924.000  -3120040.3163   4084613.9411   3764025.6323   1   7   0.0160   0.0241   0.0169  -0.0192   0.0196  -0.0161   0.00  999.9
2061 208925.000  -3120040.3163   4084613.9411   3764025.6323   1   7   0.0160   0.0241   0.0169  -0.0191   0.0196  -0.0161   0.00  999.9
2061 208926.000  -3120040.3164   4084613.9412   3764025.6323   1   7   0.0159   0.0240   0.0169  -0.0191   0.0196  -0.0161   0.00  999.9
2061 208927.000  -3120040.3164   4084613.9412   3764025.6323   1   7   0.0159   0.0240   0.0169  -0.0191   0.0196  -0.0161   0.00  999.9
2061 208928.000  -3120040.3164   4084613.9414   3764025.6324   1   7   0.0159   0.0240   0.0169  -0.0191   0.0196  -0.0161   0.00  999.9
2061 208929.000  -3120040.3165   4084613.9415   3764025.6325   1   7   0.0159   0.0240   0.0169  -0.0191   0.0196  -0.0161   0.00  999.9
2061 208930.000  -3120040.3166   4084613.9417   3764025.6326   1   7   0.0159   0.0240   0.0169  -0.0191   0.0195  -0.0161   0.00  999.9
2061 208931.000  -3120040.3166   4084613.9417   3764025.6326   1   7   0.0159   0.0240   0.0169  -0.0191   0.0195  -0.0161   0.00  999.9
2061 208932.000  -3120040.3166   4084613.9418   3764025.6327   1   7   0.0159   0.0240   0.0169  -0.0191   0.0195  -0.0161   0.00  999.9
2061 208933.000  -3120040.3167   4084613.9419   3764025.6327   1   7   0.0159   0.0240   0.0168  -0.0191   0.0195  -0.0161   0.00  999.9
2061 208934.000  -3120040.3168   4084613.9421   3764025.6329   1   7   0.0159   0.0240   0.0168  -0.0191   0.0195  -0.0161   0.00  999.9
2061 208935.000  -3120040.3169   4084613.9423   3764025.6329   1   7   0.0159   0.0239   0.0168  -0.0190   0.0195  -0.0161   0.00  999.9
2061 208936.000  -3120040.3169   4084613.9424   3764025.6330   1   7   0.0159   0.0239   0.0168  -0.0190   0.0195  -0.0160   0.00  999.9
2061 208937.000  -3120040.3170   4084613.9426   3764025.6331   1   7   0.0159   0.0239   0.0168  -0.0190   0.0195  -0.0160   0.00  999.9
2061 208938.000  -3120040.3171   4084613.9428   3764025.6332   1   7   0.0158   0.0239   0.0168  -0.0190   0.0195  -0.0160   0.00  999.9
2061 208939.000  -3120040.3172   4084613.9429   3764025.6333   1   7   0.0158   0.0239   0.0168  -0.0190   0.0195  -0.0160   0.00  999.9
2061 208940.000  -3120040.3172   4084613.9430   3764025.6333   1   7   0.0158   0.0239   0.0168  -0.0190   0.0195  -0.0160   0.00  999.9
2061 208941.000  -3120040.3173   4084613.9432   3764025.6334   1   7   0.0158   0.0239   0.0168  -0.0190   0.0194  -0.0160   0.00  999.9
2061 208942.000  -3120040.3173   4084613.9433   3764025.6335   1   7   0.0158   0.0239   0.0168  -0.0190   0.0194  -0.0160   0.00  999.9
2061 208943.000  -3120040.3174   4084613.9435   3764025.6336   1   7   0.0158   0.0239   0.0168  -0.0190   0.0194  -0.0160   0.00  999.9
2061 208944.000  -3120040.3175   4084613.9437   3764025.6337   1   7   0.0158   0.0238   0.0168  -0.0190   0.0194  -0.0160   0.00  999.9
2061 208945.000  -3120040.3175   4084613.9437   3764025.6337   1   7   0.0158   0.0238   0.0168  -0.0190   0.0194  -0.0160   0.00  999.9
2061 208946.000  -3120040.3175   4084613.9438   3764025.6338   1   7   0.0158   0.0238   0.0167  -0.0189   0.0194  -0.0160   0.00  999.9
2061 208947.000  -3120040.3176   4084613.9439   3764025.6338   1   7   0.0158   0.0238   0.0167  -0.0189   0.0194  -0.0160   0.00  999.9
2061 208948.000  -3120040.3176   4084613.9441   3764025.6339   1   7   0.0158   0.0238   0.0167  -0.0189   0.0194  -0.0160   0.00  999.9
2061 208949.000  -3120040.3177   4084613.9442   3764025.6340   1   7   0.0158   0.0238   0.0167  -0.0189   0.0194  -0.0160   0.00  999.9
2061 208950.000  -3120040.3177   4084613.9443   3764025.6341   1   7   0.0158   0.0238   0.0167  -0.0189   0.0194  -0.0159   0.00  999.9
2061 208951.000  -3120040.3178   4084613.9445   3764025.6342   1   7   0.0158   0.0238   0.0167  -0.0189   0.0194  -0.0159   0.00  999.9
2061 208952.000  -3120040.3179   4084613.9446   3764025.6343   1   7   0.0158   0.0238   0.0167  -0.0189   0.0194  -0.0159   0.00  999.9
2061 208953.000  -3120040.3181   4084613.9449   3764025.6345   1   7   0.0157   0.0238   0.0167  -0.0189   0.0193  -0.0159   0.00  999.9
2061 208954.000  -3120040.3181   4084613.9450   3764025.6346   1   7   0.0157   0.0238   0.0167  -0.0189   0.0193  -0.0159   0.00  999.9
2061 208955.000  -3120040.3182   4084613.9452   3764025.6347   1   7   0.0157   0.0237   0.0167  -0.0189   0.0193  -0.0159   0.00  999.9
2061 208956.000  -3120040.3182   4084613.9453   3764025.6347   1   7   0.0157   0.0237   0.0167  -0.0189   0.0193  -0.0159   0.00  999.9
2061 208957.000  -3120040.3183   4084613.9454   3764025.6348   1   7   0.0157   0.0237   0.0167  -0.0189   0.0193  -0.0159   0.00  999.9
2061 208958.000  -3120040.3183   4084613.9455   3764025.6349   1   7   0.0157   0.0237   0.0167  -0.0189   0.0193  -0.0159   0.00  999.9
2061 208959.000  -3120040.3184   4084613.9456   3764025.6350   1   7   0.0157   0.0237   0.0167  -0.0188   0.0193  -0.0159   0.00  999.9
2061 208960.000  -3120040.3185   4084613.9459   3764025.6351   1   7   0.0157   0.0237   0.0166  -0.0188   0.0193  -0.0159   0.00  999.9
2061 208961.000  -3120040.3186   4084613.9460   3764025.6353   1   7   0.0157   0.0237   0.0166  -0.0188   0.0193  -0.0159   0.00  999.9
2061 208962.000  -3120040.3187   4084613.9462   3764025.6354   1   7   0.0157   0.0237   0.0166  -0.0188   0.0193  -0.0159   0.00  999.9
2061 208963.000  -3120040.3188   4084613.9464   3764025.6355   1   7   0.0157   0.0237   0.0166  -0.0188   0.0193  -0.0159   0.00  999.9
2061 208964.000  -3120040.3189   4084613.9466   3764025.6356   1   7   0.0157   0.0237   0.0166  -0.0188   0.0193  -0.0158   0.00  999.9
2061 208965.000  -3120040.3190   4084613.9467   3764025.6357   1   7   0.0157   0.0236   0.0166  -0.0188   0.0192  -0.0158   0.00  999.9
2061 208966.000  -3120040.3191   4084613.9469   3764025.6359   1   7   0.0157   0.0236   0.0166  -0.0188   0.0192  -0.0158   0.00  999.9
2061 208967.000  -3120040.3192   4084613.9471   3764025.6360   1   7   0.0156   0.0236   0.0166  -0.0188   0.0192  -0.0158   0.00  999.9
2061 208968.000  -3120040.3193   4084613.9473   3764025.6362   1   7   0.0156   0.0236   0.0166  -0.0188   0.0192  -0.0158   0.00  999.9
2061 208969.000  -3120040.3194   4084613.9475   3764025.6363   1   7   0.0156   0.0236   0.0166  -0.0188   0.0192  -0.0158   0.00  999.9
2061 208970.000  -3120040.3195   4084613.9477   3764025.6365   1   7   0.0156   0.0236   0.0166  -0.0187   0.0192  -0.0158   0.00  999.9
2061 208971.000  -3120040.3197   4084613.9479   3764025.6366   1   7   0.0156   0.0236   0.0166  -0.0187   0.0192  -0.0158   0.00  999.9
2061 208972.000  -3120040.3197   4084613.9481   3764025.6367   1   7   0.0156   0.0236   0.0165  -0.0187   0.0192  -0.0158   0.00  999.9
2061 208973.000  -3120040.3199   4084613.9483   3764025.6369   1   7   0.0156   0.0236   0.0165  -0.0187   0.0192  -0.0158   0.00  999.9
2061 208974.000  -3120040.3199   4084613.9485   3764025.6370   1   7   0.0156   0.0235   0.0165  -0.0187   0.0192  -0.0158   0.00  999.9
2061 208975.000  -3120040.3200   4084613.9486   3764025.6371   1   7   0.0156   0.0235   0.0165  -0.0187   0.0191  -0.0158   0.00  999.9
2061 208976.000  -3120040.3201   4084613.9488   3764025.6372   1   7   0.0156   0.0235   0.0165  -0.0187   0.0191  -0.0157   0.00  999.9
2061 208977.000  -3120040.3202   4084613.9491   3764025.6374   1   7   0.0156   0.0235   0.0165  -0.0187   0.0191  -0.0157   0.00  999.9
2061 208978.000  -3120040.3204   4084613.9493   3764025.6376   1   7   0.0156   0.0235   0.0165  -0.0187   0.0191  -0.0157   0.00  999.9
2061 208979.000  -3120040.3205   4084613.9496   3764025.6378   1   7   0.0155   0.0235   0.0165  -0.0187   0.0191  -0.0157   0.00  999.9
2061 208980.000  -3120040.3206   4084613.9498   3764025.6379   1   7   0.0155   0.0235   0.0165  -0.0186   0.0191  -0.0157   0.00  999.9
2061 208981.000  -3120040.3207   4084613.9500   3764025.6380   1   7   0.0155   0.0235   0.0165  -0.0186   0.0191  -0.0157   0.00  999.9
2061 208982.000  -3120040.3208   4084613.9503   3764025.6382   1   7   0.0155   0.0234   0.0165  -0.0186   0.0191  -0.0157   0.00  999.9
2061 208983.000  -3120040.3209   4084613.9505   3764025.6383   1   7   0.0155   0.0234   0.0164  -0.0186   0.0191  -0.0157   0.00  999.9
2061 208984.000  -3120040.3211   4084613.9508   3764025.6385   1   7   0.0155   0.0234   0.0164  -0.0186   0.0190  -0.0157   0.00  999.9
2061 208985.000  -3120040.3212   4084613.9510   3764025.6387   1   7   0.0155   0.0234   0.0164  -0.0186   0.0190  -0.0157   0.00  999.9
2061 208986.000  -3120040.3213   4084613.9513   3764025.6388   1   7   0.0155   0.0234   0.0164  -0.0186   0.0190  -0.0157   0.00  999.9
2061 208987.000  -3120040.3214   4084613.9515   3764025.6390   1   7   0.0155   0.0234   0.0164  -0.0186   0.0190  -0.0156   0.00  999.9
2061 208988.000  -3120040.3215   4084613.9518   3764025.6391   1   7   0.0155   0.0234   0.0164  -0.0186   0.0190  -0.0156   0.00  999.9
2061 208989.000  -3120040.3216   4084613.9520   3764025.6392   1   7   0.0154   0.0233   0.0164  -0.0185   0.0190  -0.0156   0.00  999.9
2061 208990.000  -3120040.3217   4084613.9523   3764025.6394   1   7   0.0154   0.0233   0.0164  -0.0185   0.0190  -0.0156   0.00  999.9
2061 208991.000  -3120040.3219   4084613.9525   3764025.6395   1   7   0.0154   0.0233   0.0164  -0.0185   0.0190  -0.0156   0.00  999.9
2061 208992.000  -3120040.3220   4084613.9528   3764025.6397   1   7   0.0154   0.0233   0.0163  -0.0185   0.0190  -0.0156   0.00  999.9
2061 208993.000  -3120040.3221   4084613.9531   3764025.6399   1   7   0.0154   0.0233   0.0163  -0.0185   0.0189  -0.0156   0.00  999.9
2061 208994.000  -3120040.3223   4084613.9534   3764025.6400   1   7   0.0154   0.0233   0.0163  -0.0185   0.0189  -0.0156   0.00  999.9
2061 208995.000  -3120040.3224   4084613.9537   3764025.6402   1   7   0.0154   0.0233   0.0163  -0.0185   0.0189  -0.0156   0.00  999.9
2061 208996.000  -3120040.3225   4084613.9540   3764025.6403   1   7   0.0154   0.0232   0.0163  -0.0185   0.0189  -0.0155   0.00  999.9
2061 208997.000  -3120040.3226   4084613.9542   3764025.6404   1   7   0.0154   0.0232   0.0163  -0.0184   0.0189  -0.0155   0.00  999.9
2061 208998.000  -3120040.3227   4084613.9545   3764025.6406   1   7   0.0153   0.0232   0.0163  -0.0184   0.0189  -0.0155   0.00  999.9
2061 208999.000  -3120040.3228   4084613.9548   3764025.6407   1   7   0.0153   0.0232   0.0163  -0.0184   0.0189  -0.0155   0.00  999.9
2061 209000.000  -3120040.3229   4084613.9550   3764025.6408   1   7   0.0153   0.0232   0.0162  -0.0184   0.0188  -0.0155   0.00  999.9
2061 209001.000  -3120040.3230   4084613.9552   3764025.6409   1   7   0.0153   0.0231   0.0162  -0.0184   0.0188  -0.0155   0.00  999.9
2061 209002.000  -3120040.3231   4084613.9555   3764025.6411   1   7   0.0153   0.0231   0.0162  -0.0184   0.0188  -0.0155   0.00  999.9
2061 209003.000  -3120040.3232   4084613.9559   3764025.6412   1   7   0.0153   0.0231   0.0162  -0.0184   0.0188  -0.0155   0.00  999.9
2061 209004.000  -3120040.3233   4084613.9562   3764025.6414   1   7   0.0153   0.0231   0.0162  -0.0183   0.0188  -0.0154   0.00  999.9
2061 209005.000  -3120040.3235   4084613.9566   3764025.6416   1   7   0.0152   0.0231   0.0162  -0.0183   0.0188  -0.0154   0.00  999.9
2061 209006.000  -3120040.3237   4084613.9570   3764025.6418   1   7   0.0152   0.0231   0.0162  -0.0183   0.0187  -0.0154   0.00  999.9
2061 209007.000  -3120040.3238   4084613.9573   3764025.6420   1   7   0.0152   0.0230   0.0161  -0.0183   0.0187  -0.0154   0.00  999.9
2061 209008.000  -3120040.3240   4084613.9578   3764025.6423   1   7   0.0152   0.0230   0.0161  -0.0183   0.0187  -0.0154   0.00  999.9
2061 209009.000  -3120040.3242   4084613.9582   3764025.6426   1   7   0.0152   0.0230   0.0161  -0.0183   0.0187  -0.0154   0.00  999.9
2061 209010.000  -3120040.3244   4084613.9587   3764025.6428   1   7   0.0152   0.0230   0.0161  -0.0182   0.0187  -0.0154   0.00  999.9
2061 209011.000  -3120040.3246   4084613.9592   3764025.6431   1   7   0.0152   0.0230   0.0161  -0.0182   0.0187  -0.0153   0.00  999.9
2061 209012.000  -3120040.3248   4084613.9596   3764025.6434   1   7   0.0151   0.0229   0.0161  -0.0182   0.0186  -0.0153   0.00  999.9
2061 209013.000  -3120040.3251   4084613.9602   3764025.6437   1   7   0.0151   0.0229   0.0161  -0.0182   0.0186  -0.0153   0.00  999.9
2061 209014.000  -3120040.3253   4084613.9606   3764025.6440   1   7   0.0151   0.0229   0.0160  -0.0182   0.0186  -0.0153   0.00  999.9
2061 209015.000  -3120040.3255   4084613.9610   3764025.6442   1   7   0.0151   0.0229   0.0160  -0.0181   0.0186  -0.0153   0.00  999.9
2061 209016.000  -3120040.3257   4084613.9615   3764025.6445   1   7   0.0151   0.0228   0.0160  -0.0181   0.0186  -0.0153   0.00  999.9
2061 209017.000  -3120040.3259   4084613.9620   3764025.6448   1   7   0.0151   0.0228   0.0160  -0.0181   0.0185  -0.0152   0.00  999.9
2061 209018.000  -3120040.3260   4084613.9624   3764025.6450   1   7   0.0150   0.0228   0.0160  -0.0181   0.0185  -0.0152   0.00  999.9
2061 209019.000  -3120040.3262   4084613.9629   3764025.6453   1   7   0.0150   0.0228   0.0160  -0.0181   0.0185  -0.0152   0.00  999.9
2061 209020.000  -3120040.3264   4084613.9633   3764025.6455   1   7   0.0150   0.0227   0.0159  -0.0180   0.0185  -0.0152   0.00  999.9
2061 209021.000  -3120040.3266   4084613.9638   3764025.6458   1   7   0.0150   0.0227   0.0159  -0.0180   0.0185  -0.0152   0.00  999.9
2061 209022.000  -3120040.3268   4084613.9644   3764025.6461   1   7   0.0150   0.0227   0.0159  -0.0180   0.0184  -0.0151   0.00  999.9
2061 209023.000  -3120040.3270   4084613.9648   3764025.6464   1   7   0.0150   0.0227   0.0159  -0.0180   0.0184  -0.0151   0.00  999.9
2061 209024.000  -3120040.3272   4084613.9654   3764025.6467   1   7   0.0149   0.0226   0.0159  -0.0180   0.0184  -0.0151   0.00  999.9
2061 209025.000  -3120040.3274   4084613.9659   3764025.6470   1   7   0.0149   0.0226   0.0158  -0.0179   0.0184  -0.0151   0.00  999.9
2061 209026.000  -3120040.3276   4084613.9663   3764025.6473   1   7   0.0149   0.0226   0.0158  -0.0179   0.0183  -0.0151   0.00  999.9
2061 209027.000  -3120040.3277   4084613.9668   3764025.6475   1   7   0.0149   0.0226   0.0158  -0.0179   0.0183  -0.0151   0.00  999.9
2061 209028.000  -3120040.3278   4084613.9672   3764025.6477   1   7   0.0149   0.0225   0.0158  -0.0179   0.0183  -0.0150   0.00  999.9
2061 209029.000  -3120040.3280   4084613.9676   3764025.6480   1   7   0.0148   0.0225   0.0157  -0.0178   0.0183  -0.0150   0.00  999.9
2061 209030.000  -3120040.3281   4084613.9680   3764025.6482   1   7   0.0148   0.0225   0.0157  -0.0178   0.0182  -0.0150   0.00  999.9
2061 209031.000  -3120040.3283   4084613.9685   3764025.6485   1   7   0.0148   0.0224   0.0157  -0.0178   0.0182  -0.0150   0.00  999.9
2061 209032.000  -3120040.3285   4084613.9691   3764025.6487   1   7   0.0148   0.0224   0.0157  -0.0178   0.0182  -0.0149   0.00  999.9
2061 209033.000  -3120040.3286   4084613.9695   3764025.6490   1   7   0.0148   0.0224   0.0157  -0.0177   0.0182  -0.0149   0.00  999.9
2061 209034.000  -3120040.3288   4084613.9701   3764025.6493   1   7   0.0147   0.0223   0.0156  -0.0177   0.0181  -0.0149   0.00  999.9
2061 209035.000  -3120040.3290   4084613.9707   3764025.6496   1   7   0.0147   0.0223   0.0156  -0.0177   0.0181  -0.0149   0.00  999.9
2061 209036.000  -3120040.3292   4084613.9712   3764025.6499   1   7   0.0147   0.0223   0.0156  -0.0177   0.0181  -0.0148   0.00  999.9
2061 209037.000  -3120040.3294   4084613.9718   3764025.6502   1   7   0.0147   0.0222   0.0156  -0.0176   0.0181  -0.0148   0.00  999.9
2061 209038.000  -3120040.3296   4084613.9724   3764025.6505   1   7   0.0146   0.0222   0.0155  -0.0176   0.0180  -0.0148   0.00  999.9
2061 209039.000  -3120040.3299   4084613.9731   3764025.6509   1   7   0.0146   0.0222   0.0155  -0.0176   0.0180  -0.0148   0.00  999.9
2061 209040.000  -3120040.3302   4084613.9738   3764025.6513   1   7   0.0146   0.0221   0.0155  -0.0175   0.0180  -0.0147   0.00  999.9
2061 209041.000  -3120040.3305   4084613.9744   3764025.6516   1   7   0.0146   0.0221   0.0154  -0.0175   0.0179  -0.0147   0.00  999.9
2061 209042.000  -3120040.3307   4084613.9750   3764025.6518   1   7   0.0145   0.0220   0.0154  -0.0175   0.0179  -0.0147   0.00  999.9
2061 209043.000  -3120040.3309   4084613.9755   3764025.6521   1   7   0.0145   0.0220   0.0154  -0.0174   0.0179  -0.0147   0.00  999.9
2061 209044.000  -3120040.3311   4084613.9761   3764025.6524   1   7   0.0145   0.0220   0.0154  -0.0174   0.0178  -0.0146   0.00  999.9
2061 209045.000  -3120040.3314   4084613.9770   3764025.6528   1   7   0.0144   0.0219   0.0153  -0.0174   0.0178  -0.0146   0.00  999.9
2061 209046.000  -3120040.3318   4084613.9778   3764025.6532   1   7   0.0144   0.0219   0.0153  -0.0173   0.0178  -0.0146   0.00  999.9
2061 209047.000  -3120040.3322   4084613.9787   3764025.6537   1   7   0.0144   0.0218   0.0153  -0.0173   0.0177  -0.0145   0.00  999.9
2061 209048.000  -3120040.3325   4084613.9795   3764025.6541   1   7   0.0143   0.0218   0.0152  -0.0173   0.0177  -0.0145   0.00  999.9
2061 209049.000  -3120040.3329   4084613.9804   3764025.6546   1   7   0.0143   0.0217   0.0152  -0.0172   0.0176  -0.0145   0.00  999.9
2061 209050.000  -3120040.3335   4084613.9816   3764025.6552   1   7   0.0143   0.0217   0.0152  -0.0172   0.0176  -0.0144   0.00  999.9
2061 209051.000  -3120040.3339   4084613.9826   3764025.6556   1   7   0.0142   0.0216   0.0151  -0.0171   0.0176  -0.0144   0.00  999.9
2061 209052.000  -3120040.3345   4084613.9839   3764025.6563   1   7   0.0142   0.0216   0.0151  -0.0171   0.0175  -0.0144   0.00  999.9
2061 209053.000  -3120040.3351   4084613.9851   3764025.6570   1   7   0.0142   0.0215   0.0150  -0.0171   0.0175  -0.0143   0.00  999.9
2061 209054.000  -3120040.3356   4084613.9863   3764025.6575   1   7   0.0141   0.0215   0.0150  -0.0170   0.0174  -0.0143   0.00  999.9
2061 209055.000  -3120040.3363   4084613.9877   3764025.6583   1   7   0.0141   0.0214   0.0150  -0.0170   0.0174  -0.0143   0.00  999.9
2061 209056.000  -3120040.3370   4084613.9892   3764025.6591   1   7   0.0141   0.0214   0.0149  -0.0169   0.0173  -0.0142   0.00  999.9
2061 209057.000  -3120040.3376   4084613.9906   3764025.6598   1   7   0.0140   0.0213   0.0149  -0.0169   0.0173  -0.0142   0.00  999.9
2061 209058.000  -3120040.3382   4084613.9919   3764025.6605   1   7   0.0140   0.0213   0.0148  -0.0168   0.0172  -0.0141   0.00  999.9
2061 209059.000  -3120040.3390   4084613.9935   3764025.6614   1   7   0.0139   0.0212   0.0148  -0.0168   0.0172  -0.0141   0.00  999.9
2061 209060.000  -3120040.3395   4084613.9948   3764025.6620   1   7   0.0139   0.0211   0.0148  -0.0167   0.0171  -0.0141   0.00  999.9
2061 209061.000  -3120040.3400   4084613.9961   3764025.6625   1   7   0.0139   0.0211   0.0147  -0.0167   0.0171  -0.0140   0.00  999.9
2061 209062.000  -3120040.3405   4084613.9974   3764025.6632   1   7   0.0138   0.0210   0.0147  -0.0166   0.0170  -0.0140   0.00  999.9
2061 209063.000  -3120040.3409   4084613.9985   3764025.6636   1   7   0.0138   0.0210   0.0146  -0.0166   0.0170  -0.0139   0.00  999.9
2061 209064.000  -3120040.3416   4084614.0001   3764025.6645   1   7   0.0137   0.0209   0.0146  -0.0165   0.0169  -0.0139   0.00  999.9
2061 209065.000  -3120040.3422   4084614.0015   3764025.6651   1   7   0.0137   0.0208   0.0145  -0.0165   0.0169  -0.0138   0.00  999.9
2061 209066.000  -3120040.3427   4084614.0027   3764025.6657   1   7   0.0136   0.0207   0.0145  -0.0164   0.0168  -0.0138   0.00  999.9
2061 209067.000  -3120040.3433   4084614.0042   3764025.6664   1   7   0.0136   0.0207   0.0144  -0.0163   0.0167  -0.0137   0.00  999.9
2061 209068.000  -3120040.3440   4084614.0058   3764025.6671   1   7   0.0135   0.0206   0.0144  -0.0163   0.0167  -0.0137   0.00  999.9
2061 209069.000  -3120040.3447   4084614.0074   3764025.6679   1   7   0.0135   0.0205   0.0143  -0.0162   0.0166  -0.0136   0.00  999.9
2061 209070.000  -3120040.3452   4084614.0089   3764025.6685   1   7   0.0134   0.0204   0.0142  -0.0162   0.0165  -0.0136   0.00  999.9
2061 209071.000  -3120040.3462   4084614.0109   3764025.6696   1   7   0.0133   0.0203   0.0142  -0.0161   0.0165  -0.0135   0.00  999.9
2061 209072.000  -3120040.3469   4084614.0127   3764025.6705   1   7   0.0133   0.0203   0.0141  -0.0160   0.0164  -0.0134   0.00  999.9
2061 209073.000  -3120040.3477   4084614.0145   3764025.6713   1   7   0.0132   0.0202   0.0141  -0.0159   0.0163  -0.0134   0.00  999.9
2061 209074.000  -3120040.3485   4084614.0161   3764025.6721   1   7   0.0132   0.0201   0.0140  -0.0159   0.0163  -0.0133   0.00  999.9
2061 209075.000  -3120040.3496   4084614.0184   3764025.6734   1   7   0.0131   0.0200   0.0139  -0.0158   0.0162  -0.0133   0.00  999.9
2061 209076.000  -3120040.3506   4084614.0205   3764025.6744   1   7   0.0130   0.0199   0.0139  -0.0157   0.0161  -0.0132   0.00  999.9
2061 209077.000  -3120040.3518   4084614.0229   3764025.6757   1   7   0.0130   0.0198   0.0138  -0.0156   0.0160  -0.0131   0.00  999.9
2061 209078.000  -3120040.3531   4084614.0255   3764025.6772   1   7   0.0129   0.0197   0.0137  -0.0156   0.0159  -0.0131   0.00  999.9
2061 209079.000  -3120040.3543   4084614.0279   3764025.6785   1   7   0.0128   0.0196   0.0137  -0.0155   0.0159  -0.0130   0.00  999.9
2061 209080.000  -3120040.3554   4084614.0302   3764025.6798   1   7   0.0128   0.0195   0.0136  -0.0154   0.0158  -0.0129   0.00  999.9
2061 209081.000  -3120040.3568   4084614.0327   3764025.6813   1   7   0.0127   0.0194   0.0135  -0.0153   0.0157  -0.0128   0.00  999.9
2061 209082.000  -3120040.3583   4084614.0357   3764025.6830   1   7   0.0126   0.0193   0.0134  -0.0152   0.0156  -0.0128   0.00  999.9
2061 209083.000  -3120040.3599   4084614.0388   3764025.6848   1   7   0.0125   0.0191   0.0133  -0.0151   0.0155  -0.0127   0.00  999.9
2061 209084.000  -3120040.3615   4084614.0420   3764025.6866   1   7   0.0125   0.0190   0.0133  -0.0150   0.0154  -0.0126   0.00  999.9
2061 209085.000  -3120040.3628   4084614.0449   3764025.6882   1   7   0.0124   0.0189   0.0132  -0.0149   0.0153  -0.0125   0.00  999.9
2061 209086.000  -3120040.3643   4084614.0479   3764025.6899   1   7   0.0123   0.0188   0.0131  -0.0148   0.0152  -0.0125   0.00  999.9
2061 209087.000  -3120040.3657   4084614.0508   3764025.6914   1   7   0.0122   0.0187   0.0130  -0.0147   0.0151  -0.0124   0.00  999.9
2061 209088.000  -3120040.3674   4084614.0541   3764025.6933   1   7   0.0121   0.0185   0.0129  -0.0146   0.0150  -0.0123   0.00  999.9
2061 209089.000  -3120040.3693   4084614.0578   3764025.6954   1   7   0.0121   0.0184   0.0128  -0.0145   0.0149  -0.0122   0.00  999.9
2061 209090.000  -3120040.3713   4084614.0617   3764025.6976   1   7   0.0120   0.0183   0.0127  -0.0144   0.0148  -0.0121   0.00  999.9
2061 209091.000  -3120040.3732   4084614.0654   3764025.6998   1   7   0.0119   0.0181   0.0126  -0.0143   0.0147  -0.0120   0.00  999.9
2061 209092.000  -3120040.3752   4084614.0691   3764025.7018   1   7   0.0118   0.0180   0.0126  -0.0142   0.0146  -0.0119   0.00  999.9
2061 209093.000  -3120040.3772   4084614.0730   3764025.7040   1   7   0.0117   0.0179   0.0125  -0.0141   0.0145  -0.0119   0.00  999.9
2061 209094.000  -3120040.3795   4084614.0773   3764025.7065   1   7   0.0116   0.0177   0.0124  -0.0140   0.0144  -0.0118   0.00  999.9
2061 209095.000  -3120040.3818   4084614.0818   3764025.7090   1   7   0.0115   0.0176   0.0123  -0.0139   0.0143  -0.0117   0.00  999.9
2061 209096.000  -3120040.3843   4084614.0865   3764025.7118   1   7   0.0114   0.0174   0.0122  -0.0138   0.0141  -0.0116   0.00  999.9
2061 209097.000  -3120040.3868   4084614.0911   3764025.7144   1   7   0.0114   0.0173   0.0121  -0.0137   0.0140  -0.0115   0.00  999.9
2061 209098.000  -3120040.3894   4084614.0960   3764025.7170   1   7   0.0113   0.0172   0.0120  -0.0136   0.0139  -0.0114   0.00  999.9
2061 209099.000  -3120040.3919   4084614.1006   3764025.7195   1   7   0.0112   0.0170   0.0119  -0.0135   0.0138  -0.0113   0.00  999.9
2061 209100.000  -3120040.3945   4084614.1053   3764025.7222   1   7   0.0111   0.0169   0.0118  -0.0134   0.0137  -0.0112   0.00  999.9
2061 209101.000  -3120040.3968   4084614.1097   3764025.7245   1   7   0.0110   0.0168   0.0117  -0.0133   0.0136  -0.0112   0.00  999.9
2061 209102.000  -3120040.3993   4084614.1141   3764025.7269   1   7   0.0109   0.0167   0.0117  -0.0132   0.0135  -0.0111   0.00  999.9
2061 209103.000  -3120040.4015   4084614.1183   3764025.7292   1   7   0.0109   0.0165   0.0116  -0.0131   0.0134  -0.0110   0.00  999.9
2061 209104.000  -3120040.4033   4084614.1219   3764025.7309   1   7   0.0108   0.0164   0.0115  -0.0130   0.0133  -0.0109   0.00  999.9
2061 209105.000  -3120040.4052   4084614.1255   3764025.7327   1   7   0.0107   0.0163   0.0114  -0.0129   0.0132  -0.0109   0.00  999.9
2061 209106.000  -3120040.4075   4084614.1296   3764025.7349   1   7   0.0107   0.0162   0.0114  -0.0128   0.0132  -0.0108   0.00  999.9
2061 209107.000  -3120040.4095   4084614.1332   3764025.7370   1   7   0.0106   0.0161   0.0113  -0.0127   0.0131  -0.0107   0.00  999.9
2061 209108.000  -3120040.4112   4084614.1364   3764025.7387   1   7   0.0105   0.0160   0.0112  -0.0127   0.0130  -0.0107   0.00  999.9
2061 209109.000  -3120040.4129   4084614.1397   3764025.7405   1   7   0.0105   0.0159   0.0112  -0.0126   0.0129  -0.0106   0.00  999.9
2061 209110.000  -3120040.4148   4084614.1431   3764025.7425   1   7   0.0104   0.0158   0.0111  -0.0125   0.0129  -0.0106   0.00  999.9
2061 209111.000  -3120040.4162   4084614.1459   3764025.7440   1   7   0.0104   0.0158   0.0111  -0.0125   0.0128  -0.0105   0.00  999.9
2061 209112.000  -3120040.4177   4084614.1486   3764025.7455   1   7   0.0103   0.0157   0.0110  -0.0124   0.0128  -0.0105   0.00  999.9
2061 209113.000  -3120040.4191   4084614.1512   3764025.7470   1   7   0.0103   0.0156   0.0110  -0.0124   0.0127  -0.0104   0.00  999.9
2061 209114.000  -3120040.4205   4084614.1537   3764025.7486   1   7   0.0102   0.0155   0.0109  -0.0123   0.0126  -0.0104   0.00  999.9
2061 209115.000  -3120040.4219   4084614.1562   3764025.7500   1   7   0.0102   0.0155   0.0109  -0.0122   0.0126  -0.0103   0.00  999.9
2061 209116.000  -3120040.4232   4084614.1584   3764025.7513   1   7   0.0101   0.0154   0.0108  -0.0122   0.0125  -0.0103   0.00  999.9
2061 209117.000  -3120040.4247   4084614.1609   3764025.7528   1   7   0.0101   0.0154   0.0108  -0.0122   0.0125  -0.0102   0.00  999.9
2061 209118.000  -3120040.4258   4084614.1629   3764025.7540   1   7   0.0101   0.0153   0.0107  -0.0121   0.0124  -0.0102   0.00  999.9
2061 209119.000  -3120040.4270   4084614.1649   3764025.7551   1   7   0.0100   0.0153   0.0107  -0.0121   0.0124  -0.0102   0.00  999.9
2061 209120.000  -3120040.4282   4084614.1670   3764025.7563   1   7   0.0100   0.0152   0.0107  -0.0120   0.0124  -0.0101   0.00  999.9
2061 209121.000  -3120040.4292   4084614.1689   3764025.7574   1   7   0.0100   0.0152   0.0106  -0.0120   0.0123  -0.0101   0.00  999.9
2061 209122.000  -3120040.4303   4084614.1708   3764025.7585   1   7   0.0099   0.0151   0.0106  -0.0120   0.0123  -0.0101   0.00  999.9
2061 209123.000  -3120040.4313   4084614.1725   3764025.7596   1   7   0.0099   0.0151   0.0106  -0.0119   0.0123  -0.0101   0.00  999.9
2061 209124.000  -3120040.4322   4084614.1740   3764025.7604   1   7   0.0099   0.0150   0.0106  -0.0119   0.0122  -0.0100   0.00  999.9
2061 209125.000  -3120040.4330   4084614.1754   3764025.7612   1   7   0.0099   0.0150   0.0105  -0.0119   0.0122  -0.0100   0.00  999.9
2061 209126.000  -3120040.4339   4084614.1770   3764025.7622   1   7   0.0098   0.0150   0.0105  -0.0118   0.0122  -0.0100   0.00  999.9
2061 209127.000  -3120040.4349   4084614.1786   3764025.7632   1   7   0.0098   0.0149   0.0105  -0.0118   0.0121  -0.0100   0.00  999.9
2061 209128.000  -3120040.4358   4084614.1801   3764025.7640   1   7   0.0098   0.0149   0.0105  -0.0118   0.0121  -0.0099   0.00  999.9
2061 209129.000  -3120040.4367   4084614.1816   3764025.7649   1   7   0.0098   0.0149   0.0104  -0.0118   0.0121  -0.0099   0.00  999.9
2061 209130.000  -3120040.4375   4084614.1829   3764025.7657   1   7   0.0097   0.0148   0.0104  -0.0117   0.0121  -0.0099   0.00  999.9
2061 209131.000  -3120040.4383   4084614.1841   3764025.7665   1   7   0.0097   0.0148   0.0104  -0.0117   0.0120  -0.0099   0.00  999.9
2061 209132.000  -3120040.4390   4084614.1853   3764025.7672   1   7   0.0097   0.0148   0.0104  -0.0117   0.0120  -0.0099   0.00  999.9
2061 209133.000  -3120040.4397   4084614.1865   3764025.7678   1   7   0.0097   0.0148   0.0104  -0.0117   0.0120  -0.0098   0.00  999.9
2061 209134.000  -3120040.4404   4084614.1877   3764025.7686   1   7   0.0097   0.0147   0.0103  -0.0116   0.0120  -0.0098   0.00  999.9
2061 209135.000  -3120040.4410   4084614.1887   3764025.7691   1   7   0.0097   0.0147   0.0103  -0.0116   0.0120  -0.0098   0.00  999.9
2061 209136.000  -3120040.4416   4084614.1897   3764025.7697   1   7   0.0096   0.0147   0.0103  -0.0116   0.0119  -0.0098   0.00  999.9
2061 209137.000  -3120040.4422   4084614.1908   3764025.7703   1   7   0.0096   0.0147   0.0103  -0.0116   0.0119  -0.0098   0.00  999.9
2061 209138.000  -3120040.4428   4084614.1917   3764025.7708   1   7   0.0096   0.0146   0.0103  -0.0116   0.0119  -0.0098   0.00  999.9
2061 209139.000  -3120040.4434   4084614.1927   3764025.7713   1   7   0.0096   0.0146   0.0103  -0.0116   0.0119  -0.0097   0.00  999.9
2061 209140.000  -3120040.4439   4084614.1935   3764025.7718   1   7   0.0096   0.0146   0.0102  -0.0115   0.0119  -0.0097   0.00  999.9
2061 209141.000  -3120040.4444   4084614.1944   3764025.7722   1   7   0.0096   0.0146   0.0102  -0.0115   0.0118  -0.0097   0.00  999.9
2061 209142.000  -3120040.4449   4084614.1952   3764025.7727   1   7   0.0096   0.0146   0.0102  -0.0115   0.0118  -0.0097   0.00  999.9
2061 209143.000  -3120040.4454   4084614.1960   3764025.7731   1   7   0.0095   0.0145   0.0102  -0.0115   0.0118  -0.0097   0.00  999.9
2061 209144.000  -3120040.4459   4084614.1969   3764025.7736   1   7   0.0095   0.0145   0.0102  -0.0115   0.0118  -0.0097   0.00  999.9
2061 209145.000  -3120040.4464   4084614.1976   3764025.7740   1   7   0.0095   0.0145   0.0102  -0.0115   0.0118  -0.0097   0.00  999.9
2061 209146.000  -3120040.4468   4084614.1984   3764025.7744   1   7   0.0095   0.0145   0.0102  -0.0115   0.0118  -0.0097   0.00  999.9
2061 209147.000  -3120040.4473   4084614.1991   3764025.7748   1   7   0.0095   0.0145   0.0102  -0.0114   0.0118  -0.0096   0.00  999.9
2061 209148.000  -3120040.4477   4084614.1998   3764025.7752   1   7   0.0095   0.0145   0.0101  -0.0114   0.0118  -0.0096   0.00  999.9
2061 209149.000  -3120040.4482   4084614.2005   3764025.7756   1   7   0.0095   0.0145   0.0101  -0.0114   0.0117  -0.0096   0.00  999.9
2061 209150.000  -3120040.4486   4084614.2012   3764025.7760   1   7   0.0095   0.0144   0.0101  -0.0114   0.0117  -0.0096   0.00  999.9
2061 209151.000  -3120040.4489   4084614.2018   3764025.7763   1   7   0.0095   0.0144   0.0101  -0.0114   0.0117  -0.0096   0.00  999.9
2061 209152.000  -3120040.4494   4084614.2024   3764025.7767   1   7   0.0095   0.0144   0.0101  -0.0114   0.0117  -0.0096   0.00  999.9
2061 209153.000  -3120040.4497   4084614.2030   3764025.7770   1   7   0.0094   0.0144   0.0101  -0.0114   0.0117  -0.0096   0.00  999.9
2061 209154.000  -3120040.4501   4084614.2036   3764025.7773   1   7   0.0094   0.0144   0.0101  -0.0114   0.0117  -0.0096   0.00  999.9
2061 209155.000  -3120040.4504   4084614.2041   3764025.7776   1   7   0.0094   0.0144   0.0101  -0.0114   0.0117  -0.0096   0.00  999.9
2061 209156.000  -3120040.4507   4084614.2046   3764025.7779   1   7   0.0094   0.0144   0.0101  -0.0113   0.0117  -0.0096   0.00  999.9
2061 209157.000  -3120040.4511   4084614.2052   3764025.7782   1   7   0.0094   0.0144   0.0101  -0.0113   0.0117  -0.0096   0.00  999.9
2061 209158.000  -3120040.4514   4084614.2056   3764025.7785   1   7   0.0094   0.0143   0.0101  -0.0113   0.0117  -0.0096   0.00  999.9
2061 209159.000  -3120040.4516   4084614.2060   3764025.7787   1   7   0.0094   0.0143   0.0101  -0.0113   0.0116  -0.0095   0.00  999.9
2061 209160.000  -3120040.4519   4084614.2064   3764025.7789   1   7   0.0094   0.0143   0.0100  -0.0113   0.0116  -0.0095   0.00  999.9
2061 209161.000  -3120040.4521   4084614.2068   3764025.7791   1   7   0.0094   0.0143   0.0100  -0.0113   0.0116  -0.0095   0.00  999.9
2061 209162.000  -3120040.4524   4084614.2073   3764025.7793   1   7   0.0094   0.0143   0.0100  -0.0113   0.0116  -0.0095   0.00  999.9
2061 209163.000  -3120040.4526   4084614.2076   3764025.7796   1   7   0.0094   0.0143   0.0100  -0.0113   0.0116  -0.0095   0.00  999.9
2061 209164.000  -3120040.4529   4084614.2080   3764025.7798   1   7   0.0094   0.0143   0.0100  -0.0113   0.0116  -0.0095   0.00  999.9
2061 209165.000  -3120040.4531   4084614.2084   3764025.7800   1   7   0.0094   0.0143   0.0100  -0.0113   0.0116  -0.0095   0.00  999.9
2061 209166.000  -3120040.4533   4084614.2088   3764025.7802   1   7   0.0094   0.0143   0.0100  -0.0113   0.0116  -0.0095   0.00  999.9
2061 209167.000  -3120040.4535   4084614.2091   3764025.7803   1   7   0.0093   0.0143   0.0100  -0.0113   0.0116  -0.0095   0.00  999.9
2061 209168.000  -3120040.4537   4084614.2094   3764025.7805   1   7   0.0093   0.0143   0.0100  -0.0113   0.0116  -0.0095   0.00  999.9
2061 209169.000  -3120040.4540   4084614.2098   3764025.7808   1   7   0.0093   0.0143   0.0100  -0.0113   0.0116  -0.0095   0.00  999.9
2061 209170.000  -3120040.4542   4084614.2101   3764025.7810   1   7   0.0093   0.0142   0.0100  -0.0112   0.0116  -0.0095   0.00  999.9
2061 209171.000  -3120040.4544   4084614.2105   3764025.7812   1   7   0.0093   0.0142   0.0100  -0.0112   0.0116  -0.0095   0.00  999.9
2061 209172.000  -3120040.4546   4084614.2108   3764025.7813   1   7   0.0093   0.0142   0.0100  -0.0112   0.0116  -0.0095   0.00  999.9
2061 209173.000  -3120040.4548   4084614.2111   3764025.7815   1   7   0.0093   0.0142   0.0100  -0.0112   0.0115  -0.0095   0.00  999.9
2061 209174.000  -3120040.4550   4084614.2114   3764025.7817   1   7   0.0093   0.0142   0.0100  -0.0112   0.0115  -0.0095   0.00  999.9
2061 209175.000  -3120040.4552   4084614.2118   3764025.7819   1   7   0.0093   0.0142   0.0100  -0.0112   0.0115  -0.0095   0.00  999.9
2061 209176.000  -3120040.4554   4084614.2121   3764025.7821   1   7   0.0093   0.0142   0.0100  -0.0112   0.0115  -0.0094   0.00  999.9
2061 209177.000  -3120040.4556   4084614.2124   3764025.7823   1   7   0.0093   0.0142   0.0100  -0.0112   0.0115  -0.0094   0.00  999.9
2061 209178.000  -3120040.4558   4084614.2128   3764025.7825   1   7   0.0093   0.0142   0.0099  -0.0112   0.0115  -0.0094   0.00  999.9
2061 209179.000  -3120040.4560   4084614.2131   3764025.7827   1   7   0.0093   0.0142   0.0099  -0.0112   0.0115  -0.0094   0.00  999.9
2061 209180.000  -3120040.4562   4084614.2134   3764025.7828   1   7   0.0093   0.0142   0.0099  -0.0112   0.0115  -0.0094   0.00  999.9
2061 209181.000  -3120040.4564   4084614.2137   3764025.7830   1   7   0.0093   0.0142   0.0099  -0.0112   0.0115  -0.0094   0.00  999.9
2061 209182.000  -3120040.4565   4084614.2139   3764025.7832   1   7   0.0093   0.0142   0.0099  -0.0112   0.0115  -0.0094   0.00  999.9
2061 209183.000  -3120040.4567   4084614.2142   3764025.7833   1   7   0.0093   0.0142   0.0099  -0.0112   0.0115  -0.0094   0.00  999.9
2061 209184.000  -3120040.4568   4084614.2144   3764025.7834   1   7   0.0093   0.0142   0.0099  -0.0112   0.0115  -0.0094   0.00  999.9
2061 209185.000  -3120040.4570   4084614.2147   3764025.7835   1   7   0.0093   0.0142   0.0099  -0.0112   0.0115  -0.0094   0.00  999.9
2061 209186.000  -3120040.4571   4084614.2149   3764025.7837   1   7   0.0093   0.0141   0.0099  -0.0112   0.0115  -0.0094   0.00  999.9
2061 209187.000  -3120040.4572   4084614.2151   3764025.7838   1   7   0.0093   0.0141   0.0099  -0.0112   0.0115  -0.0094   0.00  999.9
2061 209188.000  -3120040.4574   4084614.2153   3764025.7839   1   7   0.0093   0.0141   0.0099  -0.0112   0.0115  -0.0094   0.00  999.9
2061 209189.000  -3120040.4575   4084614.2156   3764025.7840   1   7   0.0093   0.0141   0.0099  -0.0112   0.0115  -0.0094   0.00  999.9
2061 209190.000  -3120040.4576   4084614.2158   3764025.7841   1   7   0.0092   0.0141   0.0099  -0.0111   0.0115  -0.0094   0.00  999.9
2061 209191.000  -3120040.4577   4084614.2160   3764025.7842   1   7   0.0092   0.0141   0.0099  -0.0111   0.0115  -0.0094   0.00  999.9
2061 209192.000  -3120040.4578   4084614.2161   3764025.7843   1   7   0.0092   0.0141   0.0099  -0.0111   0.0115  -0.0094   0.00  999.9
2061 209193.000  -3120040.4579   4084614.2163   3764025.7844   1   7   0.0092   0.0141   0.0099  -0.0111   0.0115  -0.0094   0.00  999.9
2061 209194.000  -3120040.4580   4084614.2165   3764025.7845   1   7   0.0092   0.0141   0.0099  -0.0111   0.0115  -0.0094   0.00  999.9
2061 209195.000  -3120040.4581   4084614.2167   3764025.7845   1   7   0.0092   0.0141   0.0099  -0.0111   0.0115  -0.0094   0.00  999.9
2061 209196.000  -3120040.4582   4084614.2168   3764025.7846   1   7   0.0092   0.0141   0.0099  -0.0111   0.0114  -0.0094   0.00  999.9
2061 209197.000  -3120040.4583   4084614.2170   3764025.7847   1   7   0.0092   0.0141   0.0099  -0.0111   0.0114  -0.0094   0.00  999.9
2061 209198.000  -3120040.4584   4084614.2171   3764025.7848   1   7   0.0092   0.0141   0.0099  -0.0111   0.0114  -0.0094   0.00  999.9
2061 209199.000  -3120040.4585   4084614.2173   3764025.7849   1   7   0.0092   0.0141   0.0099  -0.0111   0.0114  -0.0094   0.00  999.9
2061 209200.000  -3120040.4585   4084614.2174   3764025.7849   1   7   0.0092   0.0141   0.0099  -0.0111   0.0114  -0.0094   0.00  999.9
2061 209201.000  -3120040.4586   4084614.2176   3764025.7850   1   7   0.0092   0.0141   0.0099  -0.0111   0.0114  -0.0094   0.00  999.9
2061 209202.000  -3120040.4587   4084614.2178   3764025.7851   1   7   0.0092   0.0141   0.0099  -0.0111   0.0114  -0.0094   0.00  999.9
2061 209203.000  -3120040.4588   4084614.2179   3764025.7852   1   7   0.0092   0.0141   0.0099  -0.0111   0.0114  -0.0094   0.00  999.9
2061 209204.000  -3120040.4589   4084614.2181   3764025.7853   1   7   0.0092   0.0141   0.0099  -0.0111   0.0114  -0.0094   0.00  999.9
2061 209205.000  -3120040.4590   4084614.2182   3764025.7853   1   7   0.0092   0.0141   0.0099  -0.0111   0.0114  -0.0094   0.00  999.9
2061 209206.000  -3120040.4590   4084614.2183   3764025.7854   1   7   0.0092   0.0141   0.0099  -0.0111   0.0114  -0.0094   0.00  999.9
2061 209207.000  -3120040.4591   4084614.2184   3764025.7854   1   7   0.0092   0.0141   0.0099  -0.0111   0.0114  -0.0093   0.00  999.9
2061 209208.000  -3120040.4592   4084614.2185   3764025.7855   1   7   0.0092   0.0141   0.0099  -0.0111   0.0114  -0.0093   0.00  999.9
2061 209209.000  -3120040.4592   4084614.2186   3764025.7855   1   7   0.0092   0.0141   0.0098  -0.0111   0.0114  -0.0093   0.00  999.9
2061 209210.000  -3120040.4593   4084614.2187   3764025.7856   1   7   0.0092   0.0141   0.0098  -0.0111   0.0114  -0.0093   0.00  999.9
2061 209211.000  -3120040.4593   4084614.2188   3764025.7857   1   7   0.0092   0.0140   0.0098  -0.0111   0.0114  -0.0093   0.00  999.9
2061 209212.000  -3120040.4594   4084614.2189   3764025.7857   1   7   0.0092   0.0140   0.0098  -0.0111   0.0114  -0.0093   0.00  999.9
2061 209213.000  -3120040.4594   4084614.2190   3764025.7858   1   7   0.0092   0.0140   0.0098  -0.0111   0.0114  -0.0093   0.00  999.9
2061 209214.000  -3120040.4595   4084614.2191   3764025.7858   1   7   0.0092   0.0140   0.0098  -0.0111   0.0114  -0.0093   0.00  999.9
2061 209215.000  -3120040.4595   4084614.2191   3764025.7858   1   7   0.0092   0.0140   0.0098  -0.0111   0.0114  -0.0093   0.00  999.9
2061 209216.000  -3120040.4595   4084614.2192   3764025.7858   1   7   0.0092   0.0140   0.0098  -0.0111   0.0114  -0.0093   0.00  999.9
2061 209217.000  -3120040.4595   4084614.2192   3764025.7858   1   7   0.0092   0.0140   0.0098  -0.0111   0.0114  -0.0093   0.00  999.9
2061 209218.000  -3120040.4595   4084614.2192   3764025.7858   1   7   0.0092   0.0140   0.0098  -0.0111   0.0114  -0.0093   0.00  999.9
2061 209219.000  -3120040.4595   4084614.2193   3764025.7858   1   7   0.0092   0.0140   0.0098  -0.0111   0.0114  -0.0093   0.00  999.9
2061 209220.000  -3120040.4596   4084614.2194   3764025.7858   1   7   0.0092   0.0140   0.0098  -0.0111   0.0114  -0.0093   0.00  999.9
2061 209221.000  -3120040.4596   4084614.2194   3764025.7859   1   7   0.0092   0.0140   0.0098  -0.0111   0.0114  -0.0093   0.00  999.9
2061 209222.000  -3120040.4596   4084614.2195   3764025.7859   1   7   0.0092   0.0140   0.0098  -0.0111   0.0114  -0.0093   0.00  999.9
2061 209223.000  -3120040.4597   4084614.2195   3764025.7859   1   7   0.0092   0.0140   0.0098  -0.0111   0.0114  -0.0093   0.00  999.9
2061 209224.000  -3120040.4597   4084614.2196   3764025.7859   1   7   0.0092   0.0140   0.0098  -0.0111   0.0114  -0.0093   0.00  999.9
2061 209225.000  -3120040.4597   4084614.2196   3764025.7859   1   7   0.0092   0.0140   0.0098  -0.0111   0.0114  -0.0093   0.00  999.9
2061 209226.000  -3120040.4597   4084614.2197   3764025.7860   1   7   0.0092   0.0140   0.0098  -0.0111   0.0114  -0.0093   0.00  999.9
