% program   : RTKLIB ver.2.4.3
% inp file  : D:\mycode\vscode\rtklib\rtklib\data\daej190k00.19n
% inp file  : D:\mycode\vscode\rtklib\rtklib\data\daej190k15.19n
% inp file  : D:\mycode\vscode\rtklib\rtklib\data\daej190k30.19n
% inp file  : D:\mycode\vscode\rtklib\rtklib\data\daej190k45.19n
% inp file  : D:\mycode\vscode\rtklib\rtklib\data\daej190k00.19o
% inp file  : D:\mycode\vscode\rtklib\rtklib\data\daej190k15.19o
% inp file  : D:\mycode\vscode\rtklib\rtklib\data\daej190k30.19o
% inp file  : D:\mycode\vscode\rtklib\rtklib\data\daej190k45.19o
% inp file  : D:\mycode\vscode\rtklib\rtklib\data\igs20612.clk
% inp file  : D:\mycode\vscode\rtklib\rtklib\data\igs20612.sp3
% inp file  : D:\mycode\vscode\rtklib\rtklib\data\igs20617.erp
% inp file  : D:\mycode\vscode\rtklib\rtklib\data\igs14.atx
% inp file  : D:\mycode\vscode\rtklib\rtklib\data\CAS0MGXRAP_20191900000_01D_01D_DCB.BSX
% inp file  : D:\mycode\vscode\rtklib\rtklib\data\igsg1900.19i
% obs start : 2019/07/09 10:00:00.0 GPST (week2061 208800.0s)
% obs end   : 2019/07/09 10:59:59.0 GPST (week2061 212399.0s)
% pos mode  : PPP Static
% solution  : Forward
% elev mask : 15.0 deg
% dynamics  : off
% tidecorr  : on
% tropo opt : Estimate ZTD+Grad
% ephemeris : Precise
% navi sys  : GPS
% antenna1  :                       ( 0.0000  0.0000  0.0000)
%
% (x/y/z-ecef=WGS84,Q=1:fix,2:float,3:sbas,4:dgps,5:single,6:ppp,ns=# of satellites)
%  GPST              x-ecef(m)      y-ecef(m)      z-ecef(m)   Q  ns   sdx(m)   sdy(m)   sdz(m)  sdxy(m)  sdyz(m)  sdzx(m) age(s)  ratio
2061 208800.000  -3120040.3426   4084612.9380   3764025.0214   6   7   2.2048   2.2926   2.1955  -1.6625   1.2134  -1.7225   0.00    0.0
2061 208801.000  -3120039.9885   4084613.1785   3764025.1008   6   7   1.5632   1.6307   1.5570  -1.1834   0.8690  -1.2232   0.00    0.0
2061 208802.000  -3120039.9801   4084613.5721   3764025.2570   6   7   1.2790   1.3384   1.2743  -0.9719   0.7178  -1.0023   0.00    0.0
2061 208803.000  -3120040.2407   4084613.6876   3764025.5729   6   7   1.1098   1.1649   1.1060  -0.8464   0.6285  -0.8709   0.00    0.0
2061 208804.000  -3120040.4412   4084613.6205   3764025.7455   6   7   0.9945   1.0469   0.9913  -0.7611   0.5682  -0.7815   0.00    0.0
2061 208805.000  -3120040.2668   4084613.6694   3764025.5273   6   7   0.9094   0.9603   0.9067  -0.6984   0.5241  -0.7156   0.00    0.0
2061 208806.000  -3120040.2589   4084613.8064   3764025.6170   6   7   0.8435   0.8932   0.8411  -0.6500   0.4901  -0.6645   0.00    0.0
2061 208807.000  -3120040.3005   4084613.9581   3764025.7896   6   7   0.7903   0.8393   0.7883  -0.6111   0.4630  -0.6235   0.00    0.0
2061 208808.000  -3120040.0816   4084613.9944   3764025.6229   6   7   0.7464   0.7949   0.7446  -0.5790   0.4407  -0.5895   0.00    0.0
2061 208809.000  -3120039.9884   4084613.9363   3764025.6688   6   7   0.7093   0.7575   0.7077  -0.5520   0.4220  -0.5609   0.00    0.0
2061 208810.000  -3120040.0559   4084613.9311   3764025.6789   6   7   0.6774   0.7254   0.6759  -0.5289   0.4061  -0.5363   0.00    0.0
2061 208811.000  -3120040.1843   4084614.0666   3764025.6704   6   7   0.6496   0.6976   0.6483  -0.5088   0.3924  -0.5149   0.00    0.0
2061 208812.000  -3120040.1900   4084614.0513   3764025.6784   6   7   0.6251   0.6731   0.6239  -0.4911   0.3803  -0.4961   0.00    0.0
2061 208813.000  -3120040.2561   4084614.1210   3764025.7281   6   7   0.6033   0.6514   0.6022  -0.4755   0.3697  -0.4793   0.00    0.0
2061 208814.000  -3120040.2834   4084614.0749   3764025.7322   6   7   0.5838   0.6320   0.5828  -0.4615   0.3602  -0.4643   0.00    0.0
2061 208815.000  -3120040.3291   4084614.0478   3764025.7713   6   7   0.5662   0.6146   0.5652  -0.4490   0.3517  -0.4508   0.00    0.0
2061 208816.000  -3120040.3889   4084614.0695   3764025.8220   6   7   0.5502   0.5987   0.5492  -0.4376   0.3441  -0.4385   0.00    0.0
2061 208817.000  -3120040.4360   4084614.0283   3764025.8006   6   7   0.5355   0.5843   0.5346  -0.4272   0.3371  -0.4273   0.00    0.0
2061 208818.000  -3120040.3153   4084613.9300   3764025.6730   6   7   0.5221   0.5711   0.5212  -0.4177   0.3307  -0.4170   0.00    0.0
2061 208819.000  -3120040.3486   4084613.9599   3764025.7104   6   7   0.5096   0.5589   0.5087  -0.4090   0.3248  -0.4075   0.00    0.0
2061 208820.000  -3120040.3724   4084614.0417   3764025.7365   6   7   0.4982   0.5477   0.4972  -0.4009   0.3194  -0.3987   0.00    0.0
2061 208821.000  -3120040.4440   4084614.1558   3764025.7552   6   7   0.4875   0.5372   0.4865  -0.3934   0.3144  -0.3905   0.00    0.0
2061 208822.000  -3120040.3850   4084614.1390   3764025.6614   6   7   0.4775   0.5275   0.4765  -0.3864   0.3097  -0.3829   0.00    0.0
2061 208823.000  -3120040.3748   4084614.1752   3764025.6515   6   7   0.4682   0.5184   0.4672  -0.3799   0.3053  -0.3757   0.00    0.0
2061 208824.000  -3120040.3397   4084614.1303   3764025.6640   6   7   0.4594   0.5098   0.4583  -0.3738   0.3012  -0.3690   0.00    0.0
2061 208825.000  -3120040.2073   4084614.0734   3764025.5685   6   7   0.4511   0.5017   0.4500  -0.3680   0.2971  -0.3626   0.00    0.0
2061 208826.000  -3120040.1716   4084614.0580   3764025.5357   6   7   0.4433   0.4939   0.4420  -0.3624   0.2932  -0.3565   0.00    0.0
2061 208827.000  -3120040.1279   4084614.0607   3764025.5025   6   7   0.4359   0.4863   0.4344  -0.3571   0.2893  -0.3507   0.00    0.0
2061 208828.000  -3120040.0740   4084614.0248   3764025.4622   6   7   0.4288   0.4791   0.4271  -0.3519   0.2854  -0.3452   0.00    0.0
2061 208829.000  -3120040.0216   4084613.9654   3764025.4870   6   7   0.4220   0.4722   0.4202  -0.3470   0.2818  -0.3399   0.00    0.0
2061 208830.000  -3120039.9520   4084613.8933   3764025.4756   6   7   0.4156   0.4656   0.4135  -0.3423   0.2782  -0.3348   0.00    0.0
2061 208831.000  -3120039.9658   4084613.8620   3764025.5136   6   7   0.4095   0.4592   0.4072  -0.3377   0.2747  -0.3299   0.00    0.0
2061 208832.000  -3120039.9712   4084613.8788   3764025.5618   6   7   0.4036   0.4531   0.4012  -0.3334   0.2714  -0.3253   0.00    0.0
2061 208833.000  -3120039.9313   4084613.8991   3764025.5432   6   7   0.3980   0.4473   0.3954  -0.3293   0.2683  -0.3209   0.00    0.0
2061 208834.000  -3120039.8918   4084613.8581   3764025.5448   6   7   0.3927   0.4419   0.3900  -0.3254   0.2654  -0.3167   0.00    0.0
2061 208835.000  -3120039.8722   4084613.8439   3764025.5724   6   7   0.3876   0.4366   0.3848  -0.3217   0.2626  -0.3127   0.00    0.0
2061 208836.000  -3120039.8545   4084613.8400   3764025.5877   6   7   0.3827   0.4317   0.3798  -0.3181   0.2601  -0.3089   0.00    0.0
2061 208837.000  -3120039.8501   4084613.7976   3764025.5823   6   7   0.3781   0.4269   0.3750  -0.3147   0.2576  -0.3052   0.00    0.0
2061 208838.000  -3120039.8012   4084613.7682   3764025.5752   6   7   0.3736   0.4223   0.3704  -0.3115   0.2551  -0.3017   0.00    0.0
2061 208839.000  -3120039.7789   4084613.7384   3764025.5790   6   7   0.3692   0.4179   0.3660  -0.3083   0.2529  -0.2983   0.00    0.0
2061 208840.000  -3120039.7332   4084613.6735   3764025.5586   6   7   0.3651   0.4137   0.3618  -0.3053   0.2507  -0.2951   0.00    0.0
2061 208841.000  -3120039.7007   4084613.6660   3764025.5336   6   7   0.3611   0.4096   0.3577  -0.3024   0.2486  -0.2920   0.00    0.0
2061 208842.000  -3120039.6518   4084613.6252   3764025.4828   6   7   0.3572   0.4056   0.3537  -0.2996   0.2464  -0.2889   0.00    0.0
2061 208843.000  -3120039.6093   4084613.6113   3764025.4470   6   7   0.3534   0.4017   0.3499  -0.2968   0.2444  -0.2860   0.00    0.0
2061 208844.000  -3120039.6137   4084613.6100   3764025.4568   6   7   0.3498   0.3980   0.3462  -0.2941   0.2424  -0.2831   0.00    0.0
2061 208845.000  -3120039.5831   4084613.6003   3764025.4116   6   7   0.3463   0.3944   0.3426  -0.2916   0.2405  -0.2804   0.00    0.0
2061 208846.000  -3120039.5526   4084613.5956   3764025.3769   6   7   0.3429   0.3909   0.3392  -0.2891   0.2388  -0.2778   0.00    0.0
2061 208847.000  -3120039.5729   4084613.6218   3764025.3607   6   7   0.3396   0.3876   0.3359  -0.2868   0.2370  -0.2752   0.00    0.0
2061 208848.000  -3120039.5772   4084613.6321   3764025.3542   6   7   0.3365   0.3843   0.3327  -0.2845   0.2354  -0.2728   0.00    0.0
2061 208849.000  -3120039.5624   4084613.6042   3764025.3551   6   7   0.3334   0.3812   0.3295  -0.2822   0.2337  -0.2704   0.00    0.0
2061 208850.000  -3120039.5428   4084613.5890   3764025.3249   6   7   0.3304   0.3781   0.3265  -0.2800   0.2321  -0.2680   0.00    0.0
2061 208851.000  -3120039.5323   4084613.5756   3764025.3140   6   7   0.3275   0.3751   0.3236  -0.2779   0.2305  -0.2658   0.00    0.0
2061 208852.000  -3120039.5293   4084613.5693   3764025.3050   6   7   0.3247   0.3722   0.3207  -0.2758   0.2291  -0.2636   0.00    0.0
2061 208853.000  -3120039.5263   4084613.5657   3764025.3127   6   7   0.3220   0.3694   0.3180  -0.2738   0.2276  -0.2615   0.00    0.0
2061 208854.000  -3120039.5149   4084613.5647   3764025.2833   6   7   0.3193   0.3667   0.3153  -0.2719   0.2262  -0.2594   0.00    0.0
2061 208855.000  -3120039.5301   4084613.5659   3764025.2802   6   7   0.3167   0.3641   0.3127  -0.2701   0.2249  -0.2575   0.00    0.0
2061 208856.000  -3120039.5787   4084613.6085   3764025.2963   6   7   0.3142   0.3616   0.3102  -0.2683   0.2237  -0.2555   0.00    0.0
2061 208857.000  -3120039.5781   4084613.6039   3764025.3030   6   7   0.3118   0.3591   0.3078  -0.2666   0.2225  -0.2537   0.00    0.0
2061 208858.000  -3120039.6103   4084613.6180   3764025.2845   6   7   0.3095   0.3568   0.3054  -0.2649   0.2213  -0.2519   0.00    0.0
2061 208859.000  -3120039.6204   4084613.6172   3764025.2902   6   7   0.3072   0.3545   0.3031  -0.2633   0.2202  -0.2502   0.00    0.0
2061 208860.000  -3120039.6186   4084613.6061   3764025.2787   6   7   0.3050   0.3523   0.3009  -0.2617   0.2191  -0.2485   0.00    0.0
2061 208861.000  -3120039.6229   4084613.5723   3764025.2925   6   7   0.3028   0.3501   0.2987  -0.2602   0.2181  -0.2468   0.00    0.0
2061 208862.000  -3120039.6397   4084613.5604   3764025.2934   6   7   0.3007   0.3481   0.2966  -0.2587   0.2171  -0.2452   0.00    0.0
2061 208863.000  -3120039.6642   4084613.5762   3764025.2821   6   7   0.2986   0.3460   0.2946  -0.2573   0.2161  -0.2437   0.00    0.0
2061 208864.000  -3120039.6613   4084613.5574   3764025.2607   6   7   0.2966   0.3441   0.2926  -0.2559   0.2152  -0.2422   0.00    0.0
2061 208865.000  -3120039.6714   4084613.5646   3764025.2803   6   7   0.2947   0.3422   0.2907  -0.2546   0.2143  -0.2407   0.00    0.0
2061 208866.000  -3120039.6910   4084613.5973   3764025.3030   6   7   0.2928   0.3403   0.2888  -0.2533   0.2135  -0.2393   0.00    0.0
2061 208867.000  -3120039.7090   4084613.6064   3764025.3168   6   7   0.2909   0.3385   0.2869  -0.2520   0.2127  -0.2379   0.00    0.0
2061 208868.000  -3120039.7140   4084613.6021   3764025.3302   6   7   0.2891   0.3368   0.2852  -0.2508   0.2119  -0.2365   0.00    0.0
2061 208869.000  -3120039.6975   4084613.5955   3764025.3107   6   7   0.2873   0.3351   0.2834  -0.2495   0.2111  -0.2352   0.00    0.0
2061 208870.000  -3120039.7092   4084613.5893   3764025.3250   6   7   0.2856   0.3334   0.2817  -0.2484   0.2103  -0.2339   0.00    0.0
2061 208871.000  -3120039.7057   4084613.5758   3764025.3233   6   7   0.2839   0.3318   0.2800  -0.2472   0.2096  -0.2327   0.00    0.0
2061 208872.000  -3120039.6894   4084613.5916   3764025.3051   6   7   0.2823   0.3302   0.2784  -0.2461   0.2089  -0.2315   0.00    0.0
2061 208873.000  -3120039.6756   4084613.6043   3764025.2950   6   7   0.2806   0.3287   0.2768  -0.2450   0.2082  -0.2303   0.00    0.0
2061 208874.000  -3120039.6994   4084613.6218   3764025.3128   6   7   0.2790   0.3271   0.2753  -0.2439   0.2075  -0.2291   0.00    0.0
2061 208875.000  -3120039.7035   4084613.6086   3764025.3273   6   7   0.2775   0.3257   0.2738  -0.2429   0.2069  -0.2279   0.00    0.0
2061 208876.000  -3120039.7089   4084613.6074   3764025.3168   6   7   0.2760   0.3242   0.2723  -0.2419   0.2062  -0.2268   0.00    0.0
2061 208877.000  -3120039.6916   4084613.5902   3764025.3117   6   7   0.2745   0.3228   0.2708  -0.2409   0.2056  -0.2257   0.00    0.0
2061 208878.000  -3120039.7126   4084613.6228   3764025.3193   6   7   0.2730   0.3214   0.2694  -0.2399   0.2050  -0.2247   0.00    0.0
2061 208879.000  -3120039.7113   4084613.6068   3764025.2981   6   7   0.2716   0.3201   0.2680  -0.2389   0.2044  -0.2236   0.00    0.0
2061 208880.000  -3120039.7195   4084613.5989   3764025.2932   6   7   0.2702   0.3187   0.2666  -0.2380   0.2038  -0.2226   0.00    0.0
2061 208881.000  -3120039.7176   4084613.6023   3764025.2848   6   7   0.2688   0.3174   0.2653  -0.2370   0.2033  -0.2216   0.00    0.0
2061 208882.000  -3120039.7227   4084613.6066   3764025.2863   6   7   0.2675   0.3162   0.2640  -0.2361   0.2027  -0.2206   0.00    0.0
2061 208883.000  -3120039.7387   4084613.6102   3764025.2842   6   7   0.2661   0.3149   0.2627  -0.2353   0.2022  -0.2196   0.00    0.0
2061 208884.000  -3120039.7557   4084613.6048   3764025.2866   6   7   0.2648   0.3137   0.2615  -0.2344   0.2016  -0.2187   0.00    0.0
2061 208885.000  -3120039.7614   4084613.5971   3764025.2789   6   7   0.2635   0.3125   0.2602  -0.2335   0.2011  -0.2177   0.00    0.0
2061 208886.000  -3120039.7854   4084613.5947   3764025.2878   6   7   0.2623   0.3113   0.2590  -0.2327   0.2006  -0.2168   0.00    0.0
2061 208887.000  -3120039.8029   4084613.6033   3764025.2953   6   7   0.2611   0.3101   0.2578  -0.2319   0.2001  -0.2159   0.00    0.0
2061 208888.000  -3120039.8082   4084613.5980   3764025.2946   6   7   0.2598   0.3090   0.2567  -0.2310   0.1996  -0.2151   0.00    0.0
2061 208889.000  -3120039.8243   4084613.5833   3764025.3133   6   7   0.2586   0.3078   0.2555  -0.2302   0.1991  -0.2142   0.00    0.0
2061 208890.000  -3120039.8330   4084613.5734   3764025.3041   6   7   0.2575   0.3067   0.2544  -0.2295   0.1986  -0.2133   0.00    0.0
2061 208891.000  -3120039.8545   4084613.5750   3764025.3171   6   7   0.2563   0.3056   0.2533  -0.2287   0.1982  -0.2125   0.00    0.0
2061 208892.000  -3120039.8711   4084613.5857   3764025.3170   6   7   0.2552   0.3046   0.2522  -0.2279   0.1977  -0.2117   0.00    0.0
2061 208893.000  -3120039.8889   4084613.5891   3764025.3237   6   7   0.2541   0.3035   0.2511  -0.2272   0.1972  -0.2109   0.00    0.0
2061 208894.000  -3120039.9046   4084613.5768   3764025.3134   6   7   0.2529   0.3025   0.2501  -0.2264   0.1968  -0.2101   0.00    0.0
2061 208895.000  -3120039.9052   4084613.5756   3764025.3127   6   7   0.2519   0.3014   0.2490  -0.2257   0.1963  -0.2093   0.00    0.0
2061 208896.000  -3120039.9040   4084613.5663   3764025.3163   6   7   0.2508   0.3004   0.2480  -0.2249   0.1959  -0.2085   0.00    0.0
2061 208897.000  -3120039.9276   4084613.5833   3764025.3313   6   7   0.2497   0.2994   0.2470  -0.2242   0.1954  -0.2077   0.00    0.0
2061 208898.000  -3120039.9278   4084613.5826   3764025.3310   6   7   0.2487   0.2984   0.2460  -0.2235   0.1950  -0.2070   0.00    0.0
2061 208899.000  -3120039.9436   4084613.5897   3764025.3425   6   7   0.2477   0.2974   0.2450  -0.2228   0.1946  -0.2062   0.00    0.0
2061 208900.000  -3120039.9497   4084613.5814   3764025.3461   6   7   0.2466   0.2965   0.2441  -0.2221   0.1941  -0.2055   0.00    0.0
2061 208901.000  -3120039.9714   4084613.5982   3764025.3716   6   7   0.2456   0.2955   0.2431  -0.2214   0.1937  -0.2048   0.00    0.0
2061 208902.000  -3120039.9847   4084613.6086   3764025.3860   6   7   0.2447   0.2946   0.2422  -0.2207   0.1933  -0.2040   0.00    0.0
2061 208903.000  -3120040.0023   4084613.6257   3764025.3922   6   7   0.2437   0.2936   0.2413  -0.2201   0.1929  -0.2033   0.00    0.0
2061 208904.000  -3120040.0188   4084613.6382   3764025.3999   6   7   0.2427   0.2927   0.2404  -0.2194   0.1925  -0.2026   0.00    0.0
2061 208905.000  -3120040.0437   4084613.6624   3764025.4044   6   7   0.2418   0.2918   0.2395  -0.2187   0.1921  -0.2020   0.00    0.0
2061 208906.000  -3120040.0710   4084613.6760   3764025.4312   6   7   0.2408   0.2909   0.2386  -0.2181   0.1917  -0.2013   0.00    0.0
2061 208907.000  -3120040.0901   4084613.6829   3764025.4420   6   7   0.2399   0.2900   0.2377  -0.2175   0.1913  -0.2006   0.00    0.0
2061 208908.000  -3120040.1076   4084613.6930   3764025.4425   6   7   0.2390   0.2891   0.2369  -0.2168   0.1909  -0.2000   0.00    0.0
2061 208909.000  -3120040.1095   4084613.6909   3764025.4206   6   7   0.2381   0.2883   0.2360  -0.2162   0.1905  -0.1993   0.00    0.0
2061 208910.000  -3120040.1134   4084613.6902   3764025.4147   6   7   0.2372   0.2874   0.2352  -0.2156   0.1901  -0.1987   0.00    0.0
2061 208911.000  -3120040.1093   4084613.6863   3764025.4036   6   7   0.2363   0.2865   0.2344  -0.2150   0.1897  -0.1980   0.00    0.0
2061 208912.000  -3120040.1011   4084613.6843   3764025.3893   6   7   0.2355   0.2857   0.2336  -0.2143   0.1893  -0.1974   0.00    0.0
2061 208913.000  -3120040.1053   4084613.6933   3764025.3885   6   7   0.2346   0.2849   0.2328  -0.2137   0.1889  -0.1968   0.00    0.0
2061 208914.000  -3120040.1085   4084613.6948   3764025.3899   6   7   0.2338   0.2840   0.2320  -0.2131   0.1885  -0.1961   0.00    0.0
2061 208915.000  -3120040.1045   4084613.6985   3764025.3815   6   7   0.2329   0.2832   0.2312  -0.2125   0.1882  -0.1955   0.00    0.0
2061 208916.000  -3120040.1057   4084613.6915   3764025.3750   6   7   0.2321   0.2824   0.2304  -0.2119   0.1878  -0.1949   0.00    0.0
2061 208917.000  -3120040.1198   4084613.6870   3764025.3739   6   7   0.2313   0.2816   0.2297  -0.2114   0.1874  -0.1943   0.00    0.0
2061 208918.000  -3120040.1080   4084613.6789   3764025.3594   6   7   0.2305   0.2808   0.2289  -0.2108   0.1870  -0.1937   0.00    0.0
2061 208919.000  -3120040.1097   4084613.6863   3764025.3624   6   7   0.2297   0.2800   0.2282  -0.2102   0.1867  -0.1932   0.00    0.0
2061 208920.000  -3120040.1171   4084613.6979   3764025.3637   6   7   0.2289   0.2792   0.2274  -0.2096   0.1863  -0.1926   0.00    0.0
2061 208921.000  -3120040.1138   4084613.6854   3764025.3599   6   7   0.2281   0.2784   0.2267  -0.2091   0.1859  -0.1920   0.00    0.0
2061 208922.000  -3120040.0995   4084613.6868   3764025.3436   6   7   0.2273   0.2777   0.2260  -0.2085   0.1855  -0.1914   0.00    0.0
2061 208923.000  -3120040.1017   4084613.6791   3764025.3421   6   7   0.2265   0.2769   0.2253  -0.2079   0.1852  -0.1909   0.00    0.0
2061 208924.000  -3120040.1057   4084613.6825   3764025.3450   6   7   0.2258   0.2761   0.2246  -0.2074   0.1848  -0.1903   0.00    0.0
2061 208925.000  -3120040.1006   4084613.6678   3764025.3430   6   7   0.2250   0.2754   0.2239  -0.2068   0.1845  -0.1898   0.00    0.0
2061 208926.000  -3120040.1040   4084613.6556   3764025.3439   6   7   0.2243   0.2746   0.2232  -0.2063   0.1841  -0.1892   0.00    0.0
2061 208927.000  -3120040.1138   4084613.6516   3764025.3535   6   7   0.2235   0.2739   0.2225  -0.2057   0.1837  -0.1887   0.00    0.0
2061 208928.000  -3120040.1137   4084613.6469   3764025.3556   6   7   0.2228   0.2732   0.2218  -0.2052   0.1834  -0.1881   0.00    0.0
2061 208929.000  -3120040.1069   4084613.6457   3764025.3496   6   7   0.2221   0.2724   0.2211  -0.2047   0.1830  -0.1876   0.00    0.0
2061 208930.000  -3120040.1165   4084613.6499   3764025.3586   6   7   0.2214   0.2717   0.2205  -0.2041   0.1827  -0.1871   0.00    0.0
2061 208931.000  -3120040.1163   4084613.6444   3764025.3635   6   7   0.2207   0.2710   0.2198  -0.2036   0.1823  -0.1866   0.00    0.0
2061 208932.000  -3120040.1124   4084613.6437   3764025.3598   6   7   0.2200   0.2703   0.2192  -0.2031   0.1820  -0.1860   0.00    0.0
2061 208933.000  -3120040.1225   4084613.6523   3764025.3594   6   7   0.2193   0.2696   0.2185  -0.2026   0.1816  -0.1855   0.00    0.0
2061 208934.000  -3120040.1395   4084613.6709   3764025.3697   6   7   0.2186   0.2689   0.2179  -0.2021   0.1813  -0.1850   0.00    0.0
2061 208935.000  -3120040.1481   4084613.6837   3764025.3700   6   7   0.2179   0.2682   0.2173  -0.2015   0.1809  -0.1845   0.00    0.0
2061 208936.000  -3120040.1465   4084613.6810   3764025.3701   6   7   0.2172   0.2675   0.2166  -0.2011   0.1806  -0.1840   0.00    0.0
2061 208937.000  -3120040.1523   4084613.6885   3764025.3737   6   7   0.2166   0.2668   0.2160  -0.2006   0.1803  -0.1836   0.00    0.0
2061 208938.000  -3120040.1628   4084613.7019   3764025.3875   6   7   0.2159   0.2662   0.2154  -0.2001   0.1799  -0.1831   0.00    0.0
2061 208939.000  -3120040.1747   4084613.7070   3764025.3953   6   7   0.2153   0.2655   0.2148  -0.1996   0.1796  -0.1826   0.00    0.0
2061 208940.000  -3120040.1736   4084613.7095   3764025.3982   6   7   0.2146   0.2649   0.2142  -0.1991   0.1793  -0.1821   0.00    0.0
2061 208941.000  -3120040.1775   4084613.7129   3764025.4013   6   7   0.2140   0.2642   0.2137  -0.1987   0.1790  -0.1817   0.00    0.0
2061 208942.000  -3120040.1831   4084613.7108   3764025.4175   6   7   0.2134   0.2636   0.2131  -0.1982   0.1787  -0.1812   0.00    0.0
2061 208943.000  -3120040.1805   4084613.7166   3764025.4334   6   7   0.2128   0.2630   0.2125  -0.1978   0.1784  -0.1808   0.00    0.0
2061 208944.000  -3120040.1810   4084613.7225   3764025.4347   6   7   0.2122   0.2624   0.2120  -0.1973   0.1781  -0.1803   0.00    0.0
2061 208945.000  -3120040.1733   4084613.7151   3764025.4364   6   7   0.2116   0.2618   0.2114  -0.1969   0.1778  -0.1799   0.00    0.0
2061 208946.000  -3120040.1706   4084613.7116   3764025.4412   6   7   0.2110   0.2612   0.2109  -0.1965   0.1776  -0.1795   0.00    0.0
2061 208947.000  -3120040.1706   4084613.7149   3764025.4411   6   7   0.2104   0.2606   0.2103  -0.1961   0.1773  -0.1791   0.00    0.0
2061 208948.000  -3120040.1839   4084613.7158   3764025.4590   6   7   0.2099   0.2601   0.2098  -0.1957   0.1770  -0.1787   0.00    0.0
2061 208949.000  -3120040.1854   4084613.7159   3764025.4764   6   7   0.2093   0.2595   0.2093  -0.1952   0.1768  -0.1782   0.00    0.0
2061 208950.000  -3120040.1873   4084613.7173   3764025.4795   6   7   0.2087   0.2590   0.2088  -0.1948   0.1765  -0.1778   0.00    0.0
2061 208951.000  -3120040.1931   4084613.7309   3764025.4806   6   7   0.2082   0.2584   0.2083  -0.1944   0.1762  -0.1774   0.00    0.0
2061 208952.000  -3120040.1947   4084613.7309   3764025.4918   6   7   0.2076   0.2579   0.2078  -0.1941   0.1760  -0.1770   0.00    0.0
2061 208953.000  -3120040.1939   4084613.7382   3764025.5025   6   7   0.2071   0.2573   0.2073  -0.1937   0.1757  -0.1766   0.00    0.0
2061 208954.000  -3120040.1939   4084613.7479   3764025.5090   6   7   0.2065   0.2568   0.2068  -0.1933   0.1755  -0.1762   0.00    0.0
2061 208955.000  -3120040.1908   4084613.7422   3764025.5107   6   7   0.2060   0.2563   0.2063  -0.1929   0.1752  -0.1759   0.00    0.0
2061 208956.000  -3120040.1812   4084613.7376   3764025.4991   6   7   0.2055   0.2557   0.2058  -0.1925   0.1750  -0.1755   0.00    0.0
2061 208957.000  -3120040.1814   4084613.7400   3764025.5020   6   7   0.2049   0.2552   0.2053  -0.1921   0.1747  -0.1751   0.00    0.0
2061 208958.000  -3120040.1767   4084613.7413   3764025.5109   6   7   0.2044   0.2547   0.2048  -0.1918   0.1745  -0.1747   0.00    0.0
2061 208959.000  -3120040.1783   4084613.7438   3764025.5269   6   7   0.2039   0.2542   0.2043  -0.1914   0.1743  -0.1743   0.00    0.0
2061 208960.000  -3120040.1851   4084613.7539   3764025.5368   6   7   0.2034   0.2537   0.2038  -0.1910   0.1740  -0.1740   0.00    0.0
2061 208961.000  -3120040.1934   4084613.7623   3764025.5434   6   7   0.2029   0.2532   0.2033  -0.1907   0.1738  -0.1736   0.00    0.0
2061 208962.000  -3120040.1964   4084613.7656   3764025.5495   6   7   0.2024   0.2527   0.2029  -0.1903   0.1735  -0.1732   0.00    0.0
2061 208963.000  -3120040.1989   4084613.7726   3764025.5613   6   7   0.2019   0.2522   0.2024  -0.1899   0.1733  -0.1729   0.00    0.0
2061 208964.000  -3120040.2023   4084613.7763   3764025.5700   6   7   0.2014   0.2517   0.2019  -0.1896   0.1731  -0.1725   0.00    0.0
2061 208965.000  -3120040.1998   4084613.7728   3764025.5756   6   7   0.2009   0.2512   0.2015  -0.1892   0.1729  -0.1721   0.00    0.0
2061 208966.000  -3120040.1979   4084613.7749   3764025.5812   6   7   0.2004   0.2507   0.2010  -0.1889   0.1726  -0.1718   0.00    0.0
2061 208967.000  -3120040.2068   4084613.7872   3764025.5938   6   7   0.1999   0.2503   0.2006  -0.1885   0.1724  -0.1714   0.00    0.0
2061 208968.000  -3120040.2074   4084613.7938   3764025.5980   6   7   0.1994   0.2498   0.2001  -0.1882   0.1722  -0.1711   0.00    0.0
2061 208969.000  -3120040.2120   4084613.7988   3764025.6138   6   7   0.1990   0.2493   0.1997  -0.1879   0.1720  -0.1707   0.00    0.0
2061 208970.000  -3120040.2126   4084613.8007   3764025.6187   6   7   0.1985   0.2489   0.1992  -0.1875   0.1718  -0.1704   0.00    0.0
2061 208971.000  -3120040.2196   4084613.8079   3764025.6325   6   7   0.1980   0.2484   0.1988  -0.1872   0.1716  -0.1700   0.00    0.0
2061 208972.000  -3120040.2168   4084613.8089   3764025.6321   6   7   0.1976   0.2480   0.1983  -0.1869   0.1714  -0.1697   0.00    0.0
2061 208973.000  -3120040.2291   4084613.8147   3764025.6456   6   7   0.1971   0.2476   0.1979  -0.1866   0.1712  -0.1694   0.00    0.0
2061 208974.000  -3120040.2302   4084613.8156   3764025.6427   6   7   0.1967   0.2471   0.1975  -0.1863   0.1710  -0.1691   0.00    0.0
2061 208975.000  -3120040.2260   4084613.8107   3764025.6323   6   7   0.1962   0.2467   0.1970  -0.1860   0.1708  -0.1687   0.00    0.0
2061 208976.000  -3120040.2241   4084613.8107   3764025.6391   6   7   0.1958   0.2463   0.1966  -0.1857   0.1706  -0.1684   0.00    0.0
2061 208977.000  -3120040.2288   4084613.8114   3764025.6457   6   7   0.1953   0.2458   0.1962  -0.1854   0.1704  -0.1681   0.00    0.0
2061 208978.000  -3120040.2420   4084613.8267   3764025.6475   6   7   0.1949   0.2454   0.1958  -0.1851   0.1703  -0.1678   0.00    0.0
2061 208979.000  -3120040.2456   4084613.8275   3764025.6556   6   7   0.1945   0.2450   0.1954  -0.1848   0.1701  -0.1674   0.00    0.0
2061 208980.000  -3120040.2439   4084613.8236   3764025.6520   6   7   0.1940   0.2446   0.1949  -0.1845   0.1699  -0.1671   0.00    0.0
2061 208981.000  -3120040.2439   4084613.8250   3764025.6542   6   7   0.1936   0.2442   0.1945  -0.1842   0.1697  -0.1668   0.00    0.0
2061 208982.000  -3120040.2412   4084613.8196   3764025.6566   6   7   0.1932   0.2438   0.1941  -0.1839   0.1695  -0.1665   0.00    0.0
2061 208983.000  -3120040.2440   4084613.8214   3764025.6515   6   7   0.1928   0.2434   0.1937  -0.1836   0.1694  -0.1662   0.00    0.0
2061 208984.000  -3120040.2529   4084613.8306   3764025.6608   6   7   0.1924   0.2430   0.1933  -0.1833   0.1692  -0.1659   0.00    0.0
2061 208985.000  -3120040.2484   4084613.8312   3764025.6564   6   7   0.1919   0.2426   0.1929  -0.1830   0.1690  -0.1656   0.00    0.0
2061 208986.000  -3120040.2475   4084613.8312   3764025.6580   6   7   0.1915   0.2422   0.1925  -0.1827   0.1688  -0.1653   0.00    0.0
2061 208987.000  -3120040.2482   4084613.8287   3764025.6653   6   7   0.1911   0.2418   0.1921  -0.1825   0.1687  -0.1650   0.00    0.0
2061 208988.000  -3120040.2521   4084613.8307   3764025.6657   6   7   0.1907   0.2414   0.1917  -0.1822   0.1685  -0.1647   0.00    0.0
2061 208989.000  -3120040.2543   4084613.8290   3764025.6634   6   7   0.1903   0.2410   0.1912  -0.1819   0.1683  -0.1644   0.00    0.0
2061 208990.000  -3120040.2620   4084613.8343   3764025.6684   6   7   0.1899   0.2406   0.1908  -0.1816   0.1682  -0.1641   0.00    0.0
2061 208991.000  -3120040.2677   4084613.8378   3764025.6704   6   7   0.1895   0.2402   0.1904  -0.1814   0.1680  -0.1638   0.00    0.0
2061 208992.000  -3120040.2735   4084613.8404   3764025.6765   6   7   0.1891   0.2398   0.1900  -0.1811   0.1678  -0.1635   0.00    0.0
2061 208993.000  -3120040.2869   4084613.8458   3764025.6843   6   7   0.1887   0.2394   0.1896  -0.1808   0.1677  -0.1632   0.00    0.0
2061 208994.000  -3120040.3023   4084613.8502   3764025.6926   6   7   0.1883   0.2391   0.1893  -0.1806   0.1675  -0.1629   0.00    0.0
2061 208995.000  -3120040.3138   4084613.8492   3764025.6997   6   7   0.1879   0.2387   0.1889  -0.1803   0.1673  -0.1626   0.00    0.0
2061 208996.000  -3120040.3316   4084613.8538   3764025.7017   6   7   0.1875   0.2383   0.1885  -0.1800   0.1672  -0.1623   0.00    0.0
2061 208997.000  -3120040.3321   4084613.8494   3764025.7008   6   7   0.1872   0.2379   0.1881  -0.1798   0.1670  -0.1620   0.00    0.0
2061 208998.000  -3120040.3366   4084613.8459   3764025.6978   6   7   0.1868   0.2376   0.1877  -0.1795   0.1669  -0.1617   0.00    0.0
2061 208999.000  -3120040.3392   4084613.8469   3764025.7021   6   7   0.1864   0.2372   0.1873  -0.1793   0.1667  -0.1614   0.00    0.0
2061 209000.000  -3120040.3407   4084613.8369   3764025.7050   6   7   0.1860   0.2368   0.1869  -0.1790   0.1665  -0.1611   0.00    0.0
2061 209001.000  -3120040.3492   4084613.8352   3764025.7087   6   7   0.1856   0.2364   0.1865  -0.1787   0.1664  -0.1608   0.00    0.0
2061 209002.000  -3120040.3565   4084613.8366   3764025.7137   6   7   0.1853   0.2361   0.1861  -0.1785   0.1662  -0.1606   0.00    0.0
2061 209003.000  -3120040.3530   4084613.8317   3764025.7124   6   7   0.1849   0.2357   0.1857  -0.1782   0.1661  -0.1603   0.00    0.0
2061 209004.000  -3120040.3506   4084613.8279   3764025.7099   6   7   0.1845   0.2353   0.1853  -0.1780   0.1659  -0.1600   0.00    0.0
2061 209005.000  -3120040.3552   4084613.8362   3764025.7141   6   7   0.1842   0.2350   0.1849  -0.1777   0.1658  -0.1597   0.00    0.0
2061 209006.000  -3120040.3561   4084613.8372   3764025.7139   6   7   0.1838   0.2346   0.1846  -0.1775   0.1656  -0.1594   0.00    0.0
2061 209007.000  -3120040.3603   4084613.8341   3764025.7190   6   7   0.1834   0.2343   0.1842  -0.1772   0.1654  -0.1591   0.00    0.0
2061 209008.000  -3120040.3607   4084613.8311   3764025.7243   6   7   0.1831   0.2339   0.1838  -0.1770   0.1653  -0.1589   0.00    0.0
2061 209009.000  -3120040.3576   4084613.8364   3764025.7287   6   7   0.1827   0.2335   0.1834  -0.1767   0.1651  -0.1586   0.00    0.0
2061 209010.000  -3120040.3636   4084613.8381   3764025.7336   6   7   0.1823   0.2332   0.1830  -0.1765   0.1650  -0.1583   0.00    0.0
2061 209011.000  -3120040.3639   4084613.8387   3764025.7386   6   7   0.1820   0.2328   0.1826  -0.1762   0.1648  -0.1580   0.00    0.0
2061 209012.000  -3120040.3665   4084613.8385   3764025.7403   6   7   0.1816   0.2324   0.1822  -0.1760   0.1647  -0.1577   0.00    0.0
2061 209013.000  -3120040.3793   4084613.8442   3764025.7492   6   7   0.1813   0.2321   0.1818  -0.1757   0.1645  -0.1574   0.00    0.0
2061 209014.000  -3120040.3801   4084613.8380   3764025.7541   6   7   0.1809   0.2317   0.1814  -0.1755   0.1644  -0.1572   0.00    0.0
2061 209015.000  -3120040.3784   4084613.8328   3764025.7577   6   7   0.1805   0.2314   0.1810  -0.1752   0.1642  -0.1569   0.00    0.0
2061 209016.000  -3120040.3797   4084613.8327   3764025.7621   6   7   0.1802   0.2310   0.1807  -0.1750   0.1641  -0.1566   0.00    0.0
2061 209017.000  -3120040.3745   4084613.8234   3764025.7586   6   7   0.1798   0.2306   0.1803  -0.1748   0.1639  -0.1563   0.00    0.0
2061 209018.000  -3120040.3785   4084613.8189   3764025.7657   6   7   0.1795   0.2303   0.1799  -0.1745   0.1637  -0.1560   0.00    0.0
2061 209019.000  -3120040.3829   4084613.8218   3764025.7718   6   7   0.1791   0.2299   0.1795  -0.1743   0.1636  -0.1557   0.00    0.0
2061 209020.000  -3120040.3855   4084613.8216   3764025.7721   6   7   0.1788   0.2296   0.1791  -0.1740   0.1634  -0.1555   0.00    0.0
2061 209021.000  -3120040.3894   4084613.8197   3764025.7768   6   7   0.1784   0.2292   0.1787  -0.1738   0.1633  -0.1552   0.00    0.0
2061 209022.000  -3120040.3936   4084613.8192   3764025.7754   6   7   0.1781   0.2289   0.1783  -0.1735   0.1631  -0.1549   0.00    0.0
2061 209023.000  -3120040.4001   4084613.8173   3764025.7786   6   7   0.1777   0.2285   0.1779  -0.1733   0.1630  -0.1546   0.00    0.0
2061 209024.000  -3120040.4042   4084613.8151   3764025.7863   6   7   0.1774   0.2281   0.1775  -0.1731   0.1628  -0.1543   0.00    0.0
2061 209025.000  -3120040.4096   4084613.8159   3764025.7939   6   7   0.1770   0.2278   0.1771  -0.1728   0.1626  -0.1540   0.00    0.0
2061 209026.000  -3120040.4120   4084613.8115   3764025.8044   6   7   0.1767   0.2274   0.1767  -0.1726   0.1625  -0.1538   0.00    0.0
2061 209027.000  -3120040.4163   4084613.8048   3764025.8087   6   7   0.1764   0.2271   0.1763  -0.1724   0.1623  -0.1535   0.00    0.0
2061 209028.000  -3120040.4202   4084613.8020   3764025.8086   6   7   0.1760   0.2267   0.1759  -0.1721   0.1622  -0.1532   0.00    0.0
2061 209029.000  -3120040.4240   4084613.8026   3764025.8131   6   7   0.1757   0.2263   0.1754  -0.1719   0.1620  -0.1529   0.00    0.0
2061 209030.000  -3120040.4289   4084613.8051   3764025.8179   6   7   0.1753   0.2260   0.1750  -0.1716   0.1618  -0.1526   0.00    0.0
2061 209031.000  -3120040.4382   4084613.8169   3764025.8271   6   7   0.1750   0.2256   0.1746  -0.1714   0.1617  -0.1523   0.00    0.0
2061 209032.000  -3120040.4436   4084613.8186   3764025.8344   6   7   0.1746   0.2253   0.1742  -0.1712   0.1615  -0.1520   0.00    0.0
2061 209033.000  -3120040.4481   4084613.8201   3764025.8400   6   7   0.1743   0.2249   0.1738  -0.1709   0.1613  -0.1517   0.00    0.0
2061 209034.000  -3120040.4579   4084613.8306   3764025.8522   6   7   0.1739   0.2245   0.1734  -0.1707   0.1612  -0.1514   0.00    0.0
2061 209035.000  -3120040.4669   4084613.8384   3764025.8594   6   7   0.1736   0.2241   0.1729  -0.1704   0.1610  -0.1511   0.00    0.0
2061 209036.000  -3120040.4727   4084613.8502   3764025.8619   6   7   0.1733   0.2238   0.1725  -0.1702   0.1608  -0.1508   0.00    0.0
2061 209037.000  -3120040.4726   4084613.8555   3764025.8626   6   7   0.1729   0.2234   0.1721  -0.1699   0.1606  -0.1505   0.00    0.0
2061 209038.000  -3120040.4748   4084613.8564   3764025.8662   6   7   0.1726   0.2230   0.1716  -0.1697   0.1605  -0.1502   0.00    0.0
2061 209039.000  -3120040.4757   4084613.8560   3764025.8681   6   7   0.1722   0.2226   0.1712  -0.1694   0.1603  -0.1499   0.00    0.0
2061 209040.000  -3120040.4807   4084613.8578   3764025.8727   6   7   0.1719   0.2222   0.1707  -0.1692   0.1601  -0.1496   0.00    0.0
2061 209041.000  -3120040.4912   4084613.8659   3764025.8774   6   7   0.1715   0.2219   0.1703  -0.1689   0.1599  -0.1493   0.00    0.0
2061 209042.000  -3120040.4906   4084613.8612   3764025.8726   6   7   0.1712   0.2215   0.1698  -0.1687   0.1597  -0.1490   0.00    0.0
2061 209043.000  -3120040.4896   4084613.8584   3764025.8733   6   7   0.1708   0.2211   0.1694  -0.1684   0.1595  -0.1487   0.00    0.0
2061 209044.000  -3120040.4903   4084613.8591   3764025.8750   6   7   0.1705   0.2207   0.1689  -0.1681   0.1593  -0.1483   0.00    0.0
2061 209045.000  -3120040.4862   4084613.8604   3764025.8738   6   7   0.1701   0.2203   0.1685  -0.1679   0.1591  -0.1480   0.00    0.0
2061 209046.000  -3120040.4839   4084613.8607   3764025.8768   6   7   0.1697   0.2198   0.1680  -0.1676   0.1589  -0.1477   0.00    0.0
2061 209047.000  -3120040.4829   4084613.8610   3764025.8797   6   7   0.1694   0.2194   0.1675  -0.1673   0.1587  -0.1474   0.00    0.0
2061 209048.000  -3120040.4845   4084613.8574   3764025.8840   6   7   0.1690   0.2190   0.1671  -0.1670   0.1585  -0.1470   0.00    0.0
2061 209049.000  -3120040.4816   4084613.8518   3764025.8859   6   7   0.1686   0.2186   0.1666  -0.1667   0.1583  -0.1467   0.00    0.0
2061 209050.000  -3120040.4813   4084613.8543   3764025.8912   6   7   0.1683   0.2181   0.1661  -0.1665   0.1581  -0.1463   0.00    0.0
2061 209051.000  -3120040.4828   4084613.8546   3764025.8959   6   7   0.1679   0.2177   0.1656  -0.1662   0.1578  -0.1460   0.00    0.0
2061 209052.000  -3120040.4840   4084613.8607   3764025.8995   6   7   0.1675   0.2173   0.1651  -0.1659   0.1576  -0.1456   0.00    0.0
2061 209053.000  -3120040.4852   4084613.8651   3764025.9030   6   7   0.1671   0.2168   0.1646  -0.1656   0.1574  -0.1453   0.00    0.0
2061 209054.000  -3120040.4836   4084613.8607   3764025.9042   6   7   0.1668   0.2164   0.1641  -0.1653   0.1571  -0.1449   0.00    0.0
2061 209055.000  -3120040.4845   4084613.8566   3764025.9084   6   7   0.1664   0.2159   0.1636  -0.1650   0.1569  -0.1446   0.00    0.0
2061 209056.000  -3120040.4886   4084613.8556   3764025.9173   6   7   0.1660   0.2154   0.1631  -0.1646   0.1567  -0.1442   0.00    0.0
2061 209057.000  -3120040.4891   4084613.8574   3764025.9232   6   7   0.1656   0.2150   0.1626  -0.1643   0.1564  -0.1438   0.00    0.0
2061 209058.000  -3120040.4887   4084613.8572   3764025.9285   6   7   0.1652   0.2145   0.1620  -0.1640   0.1561  -0.1434   0.00    0.0
2061 209059.000  -3120040.4902   4084613.8514   3764025.9341   6   7   0.1648   0.2140   0.1615  -0.1637   0.1559  -0.1431   0.00    0.0
2061 209060.000  -3120040.4855   4084613.8477   3764025.9334   6   7   0.1644   0.2135   0.1609  -0.1634   0.1556  -0.1427   0.00    0.0
2061 209061.000  -3120040.4809   4084613.8430   3764025.9323   6   7   0.1640   0.2130   0.1604  -0.1630   0.1553  -0.1423   0.00    0.0
2061 209062.000  -3120040.4724   4084613.8388   3764025.9316   6   7   0.1636   0.2125   0.1598  -0.1627   0.1551  -0.1419   0.00    0.0
2061 209063.000  -3120040.4734   4084613.8409   3764025.9309   6   7   0.1632   0.2120   0.1593  -0.1623   0.1548  -0.1415   0.00    0.0
2061 209064.000  -3120040.4759   4084613.8395   3764025.9337   6   7   0.1628   0.2115   0.1587  -0.1620   0.1545  -0.1410   0.00    0.0
2061 209065.000  -3120040.4740   4084613.8342   3764025.9340   6   7   0.1624   0.2109   0.1581  -0.1616   0.1542  -0.1406   0.00    0.0
2061 209066.000  -3120040.4682   4084613.8285   3764025.9319   6   7   0.1619   0.2104   0.1575  -0.1613   0.1539  -0.1402   0.00    0.0
2061 209067.000  -3120040.4702   4084613.8276   3764025.9326   6   7   0.1615   0.2099   0.1569  -0.1609   0.1536  -0.1398   0.00    0.0
2061 209068.000  -3120040.4699   4084613.8279   3764025.9356   6   7   0.1611   0.2093   0.1563  -0.1606   0.1533  -0.1394   0.00    0.0
2061 209069.000  -3120040.4732   4084613.8298   3764025.9392   6   7   0.1607   0.2088   0.1557  -0.1602   0.1529  -0.1389   0.00    0.0
2061 209070.000  -3120040.4763   4084613.8317   3764025.9395   6   7   0.1602   0.2082   0.1551  -0.1598   0.1526  -0.1385   0.00    0.0
2061 209071.000  -3120040.4785   4084613.8360   3764025.9472   6   7   0.1598   0.2077   0.1545  -0.1595   0.1523  -0.1381   0.00    0.0
2061 209072.000  -3120040.4864   4084613.8405   3764025.9521   6   7   0.1594   0.2071   0.1539  -0.1591   0.1520  -0.1376   0.00    0.0
2061 209073.000  -3120040.4933   4084613.8414   3764025.9602   6   7   0.1590   0.2066   0.1532  -0.1587   0.1517  -0.1372   0.00    0.0
2061 209074.000  -3120040.4969   4084613.8436   3764025.9608   6   7   0.1585   0.2060   0.1526  -0.1584   0.1513  -0.1368   0.00    0.0
2061 209075.000  -3120040.4977   4084613.8461   3764025.9675   6   7   0.1581   0.2054   0.1520  -0.1580   0.1510  -0.1363   0.00    0.0
2061 209076.000  -3120040.4973   4084613.8460   3764025.9707   6   7   0.1577   0.2049   0.1513  -0.1576   0.1507  -0.1359   0.00    0.0
2061 209077.000  -3120040.5060   4084613.8517   3764025.9792   6   7   0.1573   0.2043   0.1507  -0.1573   0.1503  -0.1354   0.00    0.0
2061 209078.000  -3120040.5052   4084613.8520   3764025.9842   6   7   0.1569   0.2037   0.1500  -0.1569   0.1500  -0.1350   0.00    0.0
2061 209079.000  -3120040.5083   4084613.8572   3764025.9918   6   7   0.1564   0.2031   0.1494  -0.1565   0.1496  -0.1345   0.00    0.0
2061 209080.000  -3120040.5129   4084613.8590   3764025.9986   6   7   0.1560   0.2025   0.1487  -0.1562   0.1493  -0.1341   0.00    0.0
2061 209081.000  -3120040.5181   4084613.8622   3764026.0038   6   7   0.1556   0.2019   0.1480  -0.1558   0.1489  -0.1337   0.00    0.0
2061 209082.000  -3120040.5200   4084613.8629   3764026.0109   6   7   0.1552   0.2013   0.1474  -0.1554   0.1486  -0.1332   0.00    0.0
2061 209083.000  -3120040.5177   4084613.8575   3764026.0133   6   7   0.1548   0.2007   0.1467  -0.1551   0.1482  -0.1327   0.00    0.0
2061 209084.000  -3120040.5227   4084613.8558   3764026.0201   6   7   0.1544   0.2001   0.1459  -0.1547   0.1478  -0.1323   0.00    0.0
2061 209085.000  -3120040.5261   4084613.8523   3764026.0240   6   7   0.1539   0.1995   0.1452  -0.1543   0.1474  -0.1318   0.00    0.0
2061 209086.000  -3120040.5318   4084613.8471   3764026.0322   6   7   0.1535   0.1988   0.1445  -0.1539   0.1470  -0.1313   0.00    0.0
2061 209087.000  -3120040.5378   4084613.8473   3764026.0398   6   7   0.1531   0.1982   0.1437  -0.1535   0.1465  -0.1309   0.00    0.0
2061 209088.000  -3120040.5435   4084613.8450   3764026.0452   6   7   0.1527   0.1975   0.1430  -0.1531   0.1461  -0.1304   0.00    0.0
2061 209089.000  -3120040.5509   4084613.8433   3764026.0528   6   7   0.1523   0.1968   0.1423  -0.1527   0.1456  -0.1299   0.00    0.0
2061 209090.000  -3120040.5529   4084613.8406   3764026.0601   6   7   0.1519   0.1962   0.1415  -0.1523   0.1452  -0.1294   0.00    0.0
2061 209091.000  -3120040.5631   4084613.8436   3764026.0691   6   7   0.1515   0.1955   0.1407  -0.1519   0.1447  -0.1289   0.00    0.0
2061 209092.000  -3120040.5736   4084613.8463   3764026.0780   6   7   0.1510   0.1947   0.1400  -0.1515   0.1442  -0.1284   0.00    0.0
2061 209093.000  -3120040.5827   4084613.8484   3764026.0874   6   7   0.1506   0.1940   0.1392  -0.1510   0.1437  -0.1279   0.00    0.0
2061 209094.000  -3120040.5892   4084613.8418   3764026.0953   6   7   0.1502   0.1933   0.1384  -0.1506   0.1431  -0.1274   0.00    0.0
2061 209095.000  -3120040.5973   4084613.8409   3764026.1045   6   7   0.1498   0.1925   0.1376  -0.1502   0.1426  -0.1269   0.00    0.0
2061 209096.000  -3120040.6025   4084613.8367   3764026.1123   6   7   0.1493   0.1918   0.1368  -0.1497   0.1420  -0.1264   0.00    0.0
2061 209097.000  -3120040.6078   4084613.8336   3764026.1198   6   7   0.1489   0.1910   0.1360  -0.1492   0.1415  -0.1259   0.00    0.0
2061 209098.000  -3120040.6147   4084613.8312   3764026.1304   6   7   0.1485   0.1903   0.1352  -0.1488   0.1409  -0.1253   0.00    0.0
2061 209099.000  -3120040.6258   4084613.8341   3764026.1415   6   7   0.1481   0.1895   0.1344  -0.1483   0.1403  -0.1248   0.00    0.0
2061 209100.000  -3120040.6353   4084613.8387   3764026.1533   6   7   0.1476   0.1887   0.1335  -0.1478   0.1396  -0.1243   0.00    0.0
2061 209101.000  -3120040.6469   4084613.8443   3764026.1665   6   7   0.1472   0.1879   0.1327  -0.1473   0.1390  -0.1237   0.00    0.0
2061 209102.000  -3120040.6581   4084613.8526   3764026.1748   6   7   0.1468   0.1871   0.1319  -0.1468   0.1383  -0.1232   0.00    0.0
2061 209103.000  -3120040.6744   4084613.8623   3764026.1847   6   7   0.1463   0.1863   0.1311  -0.1463   0.1376  -0.1226   0.00    0.0
2061 209104.000  -3120040.6812   4084613.8640   3764026.1893   6   7   0.1459   0.1855   0.1303  -0.1458   0.1370  -0.1221   0.00    0.0
2061 209105.000  -3120040.6881   4084613.8721   3764026.1959   6   7   0.1455   0.1848   0.1295  -0.1453   0.1363  -0.1215   0.00    0.0
2061 209106.000  -3120040.6997   4084613.8872   3764026.2097   6   7   0.1451   0.1841   0.1288  -0.1448   0.1357  -0.1211   0.00    0.0
2061 209107.000  -3120040.7123   4084613.9015   3764026.2186   6   7   0.1447   0.1834   0.1280  -0.1443   0.1351  -0.1205   0.00    0.0
2061 209108.000  -3120040.7229   4084613.9070   3764026.2234   6   7   0.1443   0.1826   0.1273  -0.1438   0.1344  -0.1200   0.00    0.0
2061 209109.000  -3120040.7323   4084613.9144   3764026.2300   6   7   0.1439   0.1819   0.1266  -0.1433   0.1338  -0.1195   0.00    0.0
2061 209110.000  -3120040.7426   4084613.9251   3764026.2397   6   7   0.1435   0.1813   0.1259  -0.1429   0.1331  -0.1190   0.00    0.0
2061 209111.000  -3120040.7474   4084613.9309   3764026.2423   6   7   0.1432   0.1806   0.1252  -0.1424   0.1325  -0.1185   0.00    0.0
2061 209112.000  -3120040.7561   4084613.9425   3764026.2501   6   7   0.1428   0.1800   0.1245  -0.1420   0.1319  -0.1181   0.00    0.0
2061 209113.000  -3120040.7657   4084613.9530   3764026.2578   6   7   0.1424   0.1793   0.1239  -0.1415   0.1313  -0.1176   0.00    0.0
2061 209114.000  -3120040.7769   4084613.9686   3764026.2659   6   7   0.1421   0.1787   0.1233  -0.1411   0.1308  -0.1172   0.00    0.0
2061 209115.000  -3120040.7885   4084613.9838   3764026.2759   6   7   0.1417   0.1781   0.1226  -0.1407   0.1302  -0.1167   0.00    0.0
2061 209116.000  -3120040.7962   4084613.9911   3764026.2834   6   7   0.1414   0.1775   0.1220  -0.1402   0.1296  -0.1162   0.00    0.0
2061 209117.000  -3120040.8054   4084614.0008   3764026.2898   6   7   0.1410   0.1769   0.1214  -0.1398   0.1290  -0.1158   0.00    0.0
2061 209118.000  -3120040.8144   4084614.0098   3764026.2962   6   7   0.1406   0.1763   0.1208  -0.1394   0.1284  -0.1153   0.00    0.0
2061 209119.000  -3120040.8252   4084614.0232   3764026.3043   6   7   0.1403   0.1757   0.1202  -0.1389   0.1278  -0.1149   0.00    0.0
2061 209120.000  -3120040.8365   4084614.0360   3764026.3135   6   7   0.1399   0.1751   0.1196  -0.1385   0.1273  -0.1144   0.00    0.0
2061 209121.000  -3120040.8481   4084614.0507   3764026.3243   6   7   0.1396   0.1745   0.1190  -0.1381   0.1267  -0.1140   0.00    0.0
2061 209122.000  -3120040.8541   4084614.0616   3764026.3323   6   7   0.1392   0.1739   0.1184  -0.1376   0.1261  -0.1135   0.00    0.0
2061 209123.000  -3120040.8598   4084614.0699   3764026.3387   6   7   0.1389   0.1733   0.1177  -0.1372   0.1255  -0.1131   0.00    0.0
2061 209124.000  -3120040.8694   4084614.0839   3764026.3449   6   7   0.1385   0.1728   0.1172  -0.1367   0.1249  -0.1126   0.00    0.0
2061 209125.000  -3120040.8761   4084614.0963   3764026.3517   6   7   0.1381   0.1722   0.1166  -0.1363   0.1243  -0.1122   0.00    0.0
2061 209126.000  -3120040.8813   4084614.1038   3764026.3572   6   7   0.1378   0.1716   0.1160  -0.1358   0.1237  -0.1117   0.00    0.0
2061 209127.000  -3120040.8913   4084614.1165   3764026.3656   6   7   0.1374   0.1710   0.1154  -0.1354   0.1231  -0.1113   0.00    0.0
2061 209128.000  -3120040.8969   4084614.1276   3764026.3731   6   7   0.1370   0.1704   0.1148  -0.1349   0.1225  -0.1108   0.00    0.0
2061 209129.000  -3120040.9049   4084614.1373   3764026.3807   6   7   0.1367   0.1698   0.1143  -0.1345   0.1219  -0.1104   0.00    0.0
2061 209130.000  -3120040.9122   4084614.1437   3764026.3864   6   7   0.1363   0.1692   0.1137  -0.1340   0.1213  -0.1099   0.00    0.0
2061 209131.000  -3120040.9182   4084614.1516   3764026.3916   6   7   0.1360   0.1687   0.1131  -0.1336   0.1208  -0.1095   0.00    0.0
2061 209132.000  -3120040.9185   4084614.1594   3764026.3949   6   7   0.1356   0.1681   0.1126  -0.1331   0.1202  -0.1090   0.00    0.0
2061 209133.000  -3120040.9175   4084614.1622   3764026.3974   6   7   0.1346   0.1616   0.1118  -0.1304   0.1211  -0.1091   0.00    0.0
2061 209134.000  -3120040.9206   4084614.1671   3764026.4001   6   7   0.1342   0.1609   0.1114  -0.1299   0.1206  -0.1087   0.00    0.0
2061 209135.000  -3120040.9207   4084614.1697   3764026.4009   6   7   0.1338   0.1602   0.1109  -0.1294   0.1200  -0.1083   0.00    0.0
2061 209136.000  -3120040.9226   4084614.1769   3764026.4048   6   7   0.1335   0.1596   0.1105  -0.1290   0.1195  -0.1079   0.00    0.0
2061 209137.000  -3120040.9227   4084614.1838   3764026.4088   6   7   0.1332   0.1590   0.1101  -0.1285   0.1190  -0.1076   0.00    0.0
2061 209138.000  -3120040.9239   4084614.1919   3764026.4108   6   7   0.1328   0.1583   0.1097  -0.1281   0.1185  -0.1072   0.00    0.0
2061 209139.000  -3120040.9249   4084614.1988   3764026.4150   6   7   0.1325   0.1578   0.1093  -0.1276   0.1180  -0.1068   0.00    0.0
2061 209140.000  -3120040.9229   4084614.2038   3764026.4176   6   7   0.1322   0.1572   0.1089  -0.1272   0.1175  -0.1065   0.00    0.0
2061 209141.000  -3120040.9259   4084614.2106   3764026.4221   6   7   0.1319   0.1566   0.1086  -0.1268   0.1170  -0.1062   0.00    0.0
2061 209142.000  -3120040.9325   4084614.2176   3764026.4267   6   7   0.1316   0.1561   0.1082  -0.1264   0.1166  -0.1058   0.00    0.0
2061 209143.000  -3120040.9358   4084614.2232   3764026.4279   6   7   0.1313   0.1556   0.1079  -0.1260   0.1162  -0.1055   0.00    0.0
2061 209144.000  -3120040.9417   4084614.2328   3764026.4327   6   7   0.1310   0.1551   0.1076  -0.1256   0.1158  -0.1052   0.00    0.0
2061 209145.000  -3120040.9414   4084614.2353   3764026.4342   6   7   0.1307   0.1546   0.1072  -0.1253   0.1154  -0.1049   0.00    0.0
2061 209146.000  -3120040.9425   4084614.2382   3764026.4365   6   7   0.1304   0.1541   0.1069  -0.1249   0.1150  -0.1046   0.00    0.0
2061 209147.000  -3120040.9453   4084614.2406   3764026.4386   6   7   0.1301   0.1536   0.1066  -0.1246   0.1146  -0.1044   0.00    0.0
2061 209148.000  -3120040.9490   4084614.2460   3764026.4426   6   7   0.1298   0.1532   0.1063  -0.1242   0.1142  -0.1041   0.00    0.0
2061 209149.000  -3120040.9564   4084614.2547   3764026.4482   6   7   0.1296   0.1528   0.1060  -0.1239   0.1139  -0.1038   0.00    0.0
2061 209150.000  -3120040.9580   4084614.2571   3764026.4495   6   7   0.1293   0.1523   0.1058  -0.1236   0.1135  -0.1036   0.00    0.0
2061 209151.000  -3120040.9582   4084614.2579   3764026.4502   6   7   0.1291   0.1519   0.1055  -0.1233   0.1132  -0.1033   0.00    0.0
2061 209152.000  -3120040.9638   4084614.2658   3764026.4546   6   7   0.1288   0.1515   0.1052  -0.1230   0.1129  -0.1031   0.00    0.0
2061 209153.000  -3120040.9647   4084614.2706   3764026.4571   6   7   0.1286   0.1512   0.1050  -0.1227   0.1126  -0.1028   0.00    0.0
2061 209154.000  -3120040.9667   4084614.2733   3764026.4585   6   7   0.1283   0.1508   0.1047  -0.1224   0.1122  -0.1026   0.00    0.0
2061 209155.000  -3120040.9704   4084614.2785   3764026.4617   6   7   0.1061   0.0587   0.0665  -0.0706   0.0370  -0.0685   0.00    0.0
2061 209156.000  -3120040.9714   4084614.2797   3764026.4618   6   7   0.1060   0.0586   0.0664  -0.0704   0.0369  -0.0684   0.00    0.0
2061 209157.000  -3120040.9683   4084614.2794   3764026.4607   6   7   0.1058   0.0585   0.0663  -0.0703   0.0368  -0.0683   0.00    0.0
2061 209158.000  -3120040.9682   4084614.2806   3764026.4597   6   7   0.1056   0.0584   0.0662  -0.0702   0.0367  -0.0682   0.00    0.0
2061 209159.000  -3120040.9657   4084614.2803   3764026.4590   6   7   0.1055   0.0583   0.0661  -0.0701   0.0366  -0.0681   0.00    0.0
2061 209160.000  -3120040.9710   4084614.2830   3764026.4615   6   7   0.1053   0.0582   0.0660  -0.0700   0.0365  -0.0680   0.00    0.0
2061 209161.000  -3120040.9732   4084614.2845   3764026.4625   6   7   0.1052   0.0581   0.0659  -0.0699   0.0365  -0.0679   0.00    0.0
2061 209162.000  -3120040.9762   4084614.2869   3764026.4625   6   7   0.1050   0.0581   0.0658  -0.0697   0.0364  -0.0678   0.00    0.0
2061 209163.000  -3120040.9789   4084614.2883   3764026.4634   6   7   0.1049   0.0580   0.0657  -0.0696   0.0363  -0.0676   0.00    0.0
2061 209164.000  -3120040.9835   4084614.2909   3764026.4648   6   7   0.1047   0.0579   0.0656  -0.0695   0.0362  -0.0675   0.00    0.0
2061 209165.000  -3120040.9868   4084614.2926   3764026.4664   6   7   0.1046   0.0578   0.0655  -0.0694   0.0361  -0.0674   0.00    0.0
2061 209166.000  -3120040.9872   4084614.2933   3764026.4666   6   7   0.1045   0.0577   0.0654  -0.0693   0.0361  -0.0673   0.00    0.0
2061 209167.000  -3120040.9861   4084614.2936   3764026.4658   6   7   0.1043   0.0577   0.0654  -0.0692   0.0360  -0.0673   0.00    0.0
2061 209168.000  -3120040.9884   4084614.2952   3764026.4660   6   7   0.1042   0.0576   0.0653  -0.0691   0.0359  -0.0672   0.00    0.0
2061 209169.000  -3120040.9881   4084614.2954   3764026.4666   6   7   0.1040   0.0575   0.0652  -0.0690   0.0358  -0.0671   0.00    0.0
2061 209170.000  -3120040.9900   4084614.2962   3764026.4680   6   7   0.1039   0.0574   0.0651  -0.0689   0.0358  -0.0670   0.00    0.0
2061 209171.000  -3120040.9901   4084614.2963   3764026.4686   6   7   0.1037   0.0574   0.0650  -0.0688   0.0357  -0.0669   0.00    0.0
2061 209172.000  -3120040.9910   4084614.2965   3764026.4696   6   7   0.1036   0.0573   0.0649  -0.0687   0.0356  -0.0668   0.00    0.0
2061 209173.000  -3120040.9929   4084614.2977   3764026.4696   6   7   0.1035   0.0572   0.0649  -0.0686   0.0355  -0.0667   0.00    0.0
2061 209174.000  -3120040.9983   4084614.3004   3764026.4708   6   7   0.1033   0.0571   0.0648  -0.0685   0.0355  -0.0666   0.00    0.0
2061 209175.000  -3120041.0002   4084614.3016   3764026.4710   6   7   0.1032   0.0571   0.0647  -0.0684   0.0354  -0.0665   0.00    0.0
2061 209176.000  -3120041.0021   4084614.3030   3764026.4711   6   7   0.1031   0.0570   0.0646  -0.0683   0.0353  -0.0664   0.00    0.0
2061 209177.000  -3120041.0067   4084614.3050   3764026.4731   6   7   0.1029   0.0569   0.0645  -0.0682   0.0353  -0.0663   0.00    0.0
2061 209178.000  -3120041.0073   4084614.3048   3764026.4744   6   7   0.1028   0.0569   0.0645  -0.0681   0.0352  -0.0662   0.00    0.0
2061 209179.000  -3120041.0078   4084614.3046   3764026.4754   6   7   0.1027   0.0568   0.0644  -0.0680   0.0351  -0.0662   0.00    0.0
2061 209180.000  -3120041.0081   4084614.3048   3764026.4756   6   7   0.1025   0.0567   0.0643  -0.0679   0.0351  -0.0661   0.00    0.0
2061 209181.000  -3120041.0048   4084614.3038   3764026.4739   6   7   0.1024   0.0567   0.0643  -0.0678   0.0350  -0.0660   0.00    0.0
2061 209182.000  -3120041.0025   4084614.3030   3764026.4732   6   7   0.1023   0.0566   0.0642  -0.0677   0.0350  -0.0659   0.00    0.0
2061 209183.000  -3120041.0031   4084614.3033   3764026.4735   6   7   0.1021   0.0566   0.0641  -0.0677   0.0349  -0.0658   0.00    0.0
2061 209184.000  -3120041.0056   4084614.3041   3764026.4753   6   7   0.1020   0.0565   0.0640  -0.0676   0.0348  -0.0657   0.00    0.0
2061 209185.000  -3120041.0054   4084614.3041   3764026.4753   6   7   0.1019   0.0564   0.0640  -0.0675   0.0348  -0.0657   0.00    0.0
2061 209186.000  -3120041.0062   4084614.3042   3764026.4763   6   7   0.1017   0.0564   0.0639  -0.0674   0.0347  -0.0656   0.00    0.0
2061 209187.000  -3120041.0072   4084614.3051   3764026.4762   6   7   0.1016   0.0563   0.0638  -0.0673   0.0347  -0.0655   0.00    0.0
2061 209188.000  -3120041.0115   4084614.3070   3764026.4773   6   7   0.1015   0.0562   0.0638  -0.0672   0.0346  -0.0654   0.00    0.0
2061 209189.000  -3120041.0129   4084614.3079   3764026.4774   6   7   0.1014   0.0562   0.0637  -0.0671   0.0346  -0.0653   0.00    0.0
2061 209190.000  -3120041.0166   4084614.3093   3764026.4793   6   7   0.1012   0.0561   0.0636  -0.0670   0.0345  -0.0653   0.00    0.0
2061 209191.000  -3120041.0191   4084614.3105   3764026.4799   6   7   0.1011   0.0561   0.0636  -0.0670   0.0344  -0.0652   0.00    0.0
2061 209192.000  -3120041.0193   4084614.3102   3764026.4806   6   7   0.1010   0.0560   0.0635  -0.0669   0.0344  -0.0651   0.00    0.0
2061 209193.000  -3120041.0202   4084614.3102   3764026.4816   6   7   0.1009   0.0560   0.0634  -0.0668   0.0343  -0.0650   0.00    0.0
2061 209194.000  -3120041.0220   4084614.3104   3764026.4832   6   7   0.1007   0.0559   0.0634  -0.0667   0.0343  -0.0650   0.00    0.0
2061 209195.000  -3120041.0246   4084614.3115   3764026.4839   6   7   0.1006   0.0558   0.0633  -0.0666   0.0342  -0.0649   0.00    0.0
2061 209196.000  -3120041.0250   4084614.3113   3764026.4851   6   7   0.1005   0.0558   0.0633  -0.0665   0.0342  -0.0648   0.00    0.0
2061 209197.000  -3120041.0248   4084614.3110   3764026.4854   6   7   0.1004   0.0557   0.0632  -0.0665   0.0341  -0.0647   0.00    0.0
2061 209198.000  -3120041.0255   4084614.3111   3764026.4859   6   7   0.1003   0.0557   0.0631  -0.0664   0.0341  -0.0647   0.00    0.0
2061 209199.000  -3120041.0286   4084614.3126   3764026.4869   6   7   0.1001   0.0556   0.0631  -0.0663   0.0340  -0.0646   0.00    0.0
2061 209200.000  -3120041.0304   4084614.3129   3764026.4883   6   7   0.1000   0.0556   0.0630  -0.0662   0.0340  -0.0645   0.00    0.0
2061 209201.000  -3120041.0305   4084614.3131   3764026.4882   6   7   0.0999   0.0555   0.0630  -0.0661   0.0339  -0.0645   0.00    0.0
2061 209202.000  -3120041.0323   4084614.3137   3764026.4896   6   7   0.0998   0.0555   0.0629  -0.0661   0.0339  -0.0644   0.00    0.0
2061 209203.000  -3120041.0376   4084614.3157   3764026.4918   6   7   0.0997   0.0554   0.0628  -0.0660   0.0338  -0.0643   0.00    0.0
2061 209204.000  -3120041.0390   4084614.3159   3764026.4932   6   7   0.0996   0.0554   0.0628  -0.0659   0.0338  -0.0642   0.00    0.0
2061 209205.000  -3120041.0420   4084614.3167   3764026.4952   6   7   0.0994   0.0553   0.0627  -0.0658   0.0337  -0.0642   0.00    0.0
2061 209206.000  -3120041.0389   4084614.3152   3764026.4949   6   7   0.0993   0.0553   0.0627  -0.0657   0.0337  -0.0641   0.00    0.0
2061 209207.000  -3120041.0409   4084614.3157   3764026.4966   6   7   0.0992   0.0552   0.0626  -0.0657   0.0337  -0.0640   0.00    0.0
2061 209208.000  -3120041.0415   4084614.3160   3764026.4964   6   7   0.0991   0.0552   0.0626  -0.0656   0.0336  -0.0640   0.00    0.0
2061 209209.000  -3120041.0432   4084614.3161   3764026.4981   6   7   0.0990   0.0551   0.0625  -0.0655   0.0336  -0.0639   0.00    0.0
2061 209210.000  -3120041.0447   4084614.3168   3764026.4983   6   7   0.0989   0.0551   0.0624  -0.0654   0.0335  -0.0638   0.00    0.0
2061 209211.000  -3120041.0474   4084614.3181   3764026.4991   6   7   0.0988   0.0550   0.0624  -0.0654   0.0335  -0.0638   0.00    0.0
2061 209212.000  -3120041.0502   4084614.3190   3764026.5007   6   7   0.0986   0.0550   0.0623  -0.0653   0.0334  -0.0637   0.00    0.0
2061 209213.000  -3120041.0540   4084614.3205   3764026.5022   6   7   0.0985   0.0549   0.0623  -0.0652   0.0334  -0.0636   0.00    0.0
2061 209214.000  -3120041.0542   4084614.3210   3764026.5014   6   7   0.0984   0.0549   0.0622  -0.0651   0.0333  -0.0636   0.00    0.0
2061 209215.000  -3120041.0558   4084614.3214   3764026.5027   6   7   0.0983   0.0548   0.0622  -0.0651   0.0333  -0.0635   0.00    0.0
2061 209216.000  -3120041.0535   4084614.3206   3764026.5018   6   7   0.0982   0.0548   0.0621  -0.0650   0.0333  -0.0634   0.00    0.0
2061 209217.000  -3120041.0510   4084614.3190   3764026.5021   6   7   0.0981   0.0547   0.0621  -0.0649   0.0332  -0.0634   0.00    0.0
2061 209218.000  -3120041.0491   4084614.3182   3764026.5014   6   7   0.0980   0.0547   0.0620  -0.0648   0.0332  -0.0633   0.00    0.0
2061 209219.000  -3120041.0496   4084614.3191   3764026.5003   6   7   0.0979   0.0546   0.0620  -0.0648   0.0331  -0.0632   0.00    0.0
2061 209220.000  -3120041.0512   4084614.3196   3764026.5010   6   7   0.0978   0.0546   0.0619  -0.0647   0.0331  -0.0632   0.00    0.0
2061 209221.000  -3120041.0537   4084614.3206   3764026.5021   6   7   0.0977   0.0546   0.0619  -0.0646   0.0331  -0.0631   0.00    0.0
2061 209222.000  -3120041.0525   4084614.3205   3764026.5007   6   7   0.0976   0.0545   0.0618  -0.0646   0.0330  -0.0631   0.00    0.0
2061 209223.000  -3120041.0522   4084614.3200   3764026.5011   6   7   0.0974   0.0545   0.0618  -0.0645   0.0330  -0.0630   0.00    0.0
2061 209224.000  -3120041.0504   4084614.3193   3764026.5007   6   7   0.0973   0.0544   0.0617  -0.0644   0.0329  -0.0629   0.00    0.0
2061 209225.000  -3120041.0467   4084614.3176   3764026.4996   6   7   0.0972   0.0544   0.0617  -0.0644   0.0329  -0.0629   0.00    0.0
