% program   : RTKLIB ver.2.4.3
% inp file  : D:\mycode\vscode\rtklib\rtklib\leo_data\leo1.clk
% inp file  : D:\mycode\vscode\rtklib\rtklib\leo_data\leotest2781.obs
% inp file  : D:\mycode\vscode\rtklib\rtklib\leo_data\leo1.sp3
% obs start : 2019/01/10 09:51:54.0 GPST (week2035 381114.0s)
% obs end   : 2019/01/10 09:54:43.6 GPST (week2035 381283.6s)
% pos mode  : PPP Kinematic
% solution  : Forward
% elev mask : 5.0 deg
% dynamics  : on
% tidecorr  : off
% tropo opt : Estimate ZTD
% ephemeris : Precise
% navi sys  :
% antenna1  :                       ( 0.0000  0.0000  0.0000)
%
% (x/y/z-ecef=WGS84,Q=1:fix,2:float,3:sbas,4:dgps,5:single,6:ppp,ns=# of satellites)
%  GPST                      x-ecef(m)      y-ecef(m)      z-ecef(m)   Q  ns   sdx(m)   sdy(m)   sdz(m)  sdxy(m)  sdyz(m)  sdzx(m) age(s)  ratio
2019/01/10 09:51:54.000  -2180214.8987   4394324.3498   4078354.3879   6   8   4.0578   5.3825   4.4339  -1.4556   4.1156  -1.6086   0.00    0.0
2019/01/10 09:51:54.200  -2180264.2869   4394338.1051   4078333.7170   6   8   2.8724   3.8213   3.1426  -1.0400   2.9217  -1.1425   0.00    0.0
2019/01/10 09:51:54.400  -2180314.0515   4394356.0252   4078315.8970   6   8   2.3438   3.1249   2.5645  -0.8553   2.3875  -0.9357   0.00    0.0
2019/01/10 09:51:54.600  -2180363.6643   4394371.4529   4078296.3212   6   8   2.0275   2.7083   2.2172  -0.7457   2.0672  -0.8130   0.00    0.0
2019/01/10 09:51:54.800  -2180412.5618   4394388.8871   4078279.6527   6   8   1.8110   2.4233   1.9784  -0.6713   1.8474  -0.7301   0.00    0.0
2019/01/10 09:51:55.000  -2180462.5730   4394405.0860   4078260.2748   6   8   1.6507   2.2123   1.8006  -0.6168   1.6843  -0.6697   0.00    0.0
2019/01/10 09:51:55.200  -2180512.7929   4394419.4635   4078239.9409   6   8   1.5257   2.0479   1.6611  -0.5747   1.5568  -0.6233   0.00    0.0
2019/01/10 09:51:55.400  -2180562.7509   4394436.3652   4078221.8213   6   8   1.4248   1.9150   1.5476  -0.5411   1.4533  -0.5866   0.00    0.0
2019/01/10 09:51:55.600  -2180612.8497   4394451.0831   4078201.7980   6   8   1.3409   1.8045   1.4525  -0.5134   1.3670  -0.5567   0.00    0.0
2019/01/10 09:51:55.800  -2180663.4543   4394466.4011   4078181.3557   6   8   1.2697   1.7108   1.3711  -0.4902   1.2934  -0.5318   0.00    0.0
2019/01/10 09:51:56.000  -2180713.3000   4394483.4719   4078163.3653   6   8   1.2083   1.6297   1.3003  -0.4703   1.2297  -0.5109   0.00    0.0
2019/01/10 09:51:56.200  -2180763.3440   4394499.0371   4078144.3038   6   8   1.1545   1.5588   1.2377  -0.4530   1.1736  -0.4929   0.00    0.0
2019/01/10 09:51:56.400  -2180812.5248   4394515.7685   4078127.3036   6   8   1.1070   1.4958   1.1819  -0.4378   1.1237  -0.4773   0.00    0.0
2019/01/10 09:51:56.600  -2180862.2652   4394530.5924   4078106.9112   6   8   1.0645   1.4395   1.1314  -0.4243   1.0788  -0.4637   0.00    0.0
2019/01/10 09:51:56.800  -2180912.1651   4394545.8306   4078087.4554   6   8   1.0263   1.3886   1.0856  -0.4121   1.0382  -0.4516   0.00    0.0
2019/01/10 09:51:57.000  -2180961.8811   4394561.4778   4078068.1883   6   8   0.9915   1.3424   1.0436  -0.4011   1.0011  -0.4409   0.00    0.0
2019/01/10 09:51:57.200  -2181011.7616   4394577.0520   4078048.5678   6   8   0.9598   1.3000   1.0048  -0.3911   0.9670  -0.4312   0.00    0.0
2019/01/10 09:51:57.400  -2181061.0532   4394593.0522   4078030.6437   6   8   0.9307   1.2610   0.9690  -0.3818   0.9356  -0.4224   0.00    0.0
2019/01/10 09:51:57.600  -2181111.0711   4394607.9188   4078010.2404   6   8   0.9039   1.2249   0.9356  -0.3732   0.9064  -0.4144   0.00    0.0
2019/01/10 09:51:57.800  -2181160.4702   4394624.9399   4077992.9761   6   8   0.8790   1.1913   0.9044  -0.3651   0.8791  -0.4070   0.00    0.0
2019/01/10 09:51:58.000  -2181209.5288   4394640.5496   4077975.1193   6   8   0.8559   1.1599   0.8752  -0.3576   0.8537  -0.4002   0.00    0.0
2019/01/10 09:51:58.200  -2181259.1771   4394656.7351   4077956.9992   6   8   0.8343   1.1305   0.8477  -0.3505   0.8297  -0.3938   0.00    0.0
2019/01/10 09:51:58.400  -2181309.1555   4394674.0095   4077939.3191   6   8   0.8140   1.1029   0.8217  -0.3437   0.8072  -0.3878   0.00    0.0
2019/01/10 09:51:58.600  -2181359.2929   4394688.7616   4077918.2739   6   8   0.7950   1.0768   0.7972  -0.3372   0.7859  -0.3821   0.00    0.0
2019/01/10 09:51:58.800  -2181409.2404   4394704.3713   4077898.1517   6   8   0.7771   1.0521   0.7740  -0.3310   0.7658  -0.3767   0.00    0.0
2019/01/10 09:51:59.000  -2181459.0838   4394720.0766   4077879.0348   6   8   0.7602   1.0286   0.7519  -0.3250   0.7466  -0.3716   0.00    0.0
2019/01/10 09:51:59.200  -2181509.0897   4394735.1575   4077859.3373   6   8   0.7442   1.0063   0.7310  -0.3193   0.7284  -0.3667   0.00    0.0
2019/01/10 09:51:59.400  -2181558.8618   4394749.4485   4077838.8122   6   8   0.7290   0.9851   0.7110  -0.3137   0.7111  -0.3619   0.00    0.0
2019/01/10 09:51:59.600  -2181609.3333   4394766.2464   4077819.6829   6   8   0.7146   0.9648   0.6920  -0.3082   0.6945  -0.3574   0.00    0.0
2019/01/10 09:51:59.800  -2181659.2313   4394780.8488   4077799.4936   6   8   0.7009   0.9454   0.6738  -0.3029   0.6787  -0.3529   0.00    0.0
2019/01/10 09:52:00.000  -2181708.8159   4394796.0909   4077780.3398   6   8   0.6878   0.9268   0.6564  -0.2977   0.6635  -0.3486   0.00    0.0
2019/01/10 09:52:00.200  -2181758.8185   4394811.7647   4077760.7486   6   8   0.6753   0.9089   0.6398  -0.2926   0.6489  -0.3444   0.00    0.0
2019/01/10 09:52:00.400  -2181808.7893   4394827.8823   4077741.9167   6   8   0.6634   0.8917   0.6239  -0.2876   0.6350  -0.3403   0.00    0.0
2019/01/10 09:52:00.600  -2181858.7937   4394843.9186   4077723.3551   6   8   0.6519   0.8751   0.6086  -0.2827   0.6215  -0.3363   0.00    0.0
2019/01/10 09:52:00.800  -2181908.9077   4394859.9753   4077704.0279   6   8   0.6409   0.8591   0.5939  -0.2779   0.6086  -0.3324   0.00    0.0
2019/01/10 09:52:01.000  -2181958.4428   4394876.6712   4077685.8508   6   8   0.6304   0.8437   0.5798  -0.2731   0.5961  -0.3285   0.00    0.0
2019/01/10 09:52:01.200  -2182008.1602   4394893.6252   4077667.9088   6   8   0.6203   0.8287   0.5663  -0.2684   0.5840  -0.3247   0.00    0.0
2019/01/10 09:52:01.400  -2182057.5181   4394910.0386   4077649.7732   6   8   0.6105   0.8143   0.5532  -0.2637   0.5724  -0.3210   0.00    0.0
2019/01/10 09:52:01.600  -2182107.1736   4394925.4335   4077630.3686   6   8   0.6011   0.8003   0.5406  -0.2591   0.5611  -0.3173   0.00    0.0
2019/01/10 09:52:01.800  -2182157.0397   4394940.7728   4077610.9550   6   8   0.5920   0.7867   0.5285  -0.2546   0.5502  -0.3137   0.00    0.0
2019/01/10 09:52:02.000  -2182206.4905   4394957.4726   4077592.8251   6   8   0.5833   0.7735   0.5169  -0.2500   0.5397  -0.3101   0.00    0.0
2019/01/10 09:52:02.200  -2182256.5270   4394973.2224   4077573.9543   6   8   0.5748   0.7607   0.5056  -0.2455   0.5294  -0.3065   0.00    0.0
2019/01/10 09:52:02.400  -2182306.0464   4394988.5809   4077554.7022   6   8   0.5666   0.7482   0.4947  -0.2411   0.5195  -0.3030   0.00    0.0
2019/01/10 09:52:02.600  -2182355.8904   4395004.8475   4077536.2414   6   8   0.5587   0.7361   0.4842  -0.2366   0.5099  -0.2996   0.00    0.0
2019/01/10 09:52:02.800  -2182405.6437   4395020.1389   4077517.1140   6   8   0.5510   0.7243   0.4740  -0.2322   0.5005  -0.2962   0.00    0.0
2019/01/10 09:52:03.000  -2182455.4040   4395035.4797   4077497.3407   6   8   0.5436   0.7127   0.4642  -0.2278   0.4914  -0.2928   0.00    0.0
2019/01/10 09:52:03.200  -2182505.2640   4395051.6518   4077478.8035   6   8   0.5363   0.7015   0.4547  -0.2235   0.4825  -0.2894   0.00    0.0
2019/01/10 09:52:03.400  -2182555.3246   4395067.7612   4077459.6129   6   8   0.5293   0.6905   0.4455  -0.2191   0.4739  -0.2861   0.00    0.0
2019/01/10 09:52:03.600  -2182605.1044   4395083.2455   4077440.4755   6   8   0.5225   0.6799   0.4365  -0.2148   0.4655  -0.2828   0.00    0.0
2019/01/10 09:52:03.800  -2182655.1132   4395100.1561   4077422.0942   6   8   0.5159   0.6694   0.4279  -0.2105   0.4574  -0.2796   0.00    0.0
2019/01/10 09:52:04.000  -2182704.2743   4395115.5782   4077403.3264   6   8   0.5094   0.6592   0.4195  -0.2062   0.4494  -0.2764   0.00    0.0
2019/01/10 09:52:04.200  -2182754.0543   4395130.3449   4077383.7215   6   8   0.5031   0.6492   0.4113  -0.2020   0.4416  -0.2732   0.00    0.0
2019/01/10 09:52:04.400  -2182803.9755   4395147.0058   4077365.1723   6   8   0.4970   0.6395   0.4034  -0.1977   0.4341  -0.2700   0.00    0.0
2019/01/10 09:52:04.600  -2182853.8878   4395163.5412   4077346.7378   6   8   0.4911   0.6299   0.3958  -0.1935   0.4267  -0.2669   0.00    0.0
2019/01/10 09:52:04.800  -2182903.3039   4395178.6737   4077327.6936   6   8   0.4852   0.6206   0.3883  -0.1892   0.4194  -0.2638   0.00    0.0
2019/01/10 09:52:05.000  -2182953.3423   4395194.4521   4077308.7449   6   8   0.4796   0.6115   0.3811  -0.1850   0.4124  -0.2608   0.00    0.0
2019/01/10 09:52:05.200  -2183003.0768   4395211.2483   4077290.2836   6   8   0.4740   0.6025   0.3740  -0.1808   0.4055  -0.2578   0.00    0.0
2019/01/10 09:52:05.400  -2183052.6707   4395226.5486   4077271.0828   6   8   0.4686   0.5937   0.3672  -0.1766   0.3988  -0.2548   0.00    0.0
2019/01/10 09:52:05.600  -2183102.2155   4395242.4136   4077252.2796   6   8   0.4634   0.5852   0.3605  -0.1724   0.3922  -0.2518   0.00    0.0
2019/01/10 09:52:05.800  -2183151.8178   4395258.2314   4077232.9992   6   8   0.4582   0.5768   0.3541  -0.1682   0.3857  -0.2489   0.00    0.0
2019/01/10 09:52:06.000  -2183201.5301   4395274.0012   4077213.7352   6   8   0.4531   0.5685   0.3477  -0.1640   0.3794  -0.2460   0.00    0.0
2019/01/10 09:52:06.200  -2183251.1879   4395289.4243   4077194.5055   6   8   0.4482   0.5604   0.3416  -0.1599   0.3733  -0.2431   0.00    0.0
2019/01/10 09:52:06.400  -2183301.5227   4395305.6978   4077175.2992   6   8   0.4434   0.5525   0.3356  -0.1557   0.3673  -0.2403   0.00    0.0
2019/01/10 09:52:06.600  -2183351.3681   4395322.6689   4077157.5835   6   8   0.4386   0.5448   0.3298  -0.1515   0.3614  -0.2375   0.00    0.0
2019/01/10 09:52:06.800  -2183401.1383   4395338.3272   4077138.5771   6   8   0.4340   0.5372   0.3241  -0.1474   0.3556  -0.2347   0.00    0.0
2019/01/10 09:52:07.000  -2183450.7464   4395353.4987   4077119.3190   6   8   0.4295   0.5297   0.3186  -0.1432   0.3499  -0.2319   0.00    0.0
2019/01/10 09:52:07.200  -2183500.4280   4395368.8513   4077100.1782   6   8   0.4250   0.5224   0.3132  -0.1390   0.3444  -0.2292   0.00    0.0
2019/01/10 09:52:07.400  -2183550.5880   4395385.5815   4077081.9763   6   8   0.4207   0.5152   0.3079  -0.1348   0.3390  -0.2265   0.00    0.0
2019/01/10 09:52:07.600  -2183600.5078   4395400.7631   4077062.4841   6   8   0.4164   0.5082   0.3028  -0.1306   0.3337  -0.2238   0.00    0.0
2019/01/10 09:52:07.800  -2183649.8870   4395415.6649   4077043.3969   6   8   0.4122   0.5013   0.2977  -0.1264   0.3285  -0.2212   0.00    0.0
2019/01/10 09:52:08.000  -2183699.6823   4395430.9381   4077024.0344   6   8   0.4081   0.4945   0.2928  -0.1221   0.3234  -0.2186   0.00    0.0
2019/01/10 09:52:08.200  -2183749.8254   4395447.7855   4077005.5351   6   8   0.4040   0.4879   0.2881  -0.1179   0.3184  -0.2160   0.00    0.0
2019/01/10 09:52:08.400  -2183799.8510   4395464.3330   4076986.9856   6   8   0.4001   0.4813   0.2834  -0.1136   0.3135  -0.2135   0.00    0.0
2019/01/10 09:52:08.600  -2183849.7373   4395479.7207   4076967.4006   6   8   0.3962   0.4750   0.2788  -0.1093   0.3087  -0.2110   0.00    0.0
2019/01/10 09:52:08.800  -2183899.4897   4395495.7126   4076948.5439   6   8   0.3924   0.4687   0.2744  -0.1049   0.3040  -0.2085   0.00    0.0
2019/01/10 09:52:09.000  -2183949.5496   4395511.6822   4076929.6572   6   8   0.3886   0.4625   0.2700  -0.1005   0.2994  -0.2060   0.00    0.0
2019/01/10 09:52:09.200  -2183999.5400   4395528.4903   4076911.0740   6   8   0.3849   0.4565   0.2658  -0.0960   0.2949  -0.2036   0.00    0.0
2019/01/10 09:52:09.400  -2184049.2871   4395544.8361   4076892.3055   6   8   0.3813   0.4505   0.2616  -0.0915   0.2905  -0.2012   0.00    0.0
2019/01/10 09:52:09.600  -2184099.1607   4395561.5471   4076873.5848   6   8   0.3777   0.4447   0.2576  -0.0868   0.2862  -0.1988   0.00    0.0
2019/01/10 09:52:09.800  -2184148.7746   4395577.4551   4076854.5427   6   8   0.3742   0.4390   0.2536  -0.0821   0.2819  -0.1965   0.00    0.0
2019/01/10 09:52:10.000  -2184198.3580   4395594.1910   4076836.1033   6   8   0.3707   0.4334   0.2497  -0.0772   0.2778  -0.1941   0.00    0.0
2019/01/10 09:52:10.200  -2184247.9658   4395608.8602   4076816.3578   6   8   0.3673   0.4279   0.2459  -0.0722   0.2737  -0.1918   0.00    0.0
2019/01/10 09:52:10.400  -2184297.4963   4395623.8107   4076796.8650   6   8   0.3640   0.4225   0.2422  -0.0670   0.2697  -0.1896   0.00    0.0
2019/01/10 09:52:10.600  -2184347.2368   4395639.4129   4076778.0523   6   8   0.3607   0.4172   0.2386  -0.0616   0.2658  -0.1873   0.00    0.0
2019/01/10 09:52:10.800  -2184397.1283   4395655.5902   4076759.2419   6   8   0.3575   0.4120   0.2350  -0.0558   0.2619  -0.1851   0.00    0.0
2019/01/10 09:52:11.000  -2184447.0431   4395671.1956   4076740.1621   6   8   0.3543   0.4069   0.2316  -0.0496   0.2582  -0.1829   0.00    0.0
2019/01/10 09:52:11.200  -2184496.7004   4395687.6796   4076721.5104   6   8   0.3511   0.4019   0.2282  -0.0427   0.2545  -0.1808   0.00    0.0
2019/01/10 09:52:11.400  -2184546.8079   4395704.1779   4076703.0144   6   8   0.3480   0.3970   0.2248  -0.0349   0.2508  -0.1786   0.00    0.0
2019/01/10 09:52:11.600  -2184596.2431   4395719.1425   4076683.3687   6   8   0.3450   0.3922   0.2216  -0.0250   0.2473  -0.1765   0.00    0.0
2019/01/10 09:52:11.800  -2184645.7353   4395734.4502   4076664.2545   6   8   0.3420   0.3875   0.2184  -0.0075   0.2438  -0.1744   0.00    0.0
2019/01/10 09:52:12.000  -2184695.8556   4395750.7034   4076645.6668   6   8   0.3390   0.3828   0.2153   0.0222   0.2404  -0.1724   0.00    0.0
2019/01/10 09:52:12.200  -2184745.8091   4395766.9791   4076626.9365   6   8   0.3361   0.3783   0.2122   0.0320   0.2371  -0.1703   0.00    0.0
2019/01/10 09:52:12.400  -2184795.2009   4395782.5840   4076607.9818   6   8   0.3332   0.3738   0.2092   0.0391   0.2338  -0.1683   0.00    0.0
2019/01/10 09:52:12.600  -2184844.9712   4395798.7173   4076589.0425   6   8   0.3304   0.3694   0.2063   0.0450   0.2306  -0.1663   0.00    0.0
2019/01/10 09:52:12.800  -2184894.4022   4395813.5391   4076569.2435   6   8   0.3276   0.3651   0.2034   0.0500   0.2274  -0.1644   0.00    0.0
2019/01/10 09:52:13.000  -2184944.3202   4395829.6701   4076550.1794   6   8   0.3248   0.3609   0.2006   0.0543   0.2243  -0.1624   0.00    0.0
2019/01/10 09:52:13.200  -2184994.0990   4395845.8238   4076531.8580   6   8   0.3221   0.3568   0.1979   0.0582   0.2213  -0.1605   0.00    0.0
2019/01/10 09:52:13.400  -2185044.2254   4395862.3402   4076513.0308   6   8   0.3194   0.3527   0.1952   0.0617   0.2183  -0.1586   0.00    0.0
2019/01/10 09:52:13.600  -2185094.1028   4395878.2177   4076494.0047   6   8   0.3168   0.3487   0.1925   0.0649   0.2154  -0.1567   0.00    0.0
2019/01/10 09:52:13.800  -2185144.0640   4395895.0458   4076475.6802   6   8   0.3142   0.3448   0.1900   0.0679   0.2126  -0.1549   0.00    0.0
2019/01/10 09:52:14.000  -2185194.0146   4395911.7018   4076456.9061   6   8   0.3116   0.3409   0.1874   0.0705   0.2098  -0.1530   0.00    0.0
2019/01/10 09:52:14.200  -2185243.7569   4395928.0888   4076438.2587   6   8   0.3090   0.3372   0.1849   0.0730   0.2071  -0.1512   0.00    0.0
2019/01/10 09:52:14.400  -2185293.5203   4395943.8169   4076419.4628   6   8   0.3065   0.3335   0.1825   0.0754   0.2044  -0.1495   0.00    0.0
2019/01/10 09:52:14.600  -2185343.3269   4395959.2011   4076400.1325   6   8   0.3040   0.3298   0.1801   0.0775   0.2017  -0.1477   0.00    0.0
2019/01/10 09:52:14.800  -2185392.9933   4395975.4681   4076381.2452   6   8   0.3016   0.3263   0.1778   0.0795   0.1992  -0.1460   0.00    0.0
2019/01/10 09:52:15.000  -2185442.9132   4395990.9861   4076361.9902   6   8   0.2991   0.3228   0.1755   0.0814   0.1966  -0.1442   0.00    0.0
2019/01/10 09:52:15.200  -2185492.9685   4396006.8553   4076343.1260   6   7   0.2970   0.3194   0.1734   0.0835   0.1940  -0.1424   0.00    0.0
2019/01/10 09:52:15.400  -2185542.6766   4396022.5807   4076324.3003   6   8   0.2946   0.3160   0.1711   0.0852   0.1915  -0.1408   0.00    0.0
2019/01/10 09:52:15.600  -2185592.1209   4396037.2923   4076304.7485   6   8   0.2922   0.3126   0.1689   0.0869   0.1891  -0.1392   0.00    0.0
2019/01/10 09:52:15.800  -2185641.2779   4396052.7695   4076285.7671   6   8   0.2899   0.3093   0.1667   0.0885   0.1866  -0.1376   0.00    0.0
2019/01/10 09:52:16.000  -2185691.0699   4396068.0375   4076266.3103   6   8   0.2876   0.3060   0.1645   0.0899   0.1843  -0.1359   0.00    0.0
2019/01/10 09:52:16.200  -2185740.7819   4396083.4965   4076246.9819   6   8   0.2853   0.3027   0.1624   0.0913   0.1819  -0.1343   0.00    0.0
2019/01/10 09:52:16.400  -2185790.4866   4396099.2602   4076228.0687   6   8   0.2831   0.2995   0.1603   0.0926   0.1796  -0.1327   0.00    0.0
2019/01/10 09:52:16.600  -2185840.5556   4396115.5237   4076209.5450   6   8   0.2808   0.2963   0.1582   0.0938   0.1773  -0.1310   0.00    0.0
2019/01/10 09:52:16.800  -2185890.1636   4396131.1309   4076190.4773   6   8   0.2786   0.2932   0.1562   0.0950   0.1750  -0.1294   0.00    0.0
2019/01/10 09:52:17.000  -2185940.0867   4396147.9313   4076172.0392   6   8   0.2764   0.2901   0.1542   0.0960   0.1728  -0.1278   0.00    0.0
2019/01/10 09:52:17.200  -2185989.8229   4396163.6801   4076152.7806   6   8   0.2742   0.2870   0.1522   0.0970   0.1706  -0.1263   0.00    0.0
2019/01/10 09:52:17.400  -2186039.7424   4396179.2281   4076133.7729   6   8   0.2720   0.2840   0.1503   0.0980   0.1685  -0.1247   0.00    0.0
2019/01/10 09:52:17.600  -2186089.5264   4396194.7677   4076114.4150   6   8   0.2699   0.2810   0.1484   0.0989   0.1663  -0.1232   0.00    0.0
2019/01/10 09:52:17.800  -2186139.4838   4396210.5322   4076095.4191   6   8   0.2678   0.2781   0.1465   0.0997   0.1643  -0.1216   0.00    0.0
2019/01/10 09:52:18.000  -2186189.1083   4396226.3629   4076076.3178   6   8   0.2656   0.2752   0.1446   0.1005   0.1622  -0.1201   0.00    0.0
2019/01/10 09:52:18.200  -2186238.9428   4396242.3050   4076057.4019   6   8   0.2636   0.2723   0.1428   0.1013   0.1602  -0.1186   0.00    0.0
2019/01/10 09:52:18.400  -2186288.7749   4396258.6912   4076038.6413   6   8   0.2615   0.2695   0.1410   0.1020   0.1582  -0.1171   0.00    0.0
2019/01/10 09:52:18.600  -2186338.8278   4396274.8863   4076019.7076   6   8   0.2594   0.2667   0.1393   0.1026   0.1562  -0.1156   0.00    0.0
2019/01/10 09:52:18.800  -2186388.5192   4396290.4132   4076000.3980   6   8   0.2574   0.2640   0.1375   0.1032   0.1543  -0.1142   0.00    0.0
2019/01/10 09:52:19.000  -2186438.5360   4396306.5397   4075981.2561   6   8   0.2554   0.2613   0.1358   0.1038   0.1524  -0.1127   0.00    0.0
2019/01/10 09:52:19.200  -2186488.4241   4396322.9747   4075962.3993   6   8   0.2534   0.2587   0.1342   0.1043   0.1505  -0.1113   0.00    0.0
2019/01/10 09:52:19.400  -2186538.2189   4396338.8889   4075943.4690   6   8   0.2514   0.2561   0.1325   0.1048   0.1487  -0.1099   0.00    0.0
2019/01/10 09:52:19.600  -2186587.8684   4396354.8419   4075924.7211   6   8   0.2495   0.2535   0.1309   0.1053   0.1469  -0.1085   0.00    0.0
2019/01/10 09:52:19.800  -2186637.3528   4396370.7407   4075905.6819   6   8   0.2475   0.2510   0.1293   0.1057   0.1452  -0.1071   0.00    0.0
2019/01/10 09:52:20.000  -2186686.5810   4396386.0136   4075886.5615   6   8   0.2456   0.2485   0.1277   0.1061   0.1434  -0.1057   0.00    0.0
2019/01/10 09:52:20.200  -2186736.3472   4396402.6535   4075868.1962   6   8   0.2437   0.2461   0.1262   0.1064   0.1418  -0.1044   0.00    0.0
2019/01/10 09:52:20.400  -2186785.8499   4396418.8163   4075849.1270   6   8   0.2418   0.2437   0.1247   0.1067   0.1401  -0.1030   0.00    0.0
2019/01/10 09:52:20.600  -2186835.6398   4396434.7359   4075829.9972   6   8   0.2399   0.2413   0.1232   0.1070   0.1385  -0.1017   0.00    0.0
2019/01/10 09:52:20.800  -2186885.4593   4396450.7435   4075810.9212   6   8   0.2380   0.2390   0.1218   0.1073   0.1369  -0.1004   0.00    0.0
2019/01/10 09:52:21.000  -2186935.2110   4396466.8042   4075792.0619   6   8   0.2362   0.2367   0.1203   0.1075   0.1353  -0.0991   0.00    0.0
2019/01/10 09:52:21.200  -2186985.1826   4396482.8515   4075773.2564   6   8   0.2344   0.2345   0.1189   0.1077   0.1337  -0.0978   0.00    0.0
2019/01/10 09:52:21.400  -2187035.2793   4396499.5193   4075754.5998   6   8   0.2325   0.2323   0.1176   0.1078   0.1322  -0.0965   0.00    0.0
2019/01/10 09:52:21.600  -2187085.3049   4396515.0495   4075735.4043   6   8   0.2307   0.2301   0.1162   0.1080   0.1308  -0.0952   0.00    0.0
2019/01/10 09:52:21.800  -2187135.0203   4396531.1071   4075716.5016   6   8   0.2289   0.2279   0.1149   0.1081   0.1293  -0.0940   0.00    0.0
2019/01/10 09:52:22.000  -2187184.8139   4396547.4370   4075697.5950   6   8   0.2272   0.2258   0.1136   0.1081   0.1279  -0.0928   0.00    0.0
2019/01/10 09:52:22.200  -2187234.3652   4396563.3774   4075678.6228   6   8   0.2254   0.2238   0.1123   0.1082   0.1265  -0.0915   0.00    0.0
2019/01/10 09:52:22.400  -2187283.9671   4396578.8015   4075659.4458   6   8   0.2237   0.2217   0.1110   0.1082   0.1251  -0.0903   0.00    0.0
2019/01/10 09:52:22.600  -2187333.8702   4396594.6948   4075640.2915   6   8   0.2219   0.2197   0.1098   0.1082   0.1238  -0.0891   0.00    0.0
2019/01/10 09:52:22.800  -2187383.3846   4396610.1856   4075620.9850   6   8   0.2202   0.2177   0.1086   0.1082   0.1225  -0.0880   0.00    0.0
2019/01/10 09:52:23.000  -2187433.4001   4396625.2446   4075601.6125   6   8   0.2185   0.2158   0.1074   0.1082   0.1212  -0.0868   0.00    0.0
2019/01/10 09:52:23.200  -2187483.2444   4396641.4877   4075582.7402   6   8   0.2168   0.2139   0.1062   0.1081   0.1199  -0.0856   0.00    0.0
2019/01/10 09:52:23.400  -2187533.0171   4396657.6776   4075563.8940   6   8   0.2151   0.2120   0.1051   0.1080   0.1187  -0.0845   0.00    0.0
2019/01/10 09:52:23.600  -2187582.8672   4396673.7576   4075545.0290   6   8   0.2134   0.2101   0.1040   0.1079   0.1175  -0.0834   0.00    0.0
2019/01/10 09:52:23.800  -2187632.9601   4396690.0364   4075526.3093   6   8   0.2118   0.2083   0.1029   0.1078   0.1163  -0.0822   0.00    0.0
2019/01/10 09:52:24.000  -2187682.6149   4396706.5278   4075507.5030   6   8   0.2101   0.2065   0.1018   0.1077   0.1152  -0.0811   0.00    0.0
2019/01/10 09:52:24.200  -2187732.3972   4396722.5969   4075488.8935   6   8   0.2085   0.2048   0.1007   0.1075   0.1140  -0.0800   0.00    0.0
2019/01/10 09:52:24.400  -2187782.0355   4396738.2507   4075469.5587   6   8   0.2069   0.2030   0.0997   0.1073   0.1129  -0.0790   0.00    0.0
2019/01/10 09:52:24.600  -2187831.7329   4396753.9053   4075450.4240   6   8   0.2053   0.2013   0.0987   0.1071   0.1118  -0.0779   0.00    0.0
2019/01/10 09:52:24.800  -2187881.5759   4396770.0722   4075431.4919   6   8   0.2037   0.1997   0.0977   0.1069   0.1108  -0.0768   0.00    0.0
2019/01/10 09:52:25.000  -2187931.7117   4396785.6744   4075412.4454   6   8   0.2021   0.1980   0.0967   0.1067   0.1098  -0.0758   0.00    0.0
2019/01/10 09:52:25.200  -2187981.4939   4396801.9630   4075393.7459   6   8   0.2005   0.1964   0.0957   0.1065   0.1087  -0.0748   0.00    0.0
2019/01/10 09:52:25.400  -2188030.8264   4396817.2168   4075374.3608   6   8   0.1989   0.1948   0.0948   0.1062   0.1078  -0.0737   0.00    0.0
2019/01/10 09:52:25.600  -2188080.5075   4396832.3252   4075354.9254   6   8   0.1974   0.1932   0.0939   0.1059   0.1068  -0.0727   0.00    0.0
2019/01/10 09:52:25.800  -2188130.3128   4396847.5149   4075335.5271   6   8   0.1959   0.1916   0.0930   0.1056   0.1058  -0.0717   0.00    0.0
2019/01/10 09:52:26.000  -2188179.6501   4396863.5007   4075316.3890   6   8   0.1943   0.1901   0.0921   0.1053   0.1049  -0.0708   0.00    0.0
2019/01/10 09:52:26.200  -2188229.4580   4396879.3797   4075297.3795   6   8   0.1928   0.1886   0.0912   0.1050   0.1040  -0.0698   0.00    0.0
2019/01/10 09:52:26.400  -2188279.1961   4396895.5239   4075278.4117   6   8   0.1913   0.1871   0.0904   0.1047   0.1031  -0.0688   0.00    0.0
2019/01/10 09:52:26.600  -2188328.9757   4396911.0675   4075259.3729   6   8   0.1898   0.1857   0.0895   0.1044   0.1023  -0.0679   0.00    0.0
2019/01/10 09:52:26.800  -2188378.8918   4396927.3670   4075240.5774   6   8   0.1883   0.1842   0.0887   0.1040   0.1014  -0.0669   0.00    0.0
2019/01/10 09:52:27.000  -2188428.6622   4396943.1317   4075221.7752   6   8   0.1868   0.1828   0.0879   0.1037   0.1006  -0.0660   0.00    0.0
2019/01/10 09:52:27.200  -2188478.6870   4396959.0098   4075202.6529   6   8   0.1854   0.1814   0.0872   0.1033   0.0998  -0.0651   0.00    0.0
2019/01/10 09:52:27.400  -2188528.0850   4396975.4754   4075183.9462   6   8   0.1839   0.1801   0.0864   0.1029   0.0990  -0.0642   0.00    0.0
2019/01/10 09:52:27.600  -2188577.9775   4396991.5652   4075165.1810   6   8   0.1825   0.1787   0.0856   0.1025   0.0982  -0.0633   0.00    0.0
2019/01/10 09:52:27.800  -2188627.8379   4397007.3463   4075146.1509   6   8   0.1810   0.1774   0.0849   0.1021   0.0975  -0.0624   0.00    0.0
2019/01/10 09:52:28.000  -2188677.6729   4397023.1309   4075126.7867   6   8   0.1796   0.1761   0.0842   0.1017   0.0968  -0.0616   0.00    0.0
2019/01/10 09:52:28.200  -2188727.2605   4397038.6506   4075107.4175   6   8   0.1782   0.1748   0.0835   0.1012   0.0960  -0.0607   0.00    0.0
2019/01/10 09:52:28.400  -2188777.0663   4397054.7117   4075088.7160   6   8   0.1768   0.1735   0.0828   0.1008   0.0953  -0.0599   0.00    0.0
2019/01/10 09:52:28.600  -2188826.9432   4397070.6548   4075069.7115   6   8   0.1754   0.1723   0.0821   0.1004   0.0947  -0.0590   0.00    0.0
2019/01/10 09:52:28.800  -2188876.4631   4397086.4525   4075050.7910   6   7   0.1742   0.1756   0.0828   0.1010   0.0971  -0.0576   0.00    0.0
2019/01/10 09:52:29.000  -2188926.3735   4397102.2991   4075031.7984   6   8   0.1728   0.1722   0.0817   0.1000   0.0951  -0.0571   0.00    0.0
2019/01/10 09:52:29.200  -2188976.0623   4397117.8106   4075012.4169   6   8   0.1714   0.1700   0.0808   0.0993   0.0938  -0.0565   0.00    0.0
2019/01/10 09:52:29.400  -2189025.7226   4397133.2525   4074993.1457   6   8   0.1700   0.1683   0.0800   0.0987   0.0928  -0.0558   0.00    0.0
2019/01/10 09:52:29.600  -2189075.4869   4397149.7897   4074974.3892   6   8   0.1687   0.1669   0.0793   0.0982   0.0920  -0.0550   0.00    0.0
2019/01/10 09:52:29.800  -2189125.3587   4397165.4567   4074955.2806   6   7   0.1676   0.1660   0.0788   0.0982   0.0908  -0.0548   0.00    0.0
2019/01/10 09:52:30.000  -2189175.0603   4397180.6825   4074935.9612   6   8   0.1663   0.1646   0.0780   0.0976   0.0904  -0.0538   0.00    0.0
2019/01/10 09:52:30.200  -2189224.9271   4397195.4183   4074916.5871   6   8   0.1649   0.1634   0.0774   0.0970   0.0898  -0.0529   0.00    0.0
2019/01/10 09:52:30.400  -2189274.7222   4397211.6700   4074897.7184   6   8   0.1636   0.1622   0.0768   0.0964   0.0893  -0.0520   0.00    0.0
2019/01/10 09:52:30.600  -2189324.2868   4397227.2241   4074878.5286   6   8   0.1623   0.1611   0.0762   0.0959   0.0888  -0.0512   0.00    0.0
2019/01/10 09:52:30.800  -2189373.9153   4397243.0727   4074859.5283   6   8   0.1610   0.1600   0.0757   0.0953   0.0883  -0.0505   0.00    0.0
2019/01/10 09:52:31.000  -2189423.4627   4397258.0483   4074839.8191   6   8   0.1597   0.1590   0.0752   0.0948   0.0878  -0.0498   0.00    0.0
2019/01/10 09:52:31.200  -2189473.5373   4397274.4652   4074821.0544   6   8   0.1585   0.1579   0.0747   0.0943   0.0873  -0.0491   0.00    0.0
2019/01/10 09:52:31.400  -2189523.2113   4397289.9916   4074801.6973   6   8   0.1572   0.1569   0.0742   0.0937   0.0869  -0.0484   0.00    0.0
2019/01/10 09:52:31.600  -2189573.3297   4397306.4225   4074783.2952   6   8   0.1560   0.1560   0.0738   0.0931   0.0864  -0.0478   0.00    0.0
2019/01/10 09:52:31.800  -2189623.2159   4397322.4198   4074764.5182   6   8   0.1547   0.1550   0.0733   0.0926   0.0859  -0.0471   0.00    0.0
2019/01/10 09:52:32.000  -2189672.9810   4397338.4061   4074745.4819   6   8   0.1535   0.1540   0.0729   0.0920   0.0855  -0.0465   0.00    0.0
2019/01/10 09:52:32.200  -2189722.7417   4397353.9886   4074726.2827   6   8   0.1523   0.1531   0.0724   0.0914   0.0851  -0.0459   0.00    0.0
2019/01/10 09:52:32.400  -2189772.4666   4397369.6681   4074706.8731   6   8   0.1511   0.1521   0.0720   0.0908   0.0847  -0.0453   0.00    0.0
2019/01/10 09:52:32.600  -2189822.3778   4397385.6256   4074687.9047   6   8   0.1499   0.1512   0.0716   0.0902   0.0843  -0.0447   0.00    0.0
2019/01/10 09:52:32.800  -2189872.1421   4397401.4455   4074668.9072   6   8   0.1487   0.1503   0.0712   0.0896   0.0839  -0.0441   0.00    0.0
2019/01/10 09:52:33.000  -2189922.0877   4397417.4087   4074649.7392   6   8   0.1475   0.1494   0.0708   0.0890   0.0835  -0.0435   0.00    0.0
2019/01/10 09:52:33.200  -2189972.0769   4397432.8385   4074630.6661   6   8   0.1463   0.1485   0.0705   0.0884   0.0831  -0.0430   0.00    0.0
2019/01/10 09:52:33.400  -2190021.7453   4397448.8678   4074611.7954   6   8   0.1452   0.1476   0.0701   0.0878   0.0828  -0.0424   0.00    0.0
2019/01/10 09:52:33.600  -2190071.2510   4397465.0689   4074593.0669   6   8   0.1440   0.1468   0.0697   0.0872   0.0824  -0.0419   0.00    0.0
2019/01/10 09:52:33.800  -2190121.2088   4397481.7094   4074574.5617   6   8   0.1429   0.1459   0.0694   0.0866   0.0821  -0.0414   0.00    0.0
2019/01/10 09:52:34.000  -2190170.9899   4397498.3005   4074555.7291   6   8   0.1417   0.1451   0.0690   0.0860   0.0818  -0.0408   0.00    0.0
2019/01/10 09:52:34.200  -2190220.8046   4397513.9421   4074536.5068   6   8   0.1406   0.1443   0.0687   0.0854   0.0814  -0.0403   0.00    0.0
2019/01/10 09:52:34.400  -2190270.6631   4397529.8299   4074517.4913   6   8   0.1395   0.1435   0.0684   0.0847   0.0811  -0.0398   0.00    0.0
2019/01/10 09:52:34.600  -2190320.4244   4397545.6933   4074498.6245   6   8   0.1384   0.1427   0.0681   0.0841   0.0808  -0.0394   0.00    0.0
2019/01/10 09:52:34.800  -2190370.2665   4397561.4358   4074479.3806   6   8   0.1373   0.1419   0.0678   0.0835   0.0805  -0.0389   0.00    0.0
2019/01/10 09:52:35.000  -2190420.1931   4397577.6927   4074460.7551   6   8   0.1362   0.1411   0.0675   0.0828   0.0803  -0.0384   0.00    0.0
2019/01/10 09:52:35.200  -2190470.1994   4397593.5000   4074441.6164   6   8   0.1351   0.1404   0.0672   0.0822   0.0800  -0.0380   0.00    0.0
2019/01/10 09:52:35.400  -2190519.7555   4397609.0778   4074422.3410   6   8   0.1341   0.1396   0.0670   0.0816   0.0797  -0.0376   0.00    0.0
2019/01/10 09:52:35.600  -2190569.7998   4397624.9727   4074403.4013   6   8   0.1330   0.1389   0.0667   0.0809   0.0795  -0.0372   0.00    0.0
2019/01/10 09:52:35.800  -2190619.4483   4397640.8299   4074384.2373   6   8   0.1320   0.1382   0.0665   0.0803   0.0792  -0.0368   0.00    0.0
2019/01/10 09:52:36.000  -2190669.1231   4397657.0270   4074365.4784   6   8   0.1309   0.1375   0.0662   0.0796   0.0790  -0.0364   0.00    0.0
2019/01/10 09:52:36.200  -2190718.6637   4397673.0972   4074346.2798   6   8   0.1299   0.1368   0.0660   0.0790   0.0788  -0.0360   0.00    0.0
2019/01/10 09:52:36.400  -2190768.6549   4397689.3641   4074327.6103   6   8   0.1289   0.1361   0.0658   0.0783   0.0786  -0.0356   0.00    0.0
2019/01/10 09:52:36.600  -2190818.3699   4397704.8134   4074308.3519   6   8   0.1279   0.1354   0.0656   0.0777   0.0784  -0.0353   0.00    0.0
2019/01/10 09:52:36.800  -2190867.8888   4397720.0851   4074289.0302   6   8   0.1269   0.1348   0.0654   0.0770   0.0782  -0.0349   0.00    0.0
2019/01/10 09:52:37.000  -2190917.5991   4397735.5959   4074269.4286   6   8   0.1259   0.1341   0.0652   0.0763   0.0780  -0.0346   0.00    0.0
2019/01/10 09:52:37.200  -2190967.5478   4397751.8242   4074250.4643   6   8   0.1249   0.1335   0.0650   0.0757   0.0778  -0.0343   0.00    0.0
2019/01/10 09:52:37.400  -2191017.0927   4397767.4503   4074231.2422   6   8   0.1240   0.1328   0.0648   0.0750   0.0776  -0.0340   0.00    0.0
2019/01/10 09:52:37.600  -2191066.9973   4397783.8534   4074212.8291   6   8   0.1230   0.1322   0.0646   0.0743   0.0775  -0.0337   0.00    0.0
2019/01/10 09:52:37.800  -2191117.0946   4397800.0139   4074194.1936   6   8   0.1220   0.1316   0.0645   0.0736   0.0773  -0.0335   0.00    0.0
2019/01/10 09:52:38.000  -2191166.7846   4397815.1269   4074174.7435   6   8   0.1211   0.1310   0.0643   0.0730   0.0772  -0.0332   0.00    0.0
2019/01/10 09:52:38.200  -2191216.4933   4397831.2703   4074155.8446   6   8   0.1202   0.1305   0.0642   0.0723   0.0770  -0.0330   0.00    0.0
2019/01/10 09:52:38.400  -2191266.3192   4397847.5352   4074137.0694   6   8   0.1192   0.1299   0.0640   0.0716   0.0769  -0.0327   0.00    0.0
2019/01/10 09:52:38.600  -2191316.0385   4397863.4132   4074117.7964   6   8   0.1183   0.1293   0.0639   0.0709   0.0767  -0.0325   0.00    0.0
2019/01/10 09:52:38.800  -2191365.6068   4397878.7147   4074098.6694   6   8   0.1174   0.1288   0.0638   0.0702   0.0766  -0.0323   0.00    0.0
2019/01/10 09:52:39.000  -2191415.7133   4397895.3686   4074080.1904   6   8   0.1165   0.1283   0.0637   0.0695   0.0765  -0.0321   0.00    0.0
2019/01/10 09:52:39.200  -2191465.7746   4397911.4251   4074061.2698   6   8   0.1157   0.1277   0.0636   0.0688   0.0764  -0.0319   0.00    0.0
2019/01/10 09:52:39.400  -2191515.4850   4397927.2562   4074041.9543   6   8   0.1148   0.1272   0.0635   0.0681   0.0763  -0.0318   0.00    0.0
2019/01/10 09:52:39.600  -2191565.1989   4397943.3198   4074022.9477   6   8   0.1139   0.1267   0.0634   0.0674   0.0762  -0.0316   0.00    0.0
2019/01/10 09:52:39.800  -2191615.0745   4397959.1413   4074004.1049   6   8   0.1131   0.1262   0.0633   0.0667   0.0761  -0.0315   0.00    0.0
2019/01/10 09:52:40.000  -2191664.6127   4397974.6178   4073984.6727   6   8   0.1122   0.1257   0.0632   0.0660   0.0761  -0.0313   0.00    0.0
2019/01/10 09:52:40.200  -2191714.6716   4397991.0747   4073965.9364   6   8   0.1114   0.1253   0.0632   0.0653   0.0760  -0.0312   0.00    0.0
2019/01/10 09:52:40.400  -2191764.2503   4398007.1073   4073947.0485   6   8   0.1105   0.1248   0.0631   0.0646   0.0759  -0.0311   0.00    0.0
2019/01/10 09:52:40.600  -2191814.0875   4398022.9056   4073927.9720   6   8   0.1097   0.1243   0.0630   0.0639   0.0759  -0.0310   0.00    0.0
2019/01/10 09:52:40.800  -2191863.7515   4398037.8083   4073908.2219   6   8   0.1089   0.1239   0.0630   0.0632   0.0758  -0.0309   0.00    0.0
2019/01/10 09:52:41.000  -2191913.8031   4398054.2968   4073889.6105   6   8   0.1081   0.1235   0.0629   0.0624   0.0758  -0.0309   0.00    0.0
2019/01/10 09:52:41.200  -2191963.4179   4398069.8872   4073870.5294   6   8   0.1073   0.1230   0.0629   0.0617   0.0757  -0.0308   0.00    0.0
2019/01/10 09:52:41.400  -2192012.9702   4398085.5700   4073851.3506   6   8   0.1065   0.1226   0.0629   0.0610   0.0757  -0.0308   0.00    0.0
2019/01/10 09:52:41.600  -2192062.9744   4398101.7697   4073832.5628   6   8   0.1058   0.1222   0.0628   0.0602   0.0757  -0.0307   0.00    0.0
2019/01/10 09:52:41.800  -2192112.3761   4398117.2809   4073813.1933   6   8   0.1050   0.1218   0.0628   0.0595   0.0756  -0.0307   0.00    0.0
2019/01/10 09:52:42.000  -2192162.1945   4398133.2701   4073794.3226   6   8   0.1043   0.1214   0.0628   0.0588   0.0756  -0.0307   0.00    0.0
2019/01/10 09:52:42.200  -2192212.0082   4398149.7984   4073775.4967   6   8   0.1035   0.1211   0.0628   0.0580   0.0756  -0.0307   0.00    0.0
2019/01/10 09:52:42.400  -2192261.5383   4398165.4790   4073756.4041   6   8   0.1028   0.1207   0.0628   0.0573   0.0756  -0.0307   0.00    0.0
2019/01/10 09:52:42.600  -2192311.5159   4398181.7361   4073737.8088   6   8   0.1020   0.1203   0.0628   0.0565   0.0756  -0.0307   0.00    0.0
2019/01/10 09:52:42.800  -2192361.4010   4398197.2684   4073718.4770   6   8   0.1013   0.1200   0.0628   0.0557   0.0756  -0.0308   0.00    0.0
2019/01/10 09:52:43.000  -2192410.9317   4398212.6863   4073698.7990   6   8   0.1006   0.1196   0.0628   0.0550   0.0756  -0.0308   0.00    0.0
2019/01/10 09:52:43.200  -2192460.6716   4398228.6359   4073680.0367   6   8   0.0999   0.1193   0.0629   0.0542   0.0756  -0.0308   0.00    0.0
2019/01/10 09:52:43.400  -2192510.3481   4398244.2506   4073660.5608   6   8   0.0992   0.1190   0.0629   0.0534   0.0757  -0.0309   0.00    0.0
2019/01/10 09:52:43.600  -2192560.1232   4398260.1331   4073641.5880   6   8   0.0985   0.1187   0.0629   0.0526   0.0757  -0.0310   0.00    0.0
2019/01/10 09:52:43.800  -2192610.0195   4398276.1100   4073622.6264   6   8   0.0979   0.1184   0.0630   0.0518   0.0757  -0.0310   0.00    0.0
2019/01/10 09:52:44.000  -2192659.9015   4398292.1947   4073603.6916   6   8   0.0972   0.1181   0.0630   0.0510   0.0758  -0.0311   0.00    0.0
2019/01/10 09:52:44.200  -2192709.7746   4398308.5306   4073584.6321   6   8   0.0966   0.1178   0.0630   0.0502   0.0758  -0.0312   0.00    0.0
2019/01/10 09:52:44.400  -2192759.6708   4398324.9517   4073566.1052   6   8   0.0959   0.1175   0.0631   0.0494   0.0759  -0.0313   0.00    0.0
2019/01/10 09:52:44.600  -2192809.2830   4398340.9047   4073547.2417   6   8   0.0953   0.1172   0.0632   0.0486   0.0759  -0.0314   0.00    0.0
2019/01/10 09:52:44.800  -2192859.0457   4398356.3861   4073527.9384   6   8   0.0946   0.1170   0.0632   0.0478   0.0760  -0.0316   0.00    0.0
2019/01/10 09:52:45.000  -2192909.0017   4398372.6099   4073509.0704   6   8   0.0940   0.1167   0.0633   0.0469   0.0760  -0.0317   0.00    0.0
2019/01/10 09:52:45.200  -2192958.4158   4398388.0513   4073489.7772   6   8   0.0934   0.1164   0.0633   0.0461   0.0760  -0.0318   0.00    0.0
2019/01/10 09:52:45.400  -2193008.1516   4398404.3473   4073470.9691   6   8   0.0927   0.1161   0.0633   0.0453   0.0760  -0.0318   0.00    0.0
2019/01/10 09:52:45.600  -2193058.0587   4398420.5951   4073452.1506   6   8   0.0921   0.1157   0.0632   0.0446   0.0759  -0.0319   0.00    0.0
2019/01/10 09:52:45.800  -2193108.1483   4398436.8121   4073433.4372   6   8   0.0915   0.1153   0.0631   0.0438   0.0758  -0.0319   0.00    0.0
2019/01/10 09:52:46.000  -2193157.8875   4398453.1148   4073414.5631   6   8   0.0908   0.1149   0.0631   0.0431   0.0757  -0.0319   0.00    0.0
2019/01/10 09:52:46.200  -2193207.4297   4398468.3821   4073395.0330   6   8   0.0902   0.1145   0.0630   0.0423   0.0756  -0.0320   0.00    0.0
2019/01/10 09:52:46.400  -2193257.0445   4398483.5688   4073375.5501   6   8   0.0896   0.1141   0.0630   0.0415   0.0755  -0.0320   0.00    0.0
2019/01/10 09:52:46.600  -2193306.8785   4398499.3249   4073356.3637   6   8   0.0890   0.1137   0.0629   0.0408   0.0754  -0.0320   0.00    0.0
2019/01/10 09:52:46.800  -2193356.6810   4398514.8154   4073337.0687   6   8   0.0884   0.1133   0.0628   0.0400   0.0753  -0.0321   0.00    0.0
2019/01/10 09:52:47.000  -2193406.3211   4398530.1640   4073317.5336   6   8   0.0878   0.1129   0.0628   0.0392   0.0752  -0.0321   0.00    0.0
2019/01/10 09:52:47.200  -2193455.8157   4398545.7823   4073298.3520   6   8   0.0871   0.1125   0.0627   0.0384   0.0751  -0.0322   0.00    0.0
2019/01/10 09:52:47.400  -2193505.5379   4398561.2662   4073278.9261   6   8   0.0866   0.1121   0.0626   0.0376   0.0750  -0.0322   0.00    0.0
2019/01/10 09:52:47.600  -2193555.1133   4398576.7432   4073259.7915   6   7   0.0860   0.1117   0.0631   0.0368   0.0751  -0.0323   0.00    0.0
2019/01/10 09:52:47.800  -2193604.7021   4398592.6130   4073240.8457   6   8   0.0854   0.1113   0.0628   0.0359   0.0749  -0.0325   0.00    0.0
2019/01/10 09:52:48.000  -2193654.2932   4398608.1617   4073221.6839   6   8   0.0848   0.1109   0.0626   0.0351   0.0747  -0.0326   0.00    0.0
2019/01/10 09:52:48.200  -2193703.8521   4398624.0540   4073202.5275   6   8   0.0843   0.1105   0.0625   0.0344   0.0746  -0.0326   0.00    0.0
2019/01/10 09:52:48.400  -2193753.8687   4398640.2415   4073183.7799   6   8   0.0838   0.1102   0.0624   0.0336   0.0745  -0.0326   0.00    0.0
2019/01/10 09:52:48.600  -2193803.6863   4398656.1272   4073164.6785   6   8   0.0832   0.1098   0.0623   0.0328   0.0745  -0.0326   0.00    0.0
2019/01/10 09:52:48.800  -2193853.6356   4398673.0030   4073146.0720   6   8   0.0826   0.1095   0.0622   0.0320   0.0744  -0.0327   0.00    0.0
2019/01/10 09:52:49.000  -2193903.4355   4398688.9569   4073127.1997   6   8   0.0821   0.1091   0.0622   0.0311   0.0743  -0.0327   0.00    0.0
2019/01/10 09:52:49.200  -2193953.3616   4398705.1414   4073108.2204   6   7   0.0815   0.1088   0.0626   0.0303   0.0744  -0.0327   0.00    0.0
2019/01/10 09:52:49.400  -2194003.0407   4398721.1541   4073089.2457   6   8   0.0810   0.1084   0.0623   0.0293   0.0742  -0.0330   0.00    0.0
2019/01/10 09:52:49.600  -2194052.3987   4398736.6914   4073069.8196   6   8   0.0804   0.1080   0.0622   0.0284   0.0741  -0.0331   0.00    0.0
2019/01/10 09:52:49.800  -2194102.4042   4398752.7892   4073050.8204   6   8   0.0799   0.1077   0.0621   0.0275   0.0740  -0.0331   0.00    0.0
2019/01/10 09:52:50.000  -2194152.5893   4398769.2712   4073032.2194   6   8   0.0794   0.1074   0.0620   0.0266   0.0739  -0.0332   0.00    0.0
2019/01/10 09:52:50.200  -2194202.3480   4398784.6653   4073012.9688   6   8   0.0789   0.1070   0.0619   0.0256   0.0738  -0.0332   0.00    0.0
2019/01/10 09:52:50.400  -2194252.1213   4398801.0452   4072994.2671   6   8   0.0784   0.1067   0.0619   0.0246   0.0737  -0.0333   0.00    0.0
2019/01/10 09:52:50.600  -2194301.9404   4398816.6456   4072974.8646   6   8   0.0779   0.1063   0.0618   0.0236   0.0737  -0.0333   0.00    0.0
2019/01/10 09:52:50.800  -2194351.6055   4398832.6189   4072955.8326   6   8   0.0773   0.1060   0.0618   0.0225   0.0736  -0.0334   0.00    0.0
2019/01/10 09:52:51.000  -2194401.3527   4398848.7597   4072936.9620   6   8   0.0768   0.1057   0.0618   0.0213   0.0735  -0.0335   0.00    0.0
2019/01/10 09:52:51.200  -2194451.1790   4398864.4821   4072917.6462   6   8   0.0763   0.1053   0.0617   0.0200   0.0734  -0.0336   0.00    0.0
2019/01/10 09:52:51.400  -2194501.0624   4398880.6568   4072898.8083   6   8   0.0758   0.1050   0.0617   0.0187   0.0733  -0.0337   0.00    0.0
2019/01/10 09:52:51.600  -2194550.7598   4398896.5968   4072879.8899   6   7   0.0753   0.1047   0.0621   0.0174   0.0734  -0.0337   0.00    0.0
2019/01/10 09:52:51.800  -2194600.5262   4398912.8731   4072861.2615   6   8   0.0749   0.1043   0.0618   0.0159   0.0732  -0.0340   0.00    0.0
2019/01/10 09:52:52.000  -2194650.5803   4398929.0635   4072842.3332   6   8   0.0744   0.1039   0.0617   0.0144   0.0731  -0.0341   0.00    0.0
2019/01/10 09:52:52.200  -2194700.1663   4398944.6339   4072823.0931   6   8   0.0740   0.1036   0.0616   0.0128   0.0730  -0.0342   0.00    0.0
2019/01/10 09:52:52.400  -2194749.8044   4398960.4797   4072804.0344   6   8   0.0735   0.1033   0.0615   0.0111   0.0729  -0.0343   0.00    0.0
2019/01/10 09:52:52.600  -2194799.6964   4398976.4821   4072785.0389   6   8   0.0731   0.1030   0.0615   0.0091   0.0728  -0.0343   0.00    0.0
2019/01/10 09:52:52.800  -2194849.3567   4398992.7068   4072766.0520   6   8   0.0727   0.1027   0.0615   0.0063   0.0728  -0.0344   0.00    0.0
2019/01/10 09:52:53.000  -2194899.2287   4399008.7880   4072747.1537   6   8   0.0722   0.1024   0.0614  -0.0018   0.0727  -0.0345   0.00    0.0
2019/01/10 09:52:53.200  -2194948.6966   4399024.1579   4072727.7877   6   8   0.0717   0.1021   0.0614  -0.0069   0.0726  -0.0346   0.00    0.0
2019/01/10 09:52:53.400  -2194998.4169   4399039.5978   4072708.6894   6   8   0.0713   0.1018   0.0614  -0.0095   0.0725  -0.0347   0.00    0.0
2019/01/10 09:52:53.600  -2195048.3095   4399056.4030   4072690.2576   6   8   0.0708   0.1014   0.0614  -0.0116   0.0725  -0.0348   0.00    0.0
2019/01/10 09:52:53.800  -2195097.6892   4399071.4594   4072670.5164   6   8   0.0704   0.1011   0.0613  -0.0133   0.0724  -0.0349   0.00    0.0
2019/01/10 09:52:54.000  -2195147.3255   4399086.8330   4072651.2530   6   7   0.0704   0.1032   0.0643  -0.0198   0.0752  -0.0371   0.00    0.0
2019/01/10 09:52:54.200  -2195196.9468   4399102.3370   4072631.7461   6   8   0.0699   0.1021   0.0630  -0.0195   0.0741  -0.0364   0.00    0.0
2019/01/10 09:52:54.400  -2195246.4914   4399117.7290   4072612.1665   6   8   0.0694   0.1013   0.0622  -0.0196   0.0733  -0.0360   0.00    0.0
2019/01/10 09:52:54.600  -2195296.3779   4399134.2302   4072593.4631   6   8   0.0689   0.1007   0.0617  -0.0200   0.0728  -0.0358   0.00    0.0
2019/01/10 09:52:54.800  -2195346.3133   4399150.2681   4072574.5425   6   8   0.0685   0.1001   0.0614  -0.0204   0.0724  -0.0357   0.00    0.0
2019/01/10 09:52:55.000  -2195396.2279   4399166.4460   4072555.6898   6   8   0.0680   0.0996   0.0613  -0.0210   0.0721  -0.0357   0.00    0.0
2019/01/10 09:52:55.200  -2195446.2191   4399182.6584   4072536.7701   6   8   0.0676   0.0992   0.0612  -0.0216   0.0719  -0.0357   0.00    0.0
2019/01/10 09:52:55.400  -2195495.9188   4399198.6074   4072517.7018   6   8   0.0672   0.0988   0.0611  -0.0223   0.0718  -0.0357   0.00    0.0
2019/01/10 09:52:55.600  -2195545.6721   4399214.5461   4072498.5680   6   8   0.0668   0.0985   0.0611  -0.0230   0.0717  -0.0358   0.00    0.0
2019/01/10 09:52:55.800  -2195594.9829   4399229.9206   4072479.1051   6   8   0.0665   0.0981   0.0611  -0.0237   0.0716  -0.0359   0.00    0.0
2019/01/10 09:52:56.000  -2195644.8511   4399246.2516   4072460.4444   6   8   0.0661   0.0978   0.0610  -0.0244   0.0715  -0.0360   0.00    0.0
2019/01/10 09:52:56.200  -2195694.3678   4399262.4052   4072441.3882   6   8   0.0657   0.0976   0.0610  -0.0251   0.0714  -0.0361   0.00    0.0
2019/01/10 09:52:56.400  -2195744.0927   4399278.0984   4072422.2600   6   8   0.0654   0.0973   0.0610  -0.0257   0.0714  -0.0361   0.00    0.0
2019/01/10 09:52:56.600  -2195794.2642   4399294.6104   4072403.5857   6   8   0.0650   0.0970   0.0609  -0.0263   0.0713  -0.0362   0.00    0.0
2019/01/10 09:52:56.800  -2195844.1427   4399311.3144   4072385.0769   6   8   0.0647   0.0967   0.0609  -0.0269   0.0712  -0.0363   0.00    0.0
2019/01/10 09:52:57.000  -2195894.1304   4399327.1943   4072365.7601   6   8   0.0643   0.0964   0.0609  -0.0275   0.0711  -0.0364   0.00    0.0
2019/01/10 09:52:57.200  -2195943.7490   4399342.9373   4072346.8512   6   8   0.0640   0.0962   0.0609  -0.0280   0.0710  -0.0365   0.00    0.0
2019/01/10 09:52:57.400  -2195993.2190   4399358.3517   4072327.3806   6   8   0.0636   0.0959   0.0608  -0.0286   0.0710  -0.0366   0.00    0.0
2019/01/10 09:52:57.600  -2196043.1448   4399374.1417   4072308.3809   6   8   0.0633   0.0956   0.0608  -0.0291   0.0709  -0.0367   0.00    0.0
2019/01/10 09:52:57.800  -2196092.8504   4399389.8967   4072289.1295   6   8   0.0630   0.0954   0.0608  -0.0295   0.0708  -0.0367   0.00    0.0
2019/01/10 09:52:58.000  -2196142.8486   4399406.3801   4072270.4638   6   8   0.0627   0.0951   0.0607  -0.0300   0.0707  -0.0368   0.00    0.0
2019/01/10 09:52:58.200  -2196192.1283   4399421.4283   4072250.7729   6   8   0.0624   0.0948   0.0607  -0.0305   0.0706  -0.0369   0.00    0.0
2019/01/10 09:52:58.400  -2196241.7842   4399437.3130   4072231.6276   6   8   0.0620   0.0946   0.0607  -0.0309   0.0706  -0.0370   0.00    0.0
2019/01/10 09:52:58.600  -2196291.6031   4399453.2223   4072212.5402   6   8   0.0617   0.0943   0.0607  -0.0313   0.0705  -0.0370   0.00    0.0
2019/01/10 09:52:58.800  -2196341.2585   4399468.4023   4072193.0868   6   8   0.0614   0.0941   0.0606  -0.0317   0.0704  -0.0371   0.00    0.0
2019/01/10 09:52:59.000  -2196390.5826   4399483.6234   4072173.3385   6   7   0.0622   0.0977   0.0652  -0.0366   0.0748  -0.0407   0.00    0.0
2019/01/10 09:52:59.200  -2196440.3898   4399499.8572   4072154.4468   6   8   0.0615   0.0960   0.0631  -0.0354   0.0729  -0.0393   0.00    0.0
2019/01/10 09:52:59.400  -2196490.0852   4399515.7122   4072135.4674   6   7   0.0616   0.0959   0.0643  -0.0364   0.0734  -0.0405   0.00    0.0
2019/01/10 09:52:59.600  -2196539.7071   4399531.5487   4072116.4146   6   8   0.0608   0.0947   0.0624  -0.0352   0.0719  -0.0390   0.00    0.0
2019/01/10 09:52:59.800  -2196589.3095   4399547.1920   4072097.3691   6   8   0.0602   0.0938   0.0614  -0.0346   0.0710  -0.0382   0.00    0.0
2019/01/10 09:53:00.000  -2196639.1811   4399563.2479   4072078.5386   6   8   0.0598   0.0931   0.0609  -0.0343   0.0704  -0.0378   0.00    0.0
2019/01/10 09:53:00.200  -2196688.7237   4399578.6267   4072059.2158   6   7   0.0608   0.0928   0.0607  -0.0353   0.0699  -0.0369   0.00    0.0
2019/01/10 09:53:00.400  -2196739.0874   4399595.7313   4072040.9381   6   7   0.0601   0.0925   0.0615  -0.0355   0.0703  -0.0385   0.00    0.0
2019/01/10 09:53:00.600  -2196788.8054   4399611.8040   4072021.8834   6   8   0.0593   0.0920   0.0609  -0.0352   0.0700  -0.0381   0.00    0.0
2019/01/10 09:53:00.800  -2196838.6824   4399628.0946   4072002.9892   6   8   0.0588   0.0916   0.0605  -0.0351   0.0697  -0.0379   0.00    0.0
2019/01/10 09:53:01.000  -2196888.0367   4399643.4949   4071983.5618   6   8   0.0585   0.0913   0.0603  -0.0353   0.0695  -0.0378   0.00    0.0
2019/01/10 09:53:01.200  -2196937.6273   4399659.1727   4071964.3959   6   8   0.0582   0.0910   0.0602  -0.0355   0.0693  -0.0378   0.00    0.0
2019/01/10 09:53:01.400  -2196987.8641   4399675.8130   4071945.7312   6   8   0.0579   0.0907   0.0602  -0.0357   0.0692  -0.0378   0.00    0.0
2019/01/10 09:53:01.600  -2197037.5643   4399691.1498   4071926.0606   6   8   0.0577   0.0905   0.0601  -0.0360   0.0691  -0.0379   0.00    0.0
2019/01/10 09:53:01.800  -2197087.7594   4399707.4510   4071907.3103   6   8   0.0574   0.0902   0.0601  -0.0362   0.0690  -0.0380   0.00    0.0
2019/01/10 09:53:02.000  -2197137.3040   4399723.2050   4071888.0296   6   8   0.0572   0.0900   0.0600  -0.0365   0.0689  -0.0380   0.00    0.0
2019/01/10 09:53:02.200  -2197187.2542   4399739.4864   4071869.0883   6   8   0.0570   0.0897   0.0600  -0.0367   0.0688  -0.0381   0.00    0.0
2019/01/10 09:53:02.400  -2197237.2379   4399756.2042   4071850.6200   6   8   0.0567   0.0895   0.0599  -0.0369   0.0687  -0.0381   0.00    0.0
2019/01/10 09:53:02.600  -2197286.6904   4399771.8346   4071831.1824   6   8   0.0565   0.0892   0.0599  -0.0371   0.0685  -0.0381   0.00    0.0
2019/01/10 09:53:02.800  -2197336.5125   4399788.0291   4071812.3968   6   7   0.0566   0.0983   0.0644  -0.0405   0.0754  -0.0400   0.00    0.0
2019/01/10 09:53:03.000  -2197386.3773   4399803.9554   4071793.3214   6   8   0.0563   0.0933   0.0623  -0.0395   0.0719  -0.0394   0.00    0.0
2019/01/10 09:53:03.200  -2197435.5646   4399818.6191   4071773.6591   6   8   0.0560   0.0909   0.0611  -0.0390   0.0702  -0.0391   0.00    0.0
2019/01/10 09:53:03.400  -2197485.3895   4399834.7543   4071755.0792   6   8   0.0557   0.0894   0.0605  -0.0386   0.0691  -0.0388   0.00    0.0
2019/01/10 09:53:03.600  -2197535.3372   4399850.4609   4071735.9316   6   7   0.0563   0.0896   0.0627  -0.0402   0.0703  -0.0408   0.00    0.0
2019/01/10 09:53:03.800  -2197584.7183   4399865.7115   4071716.5814   6   7   0.0556   0.0911   0.0612  -0.0399   0.0696  -0.0396   0.00    0.0
2019/01/10 09:53:04.000  -2197634.3221   4399881.5669   4071697.0014   6   8   0.0551   0.0894   0.0604  -0.0391   0.0689  -0.0389   0.00    0.0
2019/01/10 09:53:04.200  -2197684.2661   4399897.7367   4071678.1903   6   8   0.0548   0.0883   0.0600  -0.0387   0.0684  -0.0385   0.00    0.0
2019/01/10 09:53:04.400  -2197734.0188   4399914.1819   4071659.1402   6   8   0.0545   0.0876   0.0597  -0.0386   0.0680  -0.0384   0.00    0.0
2019/01/10 09:53:04.600  -2197783.6232   4399929.6210   4071639.4166   6   8   0.0543   0.0871   0.0595  -0.0386   0.0677  -0.0383   0.00    0.0
2019/01/10 09:53:04.800  -2197833.7197   4399946.1714   4071620.6610   6   8   0.0541   0.0867   0.0594  -0.0387   0.0675  -0.0384   0.00    0.0
2019/01/10 09:53:05.000  -2197883.4788   4399961.9239   4071601.7132   6   8   0.0540   0.0864   0.0593  -0.0389   0.0673  -0.0384   0.00    0.0
2019/01/10 09:53:05.200  -2197933.1765   4399977.7953   4071582.6598   6   8   0.0538   0.0861   0.0592  -0.0391   0.0672  -0.0384   0.00    0.0
2019/01/10 09:53:05.400  -2197982.9108   4399993.9838   4071563.7041   6   8   0.0536   0.0859   0.0592  -0.0392   0.0670  -0.0385   0.00    0.0
2019/01/10 09:53:05.600  -2198032.5858   4400009.9240   4071544.9355   6   8   0.0534   0.0856   0.0591  -0.0393   0.0669  -0.0385   0.00    0.0
2019/01/10 09:53:05.800  -2198082.6374   4400026.4090   4071526.3176   6   8   0.0532   0.0854   0.0590  -0.0394   0.0668  -0.0385   0.00    0.0
2019/01/10 09:53:06.000  -2198132.2430   4400042.0601   4071507.1874   6   8   0.0531   0.0851   0.0590  -0.0395   0.0666  -0.0385   0.00    0.0
2019/01/10 09:53:06.200  -2198181.8980   4400057.6184   4071487.7754   6   7   0.0530   0.0849   0.0592  -0.0396   0.0664  -0.0388   0.00    0.0
2019/01/10 09:53:06.400  -2198231.5999   4400073.5002   4071468.4316   6   8   0.0527   0.0846   0.0590  -0.0397   0.0664  -0.0386   0.00    0.0
2019/01/10 09:53:06.600  -2198281.3637   4400089.7638   4071449.4718   6   8   0.0525   0.0844   0.0588  -0.0398   0.0662  -0.0385   0.00    0.0
2019/01/10 09:53:06.800  -2198331.1130   4400105.2428   4071430.0881   6   8   0.0523   0.0841   0.0587  -0.0398   0.0661  -0.0385   0.00    0.0
2019/01/10 09:53:07.000  -2198381.1598   4400121.5937   4071411.3882   6   8   0.0521   0.0839   0.0587  -0.0399   0.0660  -0.0385   0.00    0.0
2019/01/10 09:53:07.200  -2198430.6479   4400137.1292   4071391.9617   6   8   0.0519   0.0837   0.0586  -0.0400   0.0659  -0.0385   0.00    0.0
2019/01/10 09:53:07.400  -2198480.1029   4400152.6281   4071373.0073   6   8   0.0518   0.0834   0.0585  -0.0400   0.0657  -0.0385   0.00    0.0
2019/01/10 09:53:07.600  -2198529.8294   4400168.2740   4071353.4737   6   8   0.0516   0.0832   0.0585  -0.0401   0.0656  -0.0385   0.00    0.0
2019/01/10 09:53:07.800  -2198580.0937   4400185.1964   4071334.9170   6   8   0.0514   0.0830   0.0584  -0.0402   0.0655  -0.0385   0.00    0.0
2019/01/10 09:53:08.000  -2198629.8659   4400201.5881   4071316.2743   6   8   0.0513   0.0828   0.0584  -0.0402   0.0654  -0.0385   0.00    0.0
2019/01/10 09:53:08.200  -2198679.5681   4400217.2243   4071296.9383   6   8   0.0511   0.0825   0.0583  -0.0403   0.0653  -0.0385   0.00    0.0
2019/01/10 09:53:08.400  -2198728.8557   4400232.3586   4071277.6107   6   8   0.0510   0.0823   0.0582  -0.0404   0.0652  -0.0385   0.00    0.0
2019/01/10 09:53:08.600  -2198778.3209   4400248.2654   4071258.4992   6   8   0.0508   0.0821   0.0582  -0.0404   0.0650  -0.0385   0.00    0.0
2019/01/10 09:53:08.800  -2198828.4752   4400265.0515   4071239.8600   6   8   0.0506   0.0819   0.0581  -0.0405   0.0649  -0.0385   0.00    0.0
2019/01/10 09:53:09.000  -2198878.2935   4400280.8900   4071220.9689   6   8   0.0505   0.0816   0.0581  -0.0405   0.0648  -0.0385   0.00    0.0
2019/01/10 09:53:09.200  -2198927.7249   4400296.1800   4071201.1692   6   8   0.0503   0.0814   0.0580  -0.0406   0.0647  -0.0385   0.00    0.0
2019/01/10 09:53:09.400  -2198977.3829   4400311.9811   4071181.8379   6   8   0.0502   0.0812   0.0580  -0.0406   0.0646  -0.0385   0.00    0.0
2019/01/10 09:53:09.600  -2199027.0405   4400327.4963   4071162.6679   6   8   0.0501   0.0810   0.0579  -0.0407   0.0644  -0.0385   0.00    0.0
2019/01/10 09:53:09.800  -2199076.9713   4400343.5302   4071143.6465   6   8   0.0499   0.0808   0.0578  -0.0407   0.0643  -0.0385   0.00    0.0
2019/01/10 09:53:10.000  -2199126.7233   4400358.9144   4071124.1845   6   8   0.0498   0.0805   0.0578  -0.0408   0.0642  -0.0385   0.00    0.0
2019/01/10 09:53:10.200  -2199176.4982   4400375.2654   4071105.1556   6   8   0.0496   0.0803   0.0577  -0.0408   0.0641  -0.0385   0.00    0.0
2019/01/10 09:53:10.400  -2199226.1732   4400391.1367   4071086.1781   6   8   0.0495   0.0801   0.0577  -0.0408   0.0639  -0.0385   0.00    0.0
2019/01/10 09:53:10.600  -2199275.8857   4400407.1257   4071067.2647   6   8   0.0494   0.0799   0.0576  -0.0409   0.0638  -0.0385   0.00    0.0
2019/01/10 09:53:10.800  -2199325.9151   4400423.3960   4071048.3315   6   8   0.0492   0.0797   0.0576  -0.0409   0.0637  -0.0385   0.00    0.0
2019/01/10 09:53:11.000  -2199375.6694   4400439.4835   4071029.6157   6   8   0.0491   0.0795   0.0575  -0.0409   0.0636  -0.0384   0.00    0.0
2019/01/10 09:53:11.200  -2199425.0267   4400455.4927   4071010.1730   6   8   0.0490   0.0793   0.0574  -0.0410   0.0635  -0.0384   0.00    0.0
2019/01/10 09:53:11.400  -2199474.4498   4400470.7702   4070990.7130   6   8   0.0489   0.0791   0.0574  -0.0410   0.0634  -0.0384   0.00    0.0
2019/01/10 09:53:11.600  -2199524.2824   4400486.4933   4070971.6582   6   8   0.0488   0.0789   0.0573  -0.0410   0.0632  -0.0384   0.00    0.0
2019/01/10 09:53:11.800  -2199574.3574   4400502.5926   4070952.7620   6   7   0.0486   0.0790   0.0573  -0.0410   0.0630  -0.0384   0.00    0.0
2019/01/10 09:53:12.000  -2199623.9803   4400518.2038   4070933.4009   6   8   0.0485   0.0786   0.0572  -0.0411   0.0630  -0.0384   0.00    0.0
2019/01/10 09:53:12.200  -2199673.6919   4400534.0275   4070913.9465   6   8   0.0484   0.0783   0.0572  -0.0411   0.0629  -0.0384   0.00    0.0
2019/01/10 09:53:12.400  -2199723.5441   4400550.0059   4070894.9156   6   8   0.0483   0.0781   0.0571  -0.0411   0.0628  -0.0384   0.00    0.0
2019/01/10 09:53:12.600  -2199773.4051   4400566.6730   4070876.2015   6   8   0.0482   0.0779   0.0571  -0.0411   0.0627  -0.0384   0.00    0.0
2019/01/10 09:53:12.800  -2199822.9571   4400582.4352   4070857.3642   6   8   0.0481   0.0777   0.0570  -0.0411   0.0625  -0.0384   0.00    0.0
2019/01/10 09:53:13.000  -2199873.0668   4400598.6190   4070838.6475   6   8   0.0480   0.0775   0.0570  -0.0412   0.0624  -0.0384   0.00    0.0
2019/01/10 09:53:13.200  -2199922.7718   4400614.8997   4070819.9074   6   8   0.0479   0.0773   0.0569  -0.0412   0.0623  -0.0384   0.00    0.0
2019/01/10 09:53:13.400  -2199972.3386   4400630.7015   4070800.4315   6   8   0.0478   0.0771   0.0569  -0.0412   0.0622  -0.0383   0.00    0.0
2019/01/10 09:53:13.600  -2200021.9058   4400646.0219   4070780.8714   6   8   0.0477   0.0769   0.0568  -0.0412   0.0621  -0.0383   0.00    0.0
2019/01/10 09:53:13.800  -2200071.3035   4400661.5535   4070761.4344   6   8   0.0476   0.0767   0.0568  -0.0412   0.0620  -0.0383   0.00    0.0
2019/01/10 09:53:14.000  -2200121.1272   4400677.4605   4070742.3122   6   8   0.0475   0.0765   0.0567  -0.0412   0.0619  -0.0383   0.00    0.0
2019/01/10 09:53:14.200  -2200171.1416   4400694.2020   4070723.5101   6   8   0.0474   0.0763   0.0567  -0.0412   0.0618  -0.0383   0.00    0.0
2019/01/10 09:53:14.400  -2200220.8037   4400710.2418   4070704.5855   6   8   0.0473   0.0762   0.0566  -0.0412   0.0617  -0.0383   0.00    0.0
2019/01/10 09:53:14.600  -2200270.4377   4400726.2137   4070685.3143   6   8   0.0472   0.0760   0.0566  -0.0413   0.0616  -0.0383   0.00    0.0
2019/01/10 09:53:14.800  -2200320.2764   4400742.2731   4070666.4825   6   8   0.0471   0.0758   0.0566  -0.0413   0.0615  -0.0383   0.00    0.0
2019/01/10 09:53:15.000  -2200369.9418   4400758.0001   4070647.5080   6   8   0.0470   0.0756   0.0565  -0.0413   0.0614  -0.0383   0.00    0.0
2019/01/10 09:53:15.200  -2200419.3916   4400773.1680   4070627.9989   6   8   0.0469   0.0754   0.0564  -0.0412   0.0612  -0.0382   0.00    0.0
2019/01/10 09:53:15.400  -2200469.4851   4400789.2372   4070609.1698   6   8   0.0467   0.0750   0.0562  -0.0411   0.0609  -0.0381   0.00    0.0
