% program   : RTKLIB ver.2.4.3
% inp file  : D:\mycode\vscode\rtklib\rtklib\leo_data\leo1.clk
% inp file  : D:\mycode\vscode\rtklib\rtklib\leo_data\leotest2.obs
% inp file  : D:\mycode\vscode\rtklib\rtklib\leo_data\leo1.sp3
% obs start : 2019/01/10 09:51:54.0 GPST (week2035 381114.0s)
% obs end   : 2019/01/10 09:54:44.0 GPST (week2035 381284.0s)
% pos mode  : PPP Static
% solution  : Forward
% elev mask : 15.0 deg
% dynamics  : off
% tidecorr  : off
% tropo opt : Estimate ZTD
% ephemeris : Precise
% navi sys  :
% antenna1  :                       ( 0.0000  0.0000  0.0000)
%
% (x/y/z-ecef=WGS84,Q=1:fix,2:float,3:sbas,4:dgps,5:single,6:ppp,ns=# of satellites)
%  GPST                      x-ecef(m)      y-ecef(m)      z-ecef(m)   Q  ns   sdx(m)   sdy(m)   sdz(m)  sdxy(m)  sdyz(m)  sdzx(m) age(s)  ratio
2019/01/10 09:51:54.000  -2173831.7279   4381461.6384   4093732.4392   6   8  11.6296  15.0136  12.5051  -3.9810  11.3721  -4.3658   0.00    0.0
2019/01/10 09:51:54.200  -2173833.8527   4381458.6957   4093727.9179   6   8   8.3732  10.8907   9.0843  -2.9805   8.3146  -3.1891   0.00    0.0
2019/01/10 09:51:54.400  -2173833.6972   4381457.6065   4093728.5689   6   8   6.8577   8.9449   7.4698  -2.5366   6.8630  -2.6534   0.00    0.0
2019/01/10 09:51:54.600  -2173827.8724   4381463.5624   4093730.1874   6   8   5.9290   7.7441   6.4760  -2.2904   5.9709  -2.3390   0.00    0.0
2019/01/10 09:51:54.800  -2173828.6933   4381459.1375   4093733.9106   6   8   5.2805   6.9014   5.7813  -2.1400   5.3499  -2.1320   0.00    0.0
2019/01/10 09:51:55.000  -2173830.4844   4381458.5450   4093738.0491   6   8   4.7918   6.2634   5.2577  -2.0414   4.8841  -1.9863   0.00    0.0
2019/01/10 09:51:55.200  -2173831.2805   4381456.6966   4093737.1575   6   8   4.4045   5.7555   4.8428  -1.9735   4.5167  -1.8793   0.00    0.0
2019/01/10 09:51:55.400  -2173827.3060   4381460.9961   4093738.9133   6   8   4.0864   5.3366   4.5020  -1.9244   4.2161  -1.7982   0.00    0.0
2019/01/10 09:51:55.600  -2173824.5431   4381462.0828   4093738.8922   6   8   3.8182   4.9822   4.2144  -1.8874   3.9634  -1.7352   0.00    0.0
2019/01/10 09:51:55.800  -2173823.0884   4381464.1494   4093737.7316   6   8   3.5876   4.6766   3.9669  -1.8575   3.7464  -1.6850   0.00    0.0
2019/01/10 09:51:56.000  -2173826.3558   4381458.9638   4093736.1240   6   8   3.3862   4.4090   3.7505  -1.8318   3.5568  -1.6439   0.00    0.0
2019/01/10 09:51:56.200  -2173827.1742   4381458.2253   4093734.2784   6   8   3.2085   4.1721   3.5589  -1.8083   3.3889  -1.6094   0.00    0.0
2019/01/10 09:51:56.400  -2173823.7374   4381459.3710   4093738.6368   6   8   3.0498   3.9603   3.3875  -1.7861   3.2385  -1.5797   0.00    0.0
2019/01/10 09:51:56.600  -2173824.1770   4381458.2754   4093737.9787   6   8   2.9071   3.7695   3.2329  -1.7645   3.1026  -1.5535   0.00    0.0
2019/01/10 09:51:56.800  -2173823.9378   4381462.0017   4093737.5379   6   8   2.7779   3.5965   3.0924  -1.7430   2.9787  -1.5298   0.00    0.0
2019/01/10 09:51:57.000  -2173825.3405   4381457.9535   4093736.9566   6   8   2.6602   3.4388   2.9639  -1.7213   2.8650  -1.5078   0.00    0.0
2019/01/10 09:51:57.200  -2173827.7515   4381456.0237   4093735.4860   6   8   2.5525   3.2942   2.8459  -1.6993   2.7601  -1.4870   0.00    0.0
2019/01/10 09:51:57.400  -2173828.4012   4381453.7768   4093734.7655   6   8   2.4535   3.1612   2.7370  -1.6769   2.6629  -1.4671   0.00    0.0
2019/01/10 09:51:57.600  -2173828.5092   4381456.5043   4093735.5231   6   8   2.3621   3.0382   2.6361  -1.6541   2.5724  -1.4477   0.00    0.0
2019/01/10 09:51:57.800  -2173828.2772   4381457.3000   4093736.1366   6   8   2.2774   2.9241   2.5422  -1.6310   2.4878  -1.4287   0.00    0.0
2019/01/10 09:51:58.000  -2173828.1814   4381458.7175   4093735.6593   6   8   2.1988   2.8180   2.4547  -1.6077   2.4085  -1.4100   0.00    0.0
2019/01/10 09:51:58.200  -2173827.8309   4381455.7744   4093735.3696   6   8   2.1255   2.7190   2.3727  -1.5841   2.3338  -1.3913   0.00    0.0
2019/01/10 09:51:58.400  -2173828.7563   4381455.9679   4093735.7175   6   8   2.0569   2.6263   2.2959  -1.5603   2.2634  -1.3727   0.00    0.0
2019/01/10 09:51:58.600  -2173827.9128   4381458.2658   4093736.3716   6   8   1.9927   2.5393   2.2236  -1.5364   2.1968  -1.3542   0.00    0.0
2019/01/10 09:51:58.800  -2173828.0922   4381460.9293   4093737.7568   6   8   1.9324   2.4574   2.1554  -1.5124   2.1337  -1.3356   0.00    0.0
2019/01/10 09:51:59.000  -2173828.1182   4381460.7149   4093737.5800   6   8   1.8755   2.3802   2.0910  -1.4884   2.0738  -1.3171   0.00    0.0
2019/01/10 09:51:59.200  -2173828.1477   4381460.9204   4093737.8573   6   8   1.8219   2.3073   2.0301  -1.4644   2.0168  -1.2986   0.00    0.0
2019/01/10 09:51:59.400  -2173828.2159   4381461.3079   4093738.5778   6   8   1.7712   2.2381   1.9723  -1.4405   1.9624  -1.2800   0.00    0.0
2019/01/10 09:51:59.600  -2173829.0533   4381462.4100   4093738.4130   6   8   1.7232   2.1725   1.9174  -1.4167   1.9105  -1.2615   0.00    0.0
2019/01/10 09:51:59.800  -2173829.0756   4381462.7047   4093738.0895   6   8   1.6776   2.1101   1.8651  -1.3929   1.8608  -1.2431   0.00    0.0
2019/01/10 09:52:00.000  -2173828.4244   4381462.5530   4093737.2334   6   8   1.6342   2.0507   1.8153  -1.3694   1.8132  -1.2246   0.00    0.0
2019/01/10 09:52:00.200  -2173828.3271   4381463.8523   4093737.1717   6   8   1.5929   1.9940   1.7677  -1.3460   1.7675  -1.2063   0.00    0.0
2019/01/10 09:52:00.400  -2173828.0629   4381462.7453   4093736.9850   6   8   1.5535   1.9398   1.7222  -1.3229   1.7237  -1.1880   0.00    0.0
2019/01/10 09:52:00.600  -2173829.0080   4381462.0542   4093736.2786   6   8   1.5158   1.8880   1.6787  -1.2999   1.6815  -1.1698   0.00    0.0
2019/01/10 09:52:00.800  -2173829.0488   4381460.3052   4093735.5700   6   8   1.4797   1.8383   1.6369  -1.2772   1.6410  -1.1518   0.00    0.0
2019/01/10 09:52:01.000  -2173828.9306   4381461.3367   4093736.0126   6   8   1.4452   1.7907   1.5969  -1.2548   1.6018  -1.1338   0.00    0.0
2019/01/10 09:52:01.200  -2173828.5222   4381461.9496   4093735.8447   6   8   1.4120   1.7449   1.5584  -1.2326   1.5641  -1.1160   0.00    0.0
2019/01/10 09:52:01.400  -2173829.2388   4381462.0045   4093735.5813   6   8   1.3802   1.7009   1.5214  -1.2107   1.5277  -1.0983   0.00    0.0
2019/01/10 09:52:01.600  -2173828.8505   4381461.4603   4093735.3773   6   8   1.3495   1.6585   1.4857  -1.1891   1.4925  -1.0808   0.00    0.0
2019/01/10 09:52:01.800  -2173828.8765   4381461.2522   4093734.8506   6   8   1.3200   1.6177   1.4514  -1.1678   1.4585  -1.0635   0.00    0.0
2019/01/10 09:52:02.000  -2173829.3683   4381462.5207   4093735.3472   6   8   1.2915   1.5783   1.4182  -1.1468   1.4255  -1.0464   0.00    0.0
2019/01/10 09:52:02.200  -2173828.8050   4381462.0839   4093734.6999   6   8   1.2641   1.5404   1.3862  -1.1261   1.3936  -1.0294   0.00    0.0
2019/01/10 09:52:02.400  -2173828.6922   4381462.5695   4093734.7996   6   8   1.2376   1.5037   1.3553  -1.1057   1.3627  -1.0126   0.00    0.0
2019/01/10 09:52:02.600  -2173828.8854   4381462.0998   4093734.5195   6   8   1.2119   1.4683   1.3254  -1.0856   1.3327  -0.9961   0.00    0.0
2019/01/10 09:52:02.800  -2173829.1910   4381460.5488   4093733.2653   6   8   1.1871   1.4340   1.2965  -1.0659   1.3037  -0.9797   0.00    0.0
2019/01/10 09:52:03.000  -2173829.0112   4381460.7278   4093733.6210   6   8   1.1631   1.4008   1.2685  -1.0464   1.2755  -0.9636   0.00    0.0
2019/01/10 09:52:03.200  -2173829.4976   4381460.7783   4093733.2971   6   8   1.1399   1.3687   1.2414  -1.0273   1.2481  -0.9476   0.00    0.0
2019/01/10 09:52:03.400  -2173829.4821   4381460.5960   4093733.7396   6   8   1.1173   1.3376   1.2151  -1.0085   1.2215  -0.9319   0.00    0.0
2019/01/10 09:52:03.600  -2173829.7711   4381459.9396   4093733.2409   6   8   1.0955   1.3074   1.1895  -0.9900   1.1956  -0.9164   0.00    0.0
2019/01/10 09:52:03.800  -2173830.3744   4381460.7328   4093733.7205   6   8   1.0742   1.2782   1.1648  -0.9719   1.1705  -0.9012   0.00    0.0
2019/01/10 09:52:04.000  -2173830.9086   4381461.5744   4093734.9001   6   8   1.0536   1.2498   1.1408  -0.9540   1.1460  -0.8861   0.00    0.0
2019/01/10 09:52:04.200  -2173831.5122   4381462.4908   4093735.7104   6   8   1.0336   1.2223   1.1174  -0.9365   1.1222  -0.8713   0.00    0.0
2019/01/10 09:52:04.400  -2173831.8842   4381463.7249   4093736.4254   6   8   1.0141   1.1956   1.0947  -0.9193   1.0991  -0.8567   0.00    0.0
2019/01/10 09:52:04.600  -2173831.7765   4381463.6871   4093736.4888   6   8   0.9952   1.1697   1.0727  -0.9024   1.0766  -0.8424   0.00    0.0
2019/01/10 09:52:04.800  -2173831.7747   4381463.2903   4093736.5308   6   8   0.9768   1.1444   1.0513  -0.8858   1.0547  -0.8282   0.00    0.0
2019/01/10 09:52:05.000  -2173831.1110   4381462.7723   4093736.1740   6   8   0.9589   1.1200   1.0304  -0.8695   1.0333  -0.8143   0.00    0.0
2019/01/10 09:52:05.200  -2173831.6145   4381462.9603   4093736.1700   6   8   0.9414   1.0962   1.0101  -0.8535   1.0125  -0.8007   0.00    0.0
2019/01/10 09:52:05.400  -2173831.2756   4381462.0103   4093735.5588   6   8   0.9245   1.0730   0.9904  -0.8378   0.9923  -0.7872   0.00    0.0
2019/01/10 09:52:05.600  -2173831.6567   4381461.7392   4093735.0433   6   8   0.9079   1.0505   0.9711  -0.8224   0.9725  -0.7740   0.00    0.0
2019/01/10 09:52:05.800  -2173831.7572   4381462.0726   4093735.6107   6   8   0.8918   1.0286   0.9524  -0.8073   0.9533  -0.7610   0.00    0.0
2019/01/10 09:52:06.000  -2173831.4000   4381461.5322   4093734.7691   6   8   0.8760   1.0073   0.9342  -0.7924   0.9345  -0.7482   0.00    0.0
2019/01/10 09:52:06.200  -2173830.7165   4381461.3112   4093734.3773   6   8   0.8607   0.9866   0.9164  -0.7779   0.9162  -0.7357   0.00    0.0
2019/01/10 09:52:06.400  -2173830.1527   4381460.1159   4093733.5207   6   8   0.8458   0.9664   0.8991  -0.7636   0.8984  -0.7233   0.00    0.0
2019/01/10 09:52:06.600  -2173829.8988   4381460.0411   4093733.6258   6   8   0.8312   0.9467   0.8822  -0.7496   0.8810  -0.7112   0.00    0.0
2019/01/10 09:52:06.800  -2173829.6708   4381459.7643   4093733.4556   6   8   0.8170   0.9276   0.8657  -0.7359   0.8640  -0.6993   0.00    0.0
2019/01/10 09:52:07.000  -2173829.6974   4381459.8882   4093733.5674   6   8   0.8031   0.9090   0.8497  -0.7225   0.8475  -0.6876   0.00    0.0
2019/01/10 09:52:07.200  -2173829.4801   4381459.2645   4093732.9758   6   8   0.7895   0.8908   0.8340  -0.7093   0.8313  -0.6761   0.00    0.0
2019/01/10 09:52:07.400  -2173828.9968   4381458.1174   4093731.7611   6   8   0.7763   0.8731   0.8188  -0.6963   0.8156  -0.6648   0.00    0.0
2019/01/10 09:52:07.600  -2173829.1919   4381458.2069   4093731.6295   6   8   0.7634   0.8559   0.8039  -0.6836   0.8002  -0.6538   0.00    0.0
2019/01/10 09:52:07.800  -2173829.4138   4381457.7287   4093731.2636   6   8   0.7507   0.8391   0.7893  -0.6712   0.7852  -0.6429   0.00    0.0
2019/01/10 09:52:08.000  -2173829.9637   4381458.1900   4093731.4198   6   8   0.7384   0.8228   0.7751  -0.6590   0.7706  -0.6322   0.00    0.0
2019/01/10 09:52:08.200  -2173829.8599   4381457.6289   4093730.8786   6   8   0.7264   0.8068   0.7613  -0.6471   0.7563  -0.6217   0.00    0.0
2019/01/10 09:52:08.400  -2173829.5160   4381456.9179   4093730.3185   6   8   0.7146   0.7913   0.7477  -0.6353   0.7423  -0.6115   0.00    0.0
2019/01/10 09:52:08.600  -2173829.1620   4381457.0128   4093730.1969   6   8   0.7031   0.7761   0.7345  -0.6239   0.7287  -0.6014   0.00    0.0
2019/01/10 09:52:08.800  -2173829.3154   4381457.5022   4093730.5759   6   8   0.6919   0.7614   0.7216  -0.6126   0.7154  -0.5915   0.00    0.0
2019/01/10 09:52:09.000  -2173829.5155   4381457.8112   4093730.7489   6   8   0.6809   0.7470   0.7090  -0.6016   0.7024  -0.5817   0.00    0.0
2019/01/10 09:52:09.200  -2173829.4064   4381457.7078   4093730.2655   6   8   0.6701   0.7329   0.6967  -0.5908   0.6897  -0.5722   0.00    0.0
2019/01/10 09:52:09.400  -2173829.6720   4381458.3432   4093730.7749   6   8   0.6596   0.7192   0.6847  -0.5802   0.6773  -0.5628   0.00    0.0
2019/01/10 09:52:09.600  -2173829.8711   4381458.6663   4093730.9620   6   8   0.6494   0.7059   0.6730  -0.5698   0.6652  -0.5537   0.00    0.0
2019/01/10 09:52:09.800  -2173829.5630   4381458.0510   4093730.3618   6   8   0.6393   0.6928   0.6615  -0.5596   0.6534  -0.5446   0.00    0.0
2019/01/10 09:52:10.000  -2173829.6479   4381458.3027   4093730.5107   6   8   0.6295   0.6801   0.6503  -0.5496   0.6418  -0.5358   0.00    0.0
2019/01/10 09:52:10.200  -2173829.6242   4381457.8648   4093730.2361   6   8   0.6199   0.6677   0.6393  -0.5398   0.6305  -0.5271   0.00    0.0
2019/01/10 09:52:10.400  -2173829.8421   4381458.2797   4093730.4241   6   8   0.6105   0.6556   0.6286  -0.5302   0.6195  -0.5186   0.00    0.0
2019/01/10 09:52:10.600  -2173830.0327   4381458.6180   4093730.3760   6   8   0.6013   0.6438   0.6182  -0.5208   0.6087  -0.5103   0.00    0.0
2019/01/10 09:52:10.800  -2173829.9015   4381458.4409   4093730.4326   6   8   0.5923   0.6323   0.6079  -0.5116   0.5982  -0.5021   0.00    0.0
2019/01/10 09:52:11.000  -2173829.8984   4381458.2461   4093730.2829   6   8   0.5835   0.6210   0.5979  -0.5026   0.5879  -0.4940   0.00    0.0
2019/01/10 09:52:11.200  -2173830.2254   4381458.5253   4093730.4012   6   8   0.5749   0.6100   0.5881  -0.4937   0.5778  -0.4861   0.00    0.0
2019/01/10 09:52:11.400  -2173830.3275   4381458.8822   4093730.6911   6   8   0.5665   0.5993   0.5786  -0.4851   0.5680  -0.4784   0.00    0.0
2019/01/10 09:52:11.600  -2173830.4313   4381458.7522   4093730.6983   6   8   0.5582   0.5888   0.5692  -0.4766   0.5584  -0.4708   0.00    0.0
2019/01/10 09:52:11.800  -2173830.3297   4381458.5523   4093730.6146   6   8   0.5501   0.5786   0.5601  -0.4682   0.5490  -0.4634   0.00    0.0
2019/01/10 09:52:12.000  -2173830.6706   4381458.7968   4093730.7387   6   8   0.5422   0.5686   0.5511  -0.4600   0.5398  -0.4560   0.00    0.0
2019/01/10 09:52:12.200  -2173830.7829   4381458.9167   4093730.7793   6   8   0.5345   0.5588   0.5423  -0.4520   0.5308  -0.4489   0.00    0.0
2019/01/10 09:52:12.400  -2173831.4338   4381459.8680   4093731.5826   6   8   0.5269   0.5493   0.5338  -0.4442   0.5220  -0.4418   0.00    0.0
2019/01/10 09:52:12.600  -2173831.9026   4381460.4192   4093731.8640   6   8   0.5194   0.5400   0.5254  -0.4365   0.5134  -0.4349   0.00    0.0
2019/01/10 09:52:12.800  -2173832.1496   4381460.5773   4093732.0586   6   8   0.5122   0.5309   0.5172  -0.4289   0.5050  -0.4282   0.00    0.0
2019/01/10 09:52:13.000  -2173832.0029   4381460.4063   4093731.9196   6   8   0.5050   0.5220   0.5091  -0.4215   0.4967  -0.4215   0.00    0.0
2019/01/10 09:52:13.200  -2173831.7219   4381460.4830   4093731.8990   6   8   0.4980   0.5133   0.5013  -0.4142   0.4887  -0.4150   0.00    0.0
2019/01/10 09:52:13.400  -2173831.8208   4381460.4825   4093731.9286   6   8   0.4912   0.5049   0.4936  -0.4071   0.4808  -0.4086   0.00    0.0
2019/01/10 09:52:13.600  -2173831.8662   4381460.5536   4093732.1271   6   8   0.4845   0.4966   0.4860  -0.4001   0.4731  -0.4023   0.00    0.0
2019/01/10 09:52:13.800  -2173831.8336   4381460.4434   4093732.0999   6   8   0.4779   0.4885   0.4786  -0.3933   0.4656  -0.3961   0.00    0.0
2019/01/10 09:52:14.000  -2173831.8950   4381460.4329   4093731.9993   6   8   0.4715   0.4806   0.4714  -0.3866   0.4582  -0.3901   0.00    0.0
2019/01/10 09:52:14.200  -2173831.6506   4381460.2801   4093731.7721   6   8   0.4652   0.4728   0.4643  -0.3800   0.4510  -0.3841   0.00    0.0
2019/01/10 09:52:14.400  -2173831.5287   4381460.2271   4093731.6060   6   8   0.4590   0.4652   0.4574  -0.3735   0.4439  -0.3783   0.00    0.0
2019/01/10 09:52:14.600  -2173831.4196   4381459.8893   4093731.3678   6   8   0.4529   0.4579   0.4506  -0.3672   0.4370  -0.3726   0.00    0.0
2019/01/10 09:52:14.800  -2173831.3700   4381459.6373   4093731.1282   6   8   0.4469   0.4506   0.4440  -0.3610   0.4303  -0.3670   0.00    0.0
2019/01/10 09:52:15.000  -2173831.3543   4381459.4922   4093731.0696   6   8   0.4411   0.4435   0.4375  -0.3549   0.4236  -0.3615   0.00    0.0
2019/01/10 09:52:15.200  -2173831.3752   4381459.4054   4093730.9289   6   8   0.4354   0.4366   0.4311  -0.3489   0.4171  -0.3560   0.00    0.0
2019/01/10 09:52:15.400  -2173831.4849   4381459.3995   4093730.9069   6   8   0.4298   0.4298   0.4248  -0.3430   0.4108  -0.3507   0.00    0.0
2019/01/10 09:52:15.600  -2173831.4577   4381459.3059   4093731.0233   6   8   0.4242   0.4232   0.4187  -0.3372   0.4045  -0.3455   0.00    0.0
2019/01/10 09:52:15.800  -2173831.4404   4381459.2836   4093731.0720   6   8   0.4188   0.4167   0.4126  -0.3315   0.3984  -0.3403   0.00    0.0
2019/01/10 09:52:16.000  -2173831.6883   4381459.2682   4093731.1083   6   8   0.4135   0.4103   0.4067  -0.3260   0.3924  -0.3353   0.00    0.0
2019/01/10 09:52:16.200  -2173831.5260   4381459.0262   4093730.9095   6   8   0.4083   0.4041   0.4009  -0.3205   0.3865  -0.3303   0.00    0.0
2019/01/10 09:52:16.400  -2173831.7869   4381459.1645   4093731.0849   6   8   0.4032   0.3980   0.3953  -0.3151   0.3808  -0.3255   0.00    0.0
2019/01/10 09:52:16.600  -2173831.6694   4381458.8989   4093730.8436   6   8   0.3981   0.3920   0.3897  -0.3098   0.3751  -0.3207   0.00    0.0
2019/01/10 09:52:16.800  -2173831.6040   4381458.8373   4093730.7623   6   8   0.3932   0.3861   0.3842  -0.3047   0.3696  -0.3160   0.00    0.0
2019/01/10 09:52:17.000  -2173831.5774   4381458.8653   4093730.8368   6   8   0.3884   0.3804   0.3788  -0.2996   0.3642  -0.3113   0.00    0.0
2019/01/10 09:52:17.200  -2173831.8643   4381459.1701   4093731.1561   6   8   0.3836   0.3748   0.3736  -0.2946   0.3589  -0.3068   0.00    0.0
2019/01/10 09:52:17.400  -2173831.8855   4381459.3028   4093731.2355   6   8   0.3789   0.3693   0.3684  -0.2897   0.3537  -0.3023   0.00    0.0
2019/01/10 09:52:17.600  -2173831.8835   4381459.4254   4093731.4856   6   8   0.3743   0.3639   0.3634  -0.2848   0.3486  -0.2979   0.00    0.0
2019/01/10 09:52:17.800  -2173832.0099   4381459.5738   4093731.7016   6   8   0.3698   0.3586   0.3584  -0.2801   0.3435  -0.2936   0.00    0.0
2019/01/10 09:52:18.000  -2173831.9934   4381459.5246   4093731.5222   6   8   0.3654   0.3535   0.3535  -0.2754   0.3386  -0.2894   0.00    0.0
2019/01/10 09:52:18.200  -2173832.0067   4381459.5177   4093731.5279   6   8   0.3610   0.3484   0.3487  -0.2709   0.3338  -0.2852   0.00    0.0
2019/01/10 09:52:18.400  -2173831.9036   4381459.4752   4093731.5238   6   8   0.3568   0.3434   0.3440  -0.2664   0.3291  -0.2811   0.00    0.0
2019/01/10 09:52:18.600  -2173831.7674   4381459.3052   4093731.4521   6   8   0.3526   0.3386   0.3394  -0.2620   0.3245  -0.2771   0.00    0.0
2019/01/10 09:52:18.800  -2173831.7836   4381459.3154   4093731.4997   6   8   0.3484   0.3338   0.3349  -0.2576   0.3199  -0.2732   0.00    0.0
2019/01/10 09:52:19.000  -2173831.9621   4381459.3576   4093731.5478   6   8   0.3444   0.3292   0.3304  -0.2534   0.3155  -0.2693   0.00    0.0
2019/01/10 09:52:19.200  -2173831.8915   4381459.2255   4093731.4195   6   8   0.3404   0.3246   0.3261  -0.2492   0.3111  -0.2655   0.00    0.0
2019/01/10 09:52:19.400  -2173831.9121   4381459.3468   4093731.6071   6   8   0.3365   0.3201   0.3218  -0.2451   0.3068  -0.2617   0.00    0.0
2019/01/10 09:52:19.600  -2173831.7454   4381459.2284   4093731.4867   6   8   0.3326   0.3157   0.3176  -0.2410   0.3026  -0.2580   0.00    0.0
2019/01/10 09:52:19.800  -2173831.9132   4381459.3196   4093731.5354   6   8   0.3289   0.3114   0.3135  -0.2370   0.2985  -0.2544   0.00    0.0
2019/01/10 09:52:20.000  -2173831.7144   4381459.2311   4093731.3839   6   8   0.3251   0.3072   0.3094  -0.2331   0.2945  -0.2508   0.00    0.0
2019/01/10 09:52:20.200  -2173831.6343   4381459.0881   4093731.2525   6   8   0.3215   0.3031   0.3055  -0.2293   0.2905  -0.2473   0.00    0.0
2019/01/10 09:52:20.400  -2173831.5404   4381458.9858   4093731.1865   6   8   0.3179   0.2990   0.3016  -0.2255   0.2866  -0.2439   0.00    0.0
2019/01/10 09:52:20.600  -2173831.6286   4381459.0436   4093731.2351   6   8   0.3144   0.2951   0.2977  -0.2218   0.2828  -0.2405   0.00    0.0
2019/01/10 09:52:20.800  -2173831.6628   4381459.1611   4093731.2255   6   8   0.3109   0.2912   0.2940  -0.2182   0.2790  -0.2371   0.00    0.0
2019/01/10 09:52:21.000  -2173831.5358   4381459.1255   4093731.2230   6   8   0.3075   0.2874   0.2903  -0.2146   0.2754  -0.2339   0.00    0.0
2019/01/10 09:52:21.200  -2173831.4721   4381459.0560   4093731.0933   6   8   0.3041   0.2836   0.2867  -0.2111   0.2718  -0.2306   0.00    0.0
2019/01/10 09:52:21.400  -2173831.4622   4381459.0463   4093731.1252   6   8   0.3008   0.2800   0.2831  -0.2076   0.2682  -0.2275   0.00    0.0
2019/01/10 09:52:21.600  -2173831.4703   4381459.0468   4093731.1142   6   8   0.2976   0.2764   0.2796  -0.2042   0.2647  -0.2244   0.00    0.0
2019/01/10 09:52:21.800  -2173831.5272   4381459.1114   4093731.1788   6   8   0.2944   0.2728   0.2762  -0.2008   0.2613  -0.2213   0.00    0.0
2019/01/10 09:52:22.000  -2173831.6754   4381459.3552   4093731.3742   6   8   0.2913   0.2694   0.2728  -0.1976   0.2580  -0.2183   0.00    0.0
2019/01/10 09:52:22.200  -2173831.5457   4381459.2487   4093731.2596   6   8   0.2882   0.2660   0.2695  -0.1943   0.2547  -0.2153   0.00    0.0
2019/01/10 09:52:22.400  -2173831.3600   4381458.9768   4093731.0797   6   8   0.2851   0.2627   0.2662  -0.1911   0.2515  -0.2124   0.00    0.0
2019/01/10 09:52:22.600  -2173831.3090   4381458.8906   4093731.0180   6   8   0.2821   0.2594   0.2630  -0.1880   0.2483  -0.2095   0.00    0.0
2019/01/10 09:52:22.800  -2173831.1970   4381458.7751   4093730.9319   6   8   0.2792   0.2562   0.2598  -0.1849   0.2452  -0.2067   0.00    0.0
2019/01/10 09:52:23.000  -2173831.2450   4381458.9346   4093731.0687   6   8   0.2763   0.2531   0.2567  -0.1819   0.2422  -0.2039   0.00    0.0
2019/01/10 09:52:23.200  -2173831.3016   4381459.1659   4093731.2619   6   8   0.2735   0.2500   0.2537  -0.1789   0.2392  -0.2012   0.00    0.0
2019/01/10 09:52:23.400  -2173831.3598   4381459.1074   4093731.2409   6   8   0.2706   0.2470   0.2507  -0.1759   0.2362  -0.1985   0.00    0.0
2019/01/10 09:52:23.600  -2173831.4390   4381459.0689   4093731.1835   6   8   0.2679   0.2440   0.2478  -0.1731   0.2333  -0.1958   0.00    0.0
2019/01/10 09:52:23.800  -2173831.5781   4381459.1494   4093731.3196   6   8   0.2652   0.2411   0.2449  -0.1702   0.2305  -0.1932   0.00    0.0
2019/01/10 09:52:24.000  -2173831.4444   4381459.0587   4093731.2658   6   8   0.2625   0.2383   0.2421  -0.1674   0.2277  -0.1907   0.00    0.0
2019/01/10 09:52:24.200  -2173831.5314   4381459.2257   4093731.4174   6   8   0.2599   0.2355   0.2393  -0.1647   0.2250  -0.1881   0.00    0.0
2019/01/10 09:52:24.400  -2173831.5472   4381459.3447   4093731.4625   6   8   0.2573   0.2327   0.2365  -0.1619   0.2223  -0.1857   0.00    0.0
2019/01/10 09:52:24.600  -2173831.6225   4381459.4413   4093731.5578   6   8   0.2547   0.2300   0.2338  -0.1593   0.2197  -0.1832   0.00    0.0
2019/01/10 09:52:24.800  -2173831.5393   4381459.3429   4093731.4807   6   8   0.2522   0.2274   0.2312  -0.1566   0.2171  -0.1808   0.00    0.0
2019/01/10 09:52:25.000  -2173831.4096   4381459.1179   4093731.2141   6   8   0.2497   0.2248   0.2286  -0.1541   0.2145  -0.1784   0.00    0.0
2019/01/10 09:52:25.200  -2173831.3238   4381459.1000   4093731.1910   6   8   0.2473   0.2222   0.2260  -0.1515   0.2120  -0.1761   0.00    0.0
2019/01/10 09:52:25.400  -2173831.1788   4381458.9622   4093731.0813   6   8   0.2449   0.2197   0.2235  -0.1490   0.2096  -0.1738   0.00    0.0
2019/01/10 09:52:25.600  -2173831.0613   4381458.9053   4093731.0605   6   8   0.2425   0.2172   0.2210  -0.1465   0.2071  -0.1715   0.00    0.0
2019/01/10 09:52:25.800  -2173831.0918   4381458.9766   4093731.0861   6   8   0.2402   0.2148   0.2186  -0.1441   0.2048  -0.1693   0.00    0.0
2019/01/10 09:52:26.000  -2173831.1231   4381459.0048   4093731.1163   6   8   0.2379   0.2125   0.2162  -0.1417   0.2024  -0.1671   0.00    0.0
2019/01/10 09:52:26.200  -2173831.1489   4381458.9663   4093731.0183   6   8   0.2357   0.2101   0.2138  -0.1393   0.2001  -0.1650   0.00    0.0
2019/01/10 09:52:26.400  -2173831.2234   4381458.9987   4093731.0550   6   8   0.2334   0.2078   0.2115  -0.1370   0.1979  -0.1628   0.00    0.0
2019/01/10 09:52:26.600  -2173831.2769   4381459.0202   4093731.0980   6   8   0.2312   0.2056   0.2092  -0.1347   0.1957  -0.1607   0.00    0.0
2019/01/10 09:52:26.800  -2173831.3701   4381459.0826   4093731.1845   6   8   0.2291   0.2034   0.2070  -0.1324   0.1935  -0.1587   0.00    0.0
2019/01/10 09:52:27.000  -2173831.3272   4381459.1254   4093731.1864   6   8   0.2269   0.2012   0.2048  -0.1302   0.1914  -0.1566   0.00    0.0
2019/01/10 09:52:27.200  -2173831.2998   4381459.1116   4093731.1496   6   7   0.2249   0.1991   0.2026  -0.1280   0.1893  -0.1547   0.00    0.0
2019/01/10 09:52:27.400  -2173831.3409   4381459.1169   4093731.1323   6   7   0.2231   0.1981   0.2010  -0.1266   0.1880  -0.1531   0.00    0.0
2019/01/10 09:52:27.600  -2173831.4655   4381459.3209   4093731.3338   6   8   0.2210   0.1960   0.1988  -0.1244   0.1859  -0.1512   0.00    0.0
2019/01/10 09:52:27.800  -2173831.5780   4381459.3753   4093731.3773   6   8   0.2190   0.1939   0.1967  -0.1223   0.1839  -0.1492   0.00    0.0
2019/01/10 09:52:28.000  -2173831.7148   4381459.4219   4093731.3970   6   8   0.2170   0.1918   0.1947  -0.1202   0.1818  -0.1473   0.00    0.0
2019/01/10 09:52:28.200  -2173831.6245   4381459.3777   4093731.3000   6   8   0.2150   0.1898   0.1926  -0.1181   0.1799  -0.1454   0.00    0.0
2019/01/10 09:52:28.400  -2173831.4511   4381459.2847   4093731.2080   6   8   0.2131   0.1879   0.1906  -0.1160   0.1779  -0.1435   0.00    0.0
2019/01/10 09:52:28.600  -2173831.3991   4381459.1878   4093731.0782   6   8   0.2111   0.1860   0.1887  -0.1140   0.1760  -0.1417   0.00    0.0
2019/01/10 09:52:28.800  -2173831.4241   4381459.2583   4093731.1359   6   8   0.2093   0.1841   0.1867  -0.1120   0.1742  -0.1399   0.00    0.0
2019/01/10 09:52:29.000  -2173831.2980   4381459.1508   4093731.0634   6   8   0.2074   0.1822   0.1848  -0.1100   0.1723  -0.1381   0.00    0.0
2019/01/10 09:52:29.200  -2173831.3965   4381459.2493   4093731.1304   6   8   0.2056   0.1804   0.1829  -0.1081   0.1705  -0.1364   0.00    0.0
2019/01/10 09:52:29.400  -2173831.4168   4381459.3017   4093731.1691   6   8   0.2038   0.1786   0.1811  -0.1061   0.1688  -0.1347   0.00    0.0
2019/01/10 09:52:29.600  -2173831.3265   4381459.3157   4093731.1552   6   8   0.2020   0.1769   0.1793  -0.1043   0.1670  -0.1330   0.00    0.0
2019/01/10 09:52:29.800  -2173831.3116   4381459.2172   4093731.0665   6   8   0.2002   0.1751   0.1775  -0.1024   0.1653  -0.1313   0.00    0.0
2019/01/10 09:52:30.000  -2173831.1637   4381459.1629   4093731.0265   6   8   0.1985   0.1734   0.1758  -0.1005   0.1636  -0.1296   0.00    0.0
2019/01/10 09:52:30.200  -2173831.1020   4381459.1965   4093731.0702   6   8   0.1968   0.1718   0.1740  -0.0987   0.1620  -0.1280   0.00    0.0
2019/01/10 09:52:30.400  -2173831.0455   4381459.0824   4093731.0186   6   8   0.1951   0.1701   0.1723  -0.0969   0.1604  -0.1264   0.00    0.0
2019/01/10 09:52:30.600  -2173831.1122   4381459.1163   4093731.0637   6   8   0.1934   0.1685   0.1707  -0.0952   0.1588  -0.1248   0.00    0.0
2019/01/10 09:52:30.800  -2173831.0725   4381459.1922   4093731.0875   6   8   0.1918   0.1670   0.1690  -0.0934   0.1572  -0.1233   0.00    0.0
2019/01/10 09:52:31.000  -2173831.1131   4381459.2026   4093731.0623   6   7   0.1912   0.1661   0.1682  -0.0933   0.1564  -0.1230   0.00    0.0
2019/01/10 09:52:31.200  -2173831.1171   4381459.2104   4093731.0658   6   8   0.1895   0.1645   0.1665  -0.0915   0.1549  -0.1214   0.00    0.0
2019/01/10 09:52:31.400  -2173831.0713   4381459.2192   4093731.1030   6   8   0.1879   0.1630   0.1649  -0.0898   0.1534  -0.1199   0.00    0.0
2019/01/10 09:52:31.600  -2173831.0861   4381459.2280   4093731.1072   6   8   0.1863   0.1615   0.1633  -0.0880   0.1519  -0.1184   0.00    0.0
2019/01/10 09:52:31.800  -2173831.2061   4381459.2929   4093731.1862   6   8   0.1847   0.1600   0.1618  -0.0863   0.1504  -0.1168   0.00    0.0
2019/01/10 09:52:32.000  -2173831.1740   4381459.2638   4093731.1132   6   8   0.1832   0.1586   0.1603  -0.0846   0.1489  -0.1154   0.00    0.0
2019/01/10 09:52:32.200  -2173831.2239   4381459.2571   4093731.1351   6   8   0.1817   0.1571   0.1587  -0.0830   0.1475  -0.1139   0.00    0.0
2019/01/10 09:52:32.400  -2173831.0820   4381459.1391   4093731.0308   6   8   0.1802   0.1557   0.1573  -0.0813   0.1461  -0.1125   0.00    0.0
2019/01/10 09:52:32.600  -2173830.9396   4381459.0457   4093730.9314   6   8   0.1787   0.1544   0.1558  -0.0797   0.1447  -0.1110   0.00    0.0
2019/01/10 09:52:32.800  -2173830.9769   4381459.1211   4093731.0311   6   8   0.1772   0.1530   0.1544  -0.0781   0.1434  -0.1096   0.00    0.0
2019/01/10 09:52:33.000  -2173830.9109   4381459.0949   4093731.0228   6   8   0.1757   0.1517   0.1530  -0.0765   0.1420  -0.1083   0.00    0.0
2019/01/10 09:52:33.200  -2173830.9291   4381459.0016   4093730.9346   6   8   0.1743   0.1504   0.1516  -0.0750   0.1407  -0.1069   0.00    0.0
2019/01/10 09:52:33.400  -2173830.9536   4381458.9696   4093730.9042   6   8   0.1729   0.1491   0.1502  -0.0734   0.1394  -0.1056   0.00    0.0
2019/01/10 09:52:33.600  -2173830.9162   4381458.9917   4093730.9139   6   8   0.1715   0.1478   0.1488  -0.0719   0.1382  -0.1043   0.00    0.0
2019/01/10 09:52:33.800  -2173830.8895   4381458.9417   4093730.8602   6   8   0.1701   0.1466   0.1475  -0.0703   0.1369  -0.1029   0.00    0.0
2019/01/10 09:52:34.000  -2173830.8563   4381458.9407   4093730.8935   6   8   0.1688   0.1454   0.1462  -0.0688   0.1357  -0.1017   0.00    0.0
2019/01/10 09:52:34.200  -2173830.8639   4381458.9709   4093730.9163   6   8   0.1674   0.1442   0.1449  -0.0674   0.1345  -0.1004   0.00    0.0
2019/01/10 09:52:34.400  -2173830.8716   4381459.0302   4093730.9611   6   8   0.1661   0.1430   0.1437  -0.0659   0.1333  -0.0991   0.00    0.0
2019/01/10 09:52:34.600  -2173830.7956   4381459.0120   4093730.9069   6   8   0.1648   0.1418   0.1424  -0.0644   0.1322  -0.0979   0.00    0.0
2019/01/10 09:52:34.800  -2173830.7816   4381459.0042   4093730.9301   6   8   0.1635   0.1407   0.1412  -0.0630   0.1310  -0.0967   0.00    0.0
2019/01/10 09:52:35.000  -2173830.7394   4381459.0050   4093730.9130   6   8   0.1623   0.1396   0.1400  -0.0615   0.1299  -0.0955   0.00    0.0
2019/01/10 09:52:35.200  -2173830.7542   4381459.0123   4093730.9217   6   8   0.1610   0.1385   0.1388  -0.0601   0.1288  -0.0943   0.00    0.0
2019/01/10 09:52:35.400  -2173830.7485   4381459.0762   4093730.9718   6   8   0.1598   0.1374   0.1376  -0.0587   0.1277  -0.0931   0.00    0.0
2019/01/10 09:52:35.600  -2173830.8263   4381459.1508   4093731.0200   6   8   0.1585   0.1363   0.1364  -0.0572   0.1266  -0.0920   0.00    0.0
2019/01/10 09:52:35.800  -2173830.8783   4381459.1553   4093731.0407   6   8   0.1573   0.1353   0.1353  -0.0558   0.1256  -0.0908   0.00    0.0
2019/01/10 09:52:36.000  -2173830.8737   4381459.1094   4093731.0189   6   8   0.1561   0.1343   0.1342  -0.0544   0.1245  -0.0897   0.00    0.0
2019/01/10 09:52:36.200  -2173830.8113   4381459.0997   4093731.0229   6   8   0.1550   0.1332   0.1331  -0.0531   0.1235  -0.0886   0.00    0.0
2019/01/10 09:52:36.400  -2173830.9011   4381459.1741   4093731.0993   6   8   0.1538   0.1323   0.1320  -0.0517   0.1225  -0.0875   0.00    0.0
2019/01/10 09:52:36.600  -2173830.9026   4381459.2429   4093731.1324   6   8   0.1526   0.1313   0.1309  -0.0503   0.1215  -0.0864   0.00    0.0
2019/01/10 09:52:36.800  -2173830.8642   4381459.1838   4093731.0652   6   8   0.1515   0.1303   0.1298  -0.0489   0.1205  -0.0853   0.00    0.0
2019/01/10 09:52:37.000  -2173830.8986   4381459.1222   4093731.0065   6   8   0.1504   0.1294   0.1288  -0.0476   0.1196  -0.0843   0.00    0.0
2019/01/10 09:52:37.200  -2173830.9474   4381459.1734   4093731.0304   6   8   0.1493   0.1284   0.1278  -0.0462   0.1186  -0.0832   0.00    0.0
2019/01/10 09:52:37.400  -2173830.9934   4381459.2112   4093731.0681   6   8   0.1482   0.1275   0.1268  -0.0448   0.1177  -0.0822   0.00    0.0
2019/01/10 09:52:37.600  -2173830.9364   4381459.1484   4093731.0087   6   7   0.1472   0.1268   0.1261  -0.0431   0.1171  -0.0810   0.00    0.0
2019/01/10 09:52:37.800  -2173830.9067   4381459.1667   4093731.0115   6   8   0.1461   0.1259   0.1251  -0.0417   0.1162  -0.0800   0.00    0.0
2019/01/10 09:52:38.000  -2173830.9034   4381459.1916   4093731.0139   6   8   0.1450   0.1250   0.1241  -0.0404   0.1153  -0.0790   0.00    0.0
2019/01/10 09:52:38.200  -2173830.8397   4381459.1458   4093730.9521   6   8   0.1440   0.1242   0.1231  -0.0390   0.1144  -0.0780   0.00    0.0
2019/01/10 09:52:38.400  -2173830.8006   4381459.1296   4093730.9418   6   8   0.1429   0.1233   0.1222  -0.0376   0.1135  -0.0770   0.00    0.0
2019/01/10 09:52:38.600  -2173830.8064   4381459.1067   4093730.9512   6   8   0.1419   0.1225   0.1213  -0.0362   0.1127  -0.0761   0.00    0.0
2019/01/10 09:52:38.800  -2173830.7846   4381459.1005   4093730.9113   6   8   0.1409   0.1216   0.1203  -0.0348   0.1119  -0.0751   0.00    0.0
2019/01/10 09:52:39.000  -2173830.7854   4381459.1092   4093730.8907   6   8   0.1399   0.1208   0.1194  -0.0334   0.1110  -0.0742   0.00    0.0
2019/01/10 09:52:39.200  -2173830.8691   4381459.0923   4093730.8737   6   8   0.1389   0.1200   0.1185  -0.0319   0.1102  -0.0733   0.00    0.0
2019/01/10 09:52:39.400  -2173830.8761   4381459.1205   4093730.8947   6   8   0.1379   0.1192   0.1176  -0.0305   0.1094  -0.0723   0.00    0.0
2019/01/10 09:52:39.600  -2173830.8523   4381459.1544   4093730.9097   6   8   0.1370   0.1185   0.1168  -0.0290   0.1086  -0.0714   0.00    0.0
2019/01/10 09:52:39.800  -2173830.9305   4381459.2087   4093730.9534   6   8   0.1360   0.1177   0.1159  -0.0275   0.1079  -0.0705   0.00    0.0
2019/01/10 09:52:40.000  -2173830.9771   4381459.2209   4093730.9516   6   8   0.1351   0.1169   0.1151  -0.0259   0.1071  -0.0697   0.00    0.0
2019/01/10 09:52:40.200  -2173830.9570   4381459.2483   4093730.9542   6   8   0.1341   0.1162   0.1142  -0.0243   0.1063  -0.0688   0.00    0.0
2019/01/10 09:52:40.400  -2173830.9890   4381459.2757   4093730.9870   6   8   0.1332   0.1155   0.1134  -0.0226   0.1056  -0.0679   0.00    0.0
2019/01/10 09:52:40.600  -2173830.9672   4381459.2922   4093730.9959   6   8   0.1323   0.1147   0.1126  -0.0209   0.1049  -0.0670   0.00    0.0
2019/01/10 09:52:40.800  -2173831.0082   4381459.2752   4093730.9725   6   8   0.1314   0.1140   0.1118  -0.0190   0.1042  -0.0662   0.00    0.0
2019/01/10 09:52:41.000  -2173831.0474   4381459.2630   4093730.9725   6   8   0.1305   0.1133   0.1110  -0.0170   0.1035  -0.0654   0.00    0.0
2019/01/10 09:52:41.200  -2173830.9728   4381459.2451   4093730.9315   6   8   0.1296   0.1126   0.1102  -0.0149   0.1028  -0.0645   0.00    0.0
2019/01/10 09:52:41.400  -2173830.9481   4381459.2227   4093730.9363   6   8   0.1288   0.1120   0.1094  -0.0124   0.1021  -0.0637   0.00    0.0
2019/01/10 09:52:41.600  -2173830.9376   4381459.1844   4093730.8902   6   8   0.1279   0.1113   0.1087  -0.0094   0.1014  -0.0629   0.00    0.0
2019/01/10 09:52:41.800  -2173830.8980   4381459.1505   4093730.8392   6   8   0.1270   0.1106   0.1079  -0.0050   0.1007  -0.0621   0.00    0.0
2019/01/10 09:52:42.000  -2173830.8937   4381459.1410   4093730.8328   6   8   0.1262   0.1100   0.1072   0.0061   0.1001  -0.0613   0.00    0.0
2019/01/10 09:52:42.200  -2173830.8417   4381459.1842   4093730.8303   6   8   0.1253   0.1093   0.1065   0.0098   0.0994  -0.0605   0.00    0.0
2019/01/10 09:52:42.400  -2173830.8342   4381459.2478   4093730.8979   6   8   0.1245   0.1087   0.1058   0.0124   0.0988  -0.0597   0.00    0.0
2019/01/10 09:52:42.600  -2173830.8094   4381459.2090   4093730.8529   6   8   0.1237   0.1081   0.1051   0.0145   0.0982  -0.0589   0.00    0.0
2019/01/10 09:52:42.800  -2173830.8615   4381459.2150   4093730.8713   6   8   0.1229   0.1075   0.1044   0.0163   0.0976  -0.0582   0.00    0.0
2019/01/10 09:52:43.000  -2173830.8544   4381459.1900   4093730.8580   6   7   0.1222   0.1072   0.1039   0.0168   0.0972  -0.0577   0.00    0.0
2019/01/10 09:52:43.200  -2173830.8315   4381459.2081   4093730.8461   6   8   0.1214   0.1066   0.1032   0.0183   0.0966  -0.0569   0.00    0.0
2019/01/10 09:52:43.400  -2173830.8160   4381459.1861   4093730.8390   6   8   0.1206   0.1060   0.1025   0.0196   0.0960  -0.0561   0.00    0.0
2019/01/10 09:52:43.600  -2173830.8131   4381459.1741   4093730.8162   6   8   0.1198   0.1054   0.1018   0.0209   0.0954  -0.0554   0.00    0.0
2019/01/10 09:52:43.800  -2173830.8650   4381459.2315   4093730.8670   6   8   0.1190   0.1048   0.1012   0.0220   0.0948  -0.0546   0.00    0.0
2019/01/10 09:52:44.000  -2173830.8309   4381459.1872   4093730.8276   6   8   0.1183   0.1042   0.1005   0.0230   0.0943  -0.0539   0.00    0.0
2019/01/10 09:52:44.200  -2173830.8418   4381459.2245   4093730.8862   6   8   0.1175   0.1037   0.0999   0.0240   0.0937  -0.0532   0.00    0.0
2019/01/10 09:52:44.400  -2173830.8861   4381459.2004   4093730.8601   6   8   0.1167   0.1031   0.0993   0.0249   0.0932  -0.0525   0.00    0.0
2019/01/10 09:52:44.600  -2173830.9218   4381459.2032   4093730.8670   6   8   0.1160   0.1026   0.0986   0.0257   0.0926  -0.0517   0.00    0.0
2019/01/10 09:52:44.800  -2173830.9194   4381459.2109   4093730.8703   6   8   0.1153   0.1021   0.0980   0.0265   0.0921  -0.0510   0.00    0.0
2019/01/10 09:52:45.000  -2173830.9404   4381459.1767   4093730.8484   6   8   0.1145   0.1015   0.0974   0.0273   0.0915  -0.0503   0.00    0.0
2019/01/10 09:52:45.200  -2173831.0272   4381459.2043   4093730.8761   6   8   0.1138   0.1010   0.0968   0.0280   0.0910  -0.0496   0.00    0.0
2019/01/10 09:52:45.400  -2173831.0844   4381459.2016   4093730.8897   6   8   0.1131   0.1005   0.0962   0.0286   0.0905  -0.0489   0.00    0.0
2019/01/10 09:52:45.600  -2173831.1043   4381459.1772   4093730.8724   6   8   0.1124   0.1000   0.0957   0.0293   0.0900  -0.0482   0.00    0.0
2019/01/10 09:52:45.800  -2173831.1155   4381459.1788   4093730.8496   6   6   0.1122   0.0996   0.0953   0.0292   0.0896  -0.0482   0.00    0.0
2019/01/10 09:52:46.000  -2173831.1156   4381459.1480   4093730.8334   6   8   0.1114   0.0991   0.0947   0.0298   0.0892  -0.0475   0.00    0.0
2019/01/10 09:52:46.200  -2173831.1007   4381459.1480   4093730.8342   6   8   0.1107   0.0986   0.0941   0.0303   0.0887  -0.0468   0.00    0.0
2019/01/10 09:52:46.400  -2173831.0374   4381459.1196   4093730.8103   6   8   0.1100   0.0981   0.0936   0.0309   0.0882  -0.0461   0.00    0.0
2019/01/10 09:52:46.600  -2173831.0227   4381459.0486   4093730.7568   6   8   0.1093   0.0976   0.0930   0.0314   0.0877  -0.0454   0.00    0.0
2019/01/10 09:52:46.800  -2173831.0279   4381459.0057   4093730.7096   6   8   0.1087   0.0972   0.0925   0.0319   0.0872  -0.0447   0.00    0.0
2019/01/10 09:52:47.000  -2173831.0294   4381458.9433   4093730.6444   6   8   0.1080   0.0967   0.0919   0.0324   0.0868  -0.0441   0.00    0.0
2019/01/10 09:52:47.200  -2173831.0397   4381458.9259   4093730.6250   6   8   0.1073   0.0962   0.0914   0.0329   0.0863  -0.0434   0.00    0.0
2019/01/10 09:52:47.400  -2173831.0508   4381458.9257   4093730.6333   6   8   0.1066   0.0958   0.0909   0.0333   0.0858  -0.0427   0.00    0.0
2019/01/10 09:52:47.600  -2173831.1079   4381458.9256   4093730.6506   6   8   0.1060   0.0953   0.0904   0.0337   0.0854  -0.0421   0.00    0.0
2019/01/10 09:52:47.800  -2173831.1664   4381458.9161   4093730.6304   6   8   0.1053   0.0949   0.0899   0.0341   0.0850  -0.0414   0.00    0.0
2019/01/10 09:52:48.000  -2173831.2131   4381458.9363   4093730.6561   6   8   0.1047   0.0945   0.0894   0.0345   0.0845  -0.0408   0.00    0.0
2019/01/10 09:52:48.200  -2173831.1916   4381458.9444   4093730.6375   6   8   0.1040   0.0940   0.0889   0.0348   0.0841  -0.0401   0.00    0.0
2019/01/10 09:52:48.400  -2173831.2400   4381458.9701   4093730.6687   6   8   0.1034   0.0936   0.0884   0.0352   0.0837  -0.0395   0.00    0.0
2019/01/10 09:52:48.600  -2173831.2893   4381458.9623   4093730.6565   6   8   0.1028   0.0932   0.0879   0.0355   0.0833  -0.0388   0.00    0.0
2019/01/10 09:52:48.800  -2173831.3042   4381458.9516   4093730.6513   6   8   0.1021   0.0928   0.0874   0.0358   0.0829  -0.0382   0.00    0.0
2019/01/10 09:52:49.000  -2173831.2934   4381458.9629   4093730.6657   6   8   0.1015   0.0924   0.0869   0.0361   0.0825  -0.0376   0.00    0.0
2019/01/10 09:52:49.200  -2173831.2221   4381458.9612   4093730.6585   6   8   0.1009   0.0920   0.0865   0.0364   0.0821  -0.0370   0.00    0.0
2019/01/10 09:52:49.400  -2173831.2143   4381458.9866   4093730.6656   6   8   0.1003   0.0916   0.0860   0.0367   0.0817  -0.0363   0.00    0.0
2019/01/10 09:52:49.600  -2173831.2417   4381458.9889   4093730.6839   6   8   0.0997   0.0912   0.0856   0.0370   0.0813  -0.0357   0.00    0.0
2019/01/10 09:52:49.800  -2173831.2337   4381458.9502   4093730.6591   6   8   0.0991   0.0908   0.0851   0.0372   0.0809  -0.0351   0.00    0.0
2019/01/10 09:52:50.000  -2173831.2691   4381458.9470   4093730.6652   6   7   0.0985   0.0905   0.0849   0.0376   0.0807  -0.0343   0.00    0.0
2019/01/10 09:52:50.200  -2173831.2828   4381458.9576   4093730.6866   6   8   0.0979   0.0902   0.0844   0.0378   0.0803  -0.0337   0.00    0.0
2019/01/10 09:52:50.400  -2173831.2556   4381458.9481   4093730.6772   6   8   0.0973   0.0898   0.0840   0.0381   0.0800  -0.0331   0.00    0.0
2019/01/10 09:52:50.600  -2173831.3049   4381458.9592   4093730.6981   6   8   0.0968   0.0894   0.0836   0.0383   0.0796  -0.0324   0.00    0.0
2019/01/10 09:52:50.800  -2173831.3068   4381459.0000   4093730.7363   6   8   0.0962   0.0891   0.0831   0.0385   0.0793  -0.0318   0.00    0.0
2019/01/10 09:52:51.000  -2173831.3123   4381459.0435   4093730.7772   6   8   0.0956   0.0887   0.0827   0.0387   0.0789  -0.0312   0.00    0.0
2019/01/10 09:52:51.200  -2173831.3374   4381459.0753   4093730.8241   6   8   0.0951   0.0883   0.0823   0.0388   0.0786  -0.0306   0.00    0.0
2019/01/10 09:52:51.400  -2173831.3428   4381459.0938   4093730.8328   6   8   0.0945   0.0880   0.0819   0.0390   0.0782  -0.0300   0.00    0.0
2019/01/10 09:52:51.600  -2173831.3278   4381459.1031   4093730.8383   6   7   0.0940   0.0876   0.0815   0.0392   0.0779  -0.0294   0.00    0.0
2019/01/10 09:52:51.800  -2173831.3441   4381459.0976   4093730.8287   6   8   0.0934   0.0873   0.0811   0.0393   0.0775  -0.0288   0.00    0.0
2019/01/10 09:52:52.000  -2173831.4035   4381459.1335   4093730.8763   6   8   0.0929   0.0870   0.0808   0.0395   0.0772  -0.0282   0.00    0.0
2019/01/10 09:52:52.200  -2173831.4137   4381459.1488   4093730.8800   6   8   0.0923   0.0866   0.0804   0.0396   0.0769  -0.0276   0.00    0.0
2019/01/10 09:52:52.400  -2173831.4625   4381459.1827   4093730.9215   6   8   0.0918   0.0863   0.0800   0.0398   0.0766  -0.0270   0.00    0.0
2019/01/10 09:52:52.600  -2173831.4676   4381459.1748   4093730.9085   6   8   0.0913   0.0860   0.0796   0.0399   0.0763  -0.0264   0.00    0.0
2019/01/10 09:52:52.800  -2173831.5014   4381459.1893   4093730.9295   6   8   0.0907   0.0857   0.0792   0.0400   0.0760  -0.0258   0.00    0.0
2019/01/10 09:52:53.000  -2173831.5404   4381459.2202   4093730.9636   6   8   0.0902   0.0854   0.0789   0.0401   0.0756  -0.0252   0.00    0.0
2019/01/10 09:52:53.200  -2173831.5340   4381459.2209   4093730.9698   6   8   0.0897   0.0850   0.0785   0.0403   0.0753  -0.0246   0.00    0.0
2019/01/10 09:52:53.400  -2173831.5085   4381459.2060   4093730.9545   6   8   0.0892   0.0847   0.0782   0.0404   0.0750  -0.0240   0.00    0.0
2019/01/10 09:52:53.600  -2173831.4792   4381459.2022   4093730.9344   6   8   0.0887   0.0844   0.0778   0.0405   0.0748  -0.0234   0.00    0.0
2019/01/10 09:52:53.800  -2173831.4840   4381459.1719   4093730.9014   6   8   0.0882   0.0841   0.0775   0.0406   0.0745  -0.0228   0.00    0.0
2019/01/10 09:52:54.000  -2173831.4944   4381459.2063   4093730.9253   6   8   0.0877   0.0838   0.0771   0.0406   0.0742  -0.0222   0.00    0.0
2019/01/10 09:52:54.200  -2173831.5150   4381459.1910   4093730.9182   6   8   0.0872   0.0835   0.0768   0.0407   0.0739  -0.0216   0.00    0.0
2019/01/10 09:52:54.400  -2173831.5136   4381459.1826   4093730.9191   6   8   0.0867   0.0833   0.0764   0.0408   0.0736  -0.0210   0.00    0.0
2019/01/10 09:52:54.600  -2173831.5322   4381459.1585   4093730.9041   6   8   0.0862   0.0830   0.0761   0.0409   0.0734  -0.0204   0.00    0.0
2019/01/10 09:52:54.800  -2173831.5211   4381459.1206   4093730.8659   6   8   0.0857   0.0827   0.0758   0.0410   0.0731  -0.0197   0.00    0.0
2019/01/10 09:52:55.000  -2173831.5558   4381459.1454   4093730.8758   6   8   0.0852   0.0824   0.0755   0.0410   0.0728  -0.0191   0.00    0.0
2019/01/10 09:52:55.200  -2173831.5284   4381459.1458   4093730.8695   6   8   0.0848   0.0821   0.0752   0.0411   0.0726  -0.0185   0.00    0.0
2019/01/10 09:52:55.400  -2173831.5226   4381459.1477   4093730.8556   6   8   0.0843   0.0819   0.0748   0.0411   0.0723  -0.0178   0.00    0.0
2019/01/10 09:52:55.600  -2173831.5797   4381459.1721   4093730.8775   6   8   0.0838   0.0816   0.0745   0.0412   0.0721  -0.0172   0.00    0.0
2019/01/10 09:52:55.800  -2173831.5846   4381459.1952   4093730.8939   6   8   0.0834   0.0813   0.0742   0.0413   0.0718  -0.0165   0.00    0.0
2019/01/10 09:52:56.000  -2173831.5863   4381459.1743   4093730.8744   6   8   0.0829   0.0811   0.0739   0.0413   0.0716  -0.0158   0.00    0.0
2019/01/10 09:52:56.200  -2173831.5717   4381459.2069   4093730.9015   6   8   0.0824   0.0808   0.0736   0.0413   0.0713  -0.0151   0.00    0.0
2019/01/10 09:52:56.400  -2173831.5401   4381459.2060   4093730.9057   6   8   0.0820   0.0806   0.0733   0.0414   0.0711  -0.0144   0.00    0.0
2019/01/10 09:52:56.600  -2173831.5074   4381459.1880   4093730.8905   6   8   0.0815   0.0803   0.0731   0.0414   0.0709  -0.0137   0.00    0.0
2019/01/10 09:52:56.800  -2173831.4781   4381459.1879   4093730.8730   6   8   0.0811   0.0801   0.0728   0.0414   0.0706  -0.0129   0.00    0.0
2019/01/10 09:52:57.000  -2173831.4745   4381459.1827   4093730.8402   6   8   0.0806   0.0798   0.0725   0.0415   0.0704  -0.0122   0.00    0.0
2019/01/10 09:52:57.200  -2173831.5170   4381459.1611   4093730.8185   6   8   0.0802   0.0796   0.0722   0.0415   0.0702  -0.0113   0.00    0.0
2019/01/10 09:52:57.400  -2173831.5601   4381459.1501   4093730.7957   6   8   0.0798   0.0793   0.0720   0.0415   0.0700  -0.0105   0.00    0.0
2019/01/10 09:52:57.600  -2173831.5760   4381459.1507   4093730.7999   6   8   0.0793   0.0791   0.0717   0.0415   0.0697  -0.0096   0.00    0.0
2019/01/10 09:52:57.800  -2173831.5990   4381459.0989   4093730.7692   6   8   0.0789   0.0789   0.0714   0.0416   0.0695  -0.0086   0.00    0.0
2019/01/10 09:52:58.000  -2173831.6147   4381459.1252   4093730.8032   6   8   0.0785   0.0786   0.0712   0.0416   0.0693  -0.0075   0.00    0.0
2019/01/10 09:52:58.200  -2173831.5762   4381459.1641   4093730.8141   6   8   0.0781   0.0784   0.0709   0.0416   0.0691  -0.0063   0.00    0.0
2019/01/10 09:52:58.400  -2173831.6314   4381459.1610   4093730.8247   6   8   0.0776   0.0782   0.0706   0.0416   0.0689  -0.0048   0.00    0.0
2019/01/10 09:52:58.600  -2173831.6394   4381459.1877   4093730.8421   6   8   0.0772   0.0780   0.0704   0.0416   0.0687  -0.0025   0.00    0.0
2019/01/10 09:52:58.800  -2173831.5950   4381459.1914   4093730.8325   6   8   0.0768   0.0778   0.0701   0.0416   0.0685   0.0031   0.00    0.0
2019/01/10 09:52:59.000  -2173831.6108   4381459.1995   4093730.8406   6   8   0.0764   0.0775   0.0699   0.0416   0.0683   0.0050   0.00    0.0
2019/01/10 09:52:59.200  -2173831.5923   4381459.1796   4093730.8247   6   8   0.0760   0.0773   0.0697   0.0416   0.0681   0.0064   0.00    0.0
2019/01/10 09:52:59.400  -2173831.6291   4381459.1695   4093730.8324   6   8   0.0756   0.0771   0.0694   0.0416   0.0679   0.0074   0.00    0.0
2019/01/10 09:52:59.600  -2173831.6564   4381459.1878   4093730.8438   6   8   0.0752   0.0769   0.0692   0.0416   0.0677   0.0084   0.00    0.0
2019/01/10 09:52:59.800  -2173831.6401   4381459.2098   4093730.8548   6   8   0.0748   0.0767   0.0690   0.0416   0.0675   0.0092   0.00    0.0
2019/01/10 09:53:00.000  -2173831.6407   4381459.1926   4093730.8465   6   8   0.0744   0.0765   0.0687   0.0416   0.0673   0.0099   0.00    0.0
2019/01/10 09:53:00.200  -2173831.6501   4381459.1903   4093730.8573   6   8   0.0740   0.0763   0.0685   0.0416   0.0672   0.0106   0.00    0.0
2019/01/10 09:53:00.400  -2173831.6654   4381459.1963   4093730.8706   6   8   0.0736   0.0761   0.0683   0.0415   0.0670   0.0112   0.00    0.0
2019/01/10 09:53:00.600  -2173831.6916   4381459.1950   4093730.8716   6   8   0.0732   0.0759   0.0681   0.0415   0.0668   0.0117   0.00    0.0
2019/01/10 09:53:00.800  -2173831.7176   4381459.1629   4093730.8415   6   8   0.0729   0.0757   0.0678   0.0415   0.0666   0.0122   0.00    0.0
2019/01/10 09:53:01.000  -2173831.7371   4381459.1452   4093730.8332   6   8   0.0725   0.0755   0.0676   0.0415   0.0665   0.0127   0.00    0.0
2019/01/10 09:53:01.200  -2173831.7530   4381459.1416   4093730.8315   6   8   0.0721   0.0753   0.0674   0.0415   0.0663   0.0132   0.00    0.0
2019/01/10 09:53:01.400  -2173831.7540   4381459.1477   4093730.8308   6   8   0.0717   0.0751   0.0672   0.0414   0.0661   0.0136   0.00    0.0
2019/01/10 09:53:01.600  -2173831.7518   4381459.1524   4093730.8439   6   8   0.0714   0.0749   0.0670   0.0414   0.0660   0.0140   0.00    0.0
2019/01/10 09:53:01.800  -2173831.7265   4381459.1448   4093730.8310   6   8   0.0710   0.0748   0.0668   0.0414   0.0658   0.0144   0.00    0.0
2019/01/10 09:53:02.000  -2173831.7333   4381459.1446   4093730.8338   6   8   0.0706   0.0746   0.0666   0.0414   0.0656   0.0148   0.00    0.0
2019/01/10 09:53:02.200  -2173831.7234   4381459.1394   4093730.8140   6   8   0.0703   0.0744   0.0664   0.0413   0.0655   0.0152   0.00    0.0
2019/01/10 09:53:02.400  -2173831.7202   4381459.1406   4093730.8209   6   8   0.0699   0.0742   0.0662   0.0413   0.0653   0.0155   0.00    0.0
2019/01/10 09:53:02.600  -2173831.7698   4381459.1468   4093730.8227   6   8   0.0696   0.0740   0.0660   0.0413   0.0652   0.0158   0.00    0.0
2019/01/10 09:53:02.800  -2173831.7915   4381459.1466   4093730.8374   6   8   0.0692   0.0739   0.0658   0.0412   0.0650   0.0161   0.00    0.0
2019/01/10 09:53:03.000  -2173831.7926   4381459.1378   4093730.8256   6   8   0.0688   0.0737   0.0657   0.0412   0.0649   0.0164   0.00    0.0
2019/01/10 09:53:03.200  -2173831.8149   4381459.1555   4093730.8409   6   8   0.0685   0.0735   0.0655   0.0411   0.0647   0.0167   0.00    0.0
2019/01/10 09:53:03.400  -2173831.8570   4381459.1759   4093730.8663   6   7   0.0682   0.0734   0.0653   0.0411   0.0646   0.0170   0.00    0.0
2019/01/10 09:53:03.600  -2173831.8386   4381459.1761   4093730.8707   6   8   0.0678   0.0732   0.0651   0.0411   0.0644   0.0172   0.00    0.0
2019/01/10 09:53:03.800  -2173831.8581   4381459.1727   4093730.8658   6   8   0.0675   0.0730   0.0649   0.0410   0.0643   0.0175   0.00    0.0
2019/01/10 09:53:04.000  -2173831.8597   4381459.1931   4093730.8915   6   8   0.0671   0.0729   0.0648   0.0410   0.0642   0.0177   0.00    0.0
2019/01/10 09:53:04.200  -2173831.8461   4381459.2140   4093730.8955   6   8   0.0668   0.0727   0.0646   0.0409   0.0640   0.0179   0.00    0.0
2019/01/10 09:53:04.400  -2173831.8807   4381459.2026   4093730.8979   6   8   0.0665   0.0726   0.0644   0.0409   0.0639   0.0181   0.00    0.0
2019/01/10 09:53:04.600  -2173831.8940   4381459.2026   4093730.9000   6   8   0.0661   0.0724   0.0643   0.0408   0.0638   0.0184   0.00    0.0
2019/01/10 09:53:04.800  -2173831.9215   4381459.1755   4093730.8835   6   8   0.0658   0.0722   0.0641   0.0408   0.0636   0.0186   0.00    0.0
2019/01/10 09:53:05.000  -2173831.9024   4381459.1874   4093730.9048   6   8   0.0655   0.0721   0.0639   0.0407   0.0635   0.0188   0.00    0.0
2019/01/10 09:53:05.200  -2173831.8682   4381459.1896   4093730.9035   6   8   0.0651   0.0719   0.0638   0.0407   0.0634   0.0189   0.00    0.0
2019/01/10 09:53:05.400  -2173831.8906   4381459.2127   4093730.9324   6   8   0.0648   0.0718   0.0636   0.0406   0.0633   0.0191   0.00    0.0
2019/01/10 09:53:05.600  -2173831.8966   4381459.1942   4093730.9135   6   8   0.0645   0.0716   0.0635   0.0406   0.0631   0.0193   0.00    0.0
2019/01/10 09:53:05.800  -2173831.8785   4381459.2041   4093730.9106   6   8   0.0642   0.0715   0.0633   0.0405   0.0630   0.0195   0.00    0.0
2019/01/10 09:53:06.000  -2173831.8719   4381459.1912   4093730.8998   6   8   0.0639   0.0714   0.0632   0.0404   0.0629   0.0196   0.00    0.0
2019/01/10 09:53:06.200  -2173831.8725   4381459.1869   4093730.8868   6   8   0.0635   0.0712   0.0630   0.0404   0.0628   0.0198   0.00    0.0
2019/01/10 09:53:06.400  -2173831.8384   4381459.1732   4093730.8742   6   8   0.0632   0.0711   0.0629   0.0403   0.0627   0.0199   0.00    0.0
2019/01/10 09:53:06.600  -2173831.8389   4381459.1708   4093730.8586   6   8   0.0629   0.0709   0.0627   0.0403   0.0625   0.0201   0.00    0.0
2019/01/10 09:53:06.800  -2173831.8642   4381459.1650   4093730.8565   6   8   0.0626   0.0708   0.0626   0.0402   0.0624   0.0202   0.00    0.0
2019/01/10 09:53:07.000  -2173831.8836   4381459.1703   4093730.8718   6   8   0.0623   0.0707   0.0624   0.0401   0.0623   0.0204   0.00    0.0
2019/01/10 09:53:07.200  -2173831.8925   4381459.1697   4093730.8675   6   8   0.0620   0.0705   0.0623   0.0401   0.0622   0.0205   0.00    0.0
2019/01/10 09:53:07.400  -2173831.8741   4381459.1620   4093730.8561   6   8   0.0617   0.0704   0.0622   0.0400   0.0621   0.0206   0.00    0.0
2019/01/10 09:53:07.600  -2173831.8827   4381459.1384   4093730.8320   6   8   0.0614   0.0703   0.0620   0.0399   0.0620   0.0207   0.00    0.0
2019/01/10 09:53:07.800  -2173831.9142   4381459.1309   4093730.8355   6   8   0.0611   0.0701   0.0619   0.0399   0.0619   0.0208   0.00    0.0
2019/01/10 09:53:08.000  -2173831.9084   4381459.1324   4093730.8271   6   8   0.0608   0.0700   0.0618   0.0398   0.0618   0.0209   0.00    0.0
2019/01/10 09:53:08.200  -2173831.8982   4381459.1363   4093730.8264   6   8   0.0605   0.0699   0.0616   0.0397   0.0617   0.0211   0.00    0.0
2019/01/10 09:53:08.400  -2173831.8855   4381459.1501   4093730.8240   6   8   0.0602   0.0697   0.0615   0.0397   0.0616   0.0212   0.00    0.0
2019/01/10 09:53:08.600  -2173831.9021   4381459.1437   4093730.8247   6   8   0.0599   0.0696   0.0614   0.0396   0.0615   0.0213   0.00    0.0
2019/01/10 09:53:08.800  -2173831.8798   4381459.1456   4093730.8210   6   8   0.0596   0.0695   0.0612   0.0395   0.0614   0.0213   0.00    0.0
2019/01/10 09:53:09.000  -2173831.8949   4381459.1467   4093730.8289   6   8   0.0593   0.0694   0.0611   0.0395   0.0613   0.0214   0.00    0.0
2019/01/10 09:53:09.200  -2173831.8805   4381459.1544   4093730.8508   6   8   0.0590   0.0692   0.0610   0.0394   0.0612   0.0215   0.00    0.0
2019/01/10 09:53:09.400  -2173831.9043   4381459.1523   4093730.8553   6   8   0.0588   0.0691   0.0609   0.0393   0.0611   0.0216   0.00    0.0
2019/01/10 09:53:09.600  -2173831.9034   4381459.1502   4093730.8598   6   8   0.0585   0.0690   0.0608   0.0392   0.0610   0.0217   0.00    0.0
2019/01/10 09:53:09.800  -2173831.8933   4381459.1500   4093730.8591   6   8   0.0582   0.0689   0.0607   0.0392   0.0609   0.0218   0.00    0.0
2019/01/10 09:53:10.000  -2173831.8946   4381459.1481   4093730.8562   6   7   0.0579   0.0688   0.0606   0.0391   0.0609   0.0219   0.00    0.0
2019/01/10 09:53:10.200  -2173831.9202   4381459.1491   4093730.8627   6   8   0.0576   0.0687   0.0605   0.0390   0.0608   0.0219   0.00    0.0
2019/01/10 09:53:10.400  -2173831.9392   4381459.1612   4093730.8798   6   8   0.0574   0.0686   0.0604   0.0389   0.0607   0.0220   0.00    0.0
2019/01/10 09:53:10.600  -2173831.9352   4381459.1429   4093730.8551   6   8   0.0571   0.0684   0.0603   0.0389   0.0606   0.0221   0.00    0.0
2019/01/10 09:53:10.800  -2173831.9404   4381459.1305   4093730.8455   6   8   0.0568   0.0683   0.0602   0.0388   0.0605   0.0221   0.00    0.0
2019/01/10 09:53:11.000  -2173831.9295   4381459.1241   4093730.8389   6   8   0.0565   0.0682   0.0601   0.0387   0.0604   0.0222   0.00    0.0
2019/01/10 09:53:11.200  -2173831.9133   4381459.1323   4093730.8400   6   8   0.0563   0.0681   0.0600   0.0386   0.0603   0.0222   0.00    0.0
2019/01/10 09:53:11.400  -2173831.9062   4381459.1271   4093730.8288   6   8   0.0560   0.0680   0.0599   0.0385   0.0602   0.0223   0.00    0.0
2019/01/10 09:53:11.600  -2173831.9122   4381459.1111   4093730.8270   6   8   0.0557   0.0679   0.0598   0.0385   0.0602   0.0223   0.00    0.0
2019/01/10 09:53:11.800  -2173831.8914   4381459.1345   4093730.8333   6   8   0.0555   0.0678   0.0597   0.0384   0.0601   0.0224   0.00    0.0
2019/01/10 09:53:12.000  -2173831.8851   4381459.1282   4093730.8378   6   8   0.0552   0.0677   0.0596   0.0383   0.0600   0.0224   0.00    0.0
2019/01/10 09:53:12.200  -2173831.8910   4381459.1264   4093730.8364   6   8   0.0550   0.0676   0.0595   0.0382   0.0599   0.0225   0.00    0.0
2019/01/10 09:53:12.400  -2173831.9122   4381459.1199   4093730.8254   6   8   0.0547   0.0675   0.0594   0.0381   0.0598   0.0225   0.00    0.0
2019/01/10 09:53:12.600  -2173831.8939   4381459.1184   4093730.8088   6   8   0.0544   0.0673   0.0593   0.0380   0.0598   0.0225   0.00    0.0
2019/01/10 09:53:12.800  -2173831.9274   4381459.1149   4093730.8090   6   8   0.0542   0.0672   0.0592   0.0379   0.0597   0.0226   0.00    0.0
2019/01/10 09:53:13.000  -2173831.9026   4381459.1301   4093730.8205   6   8   0.0539   0.0671   0.0591   0.0379   0.0596   0.0226   0.00    0.0
2019/01/10 09:53:13.200  -2173831.9078   4381459.1430   4093730.8286   6   8   0.0537   0.0670   0.0590   0.0378   0.0595   0.0226   0.00    0.0
2019/01/10 09:53:13.400  -2173831.9030   4381459.1522   4093730.8291   6   8   0.0534   0.0669   0.0589   0.0377   0.0595   0.0226   0.00    0.0
2019/01/10 09:53:13.600  -2173831.9378   4381459.1332   4093730.8204   6   8   0.0532   0.0668   0.0588   0.0376   0.0594   0.0227   0.00    0.0
2019/01/10 09:53:13.800  -2173831.9283   4381459.1359   4093730.8233   6   8   0.0529   0.0667   0.0587   0.0375   0.0593   0.0227   0.00    0.0
2019/01/10 09:53:14.000  -2173831.9003   4381459.1419   4093730.8265   6   8   0.0527   0.0666   0.0586   0.0374   0.0592   0.0227   0.00    0.0
2019/01/10 09:53:14.200  -2173831.9184   4381459.1371   4093730.8282   6   8   0.0524   0.0665   0.0585   0.0373   0.0592   0.0227   0.00    0.0
2019/01/10 09:53:14.400  -2173831.9134   4381459.1286   4093730.8220   6   8   0.0522   0.0664   0.0584   0.0372   0.0591   0.0227   0.00    0.0
2019/01/10 09:53:14.600  -2173831.9060   4381459.1202   4093730.8172   6   8   0.0520   0.0663   0.0584   0.0371   0.0590   0.0227   0.00    0.0
2019/01/10 09:53:14.800  -2173831.9370   4381459.1076   4093730.8076   6   8   0.0517   0.0662   0.0583   0.0370   0.0590   0.0227   0.00    0.0
2019/01/10 09:53:15.000  -2173831.9218   4381459.0918   4093730.7990   6   8   0.0515   0.0662   0.0582   0.0369   0.0589   0.0227   0.00    0.0
2019/01/10 09:53:15.200  -2173831.9398   4381459.0763   4093730.7901   6   8   0.0512   0.0661   0.0581   0.0368   0.0588   0.0227   0.00    0.0
2019/01/10 09:53:15.400  -2173831.9102   4381459.0753   4093730.7815   6   8   0.0510   0.0660   0.0580   0.0368   0.0588   0.0228   0.00    0.0
