% program   : RTKLIB ver.2.4.3
% inp file  : D:\mycode\vscode\rtklib\rtklib\leo_data\leo1.clk
% inp file  : D:\mycode\vscode\rtklib\rtklib\leo_data\leotest1.obs
% inp file  : D:\mycode\vscode\rtklib\rtklib\leo_data\leo1.sp3
% obs start : 2019/01/10 09:51:54.0 GPST (week2035 381114.0s)
% obs end   : 2019/01/10 09:54:44.0 GPST (week2035 381284.0s)
% pos mode  : PPP Static
% solution  : Forward
% elev mask : 15.0 deg
% dynamics  : off
% tidecorr  : off
% tropo opt : Estimate ZTD
% ephemeris : Precise
% navi sys  :
% antenna1  :                       ( 0.0000  0.0000  0.0000)
%
% (x/y/z-ecef=WGS84,Q=1:fix,2:float,3:sbas,4:dgps,5:single,6:ppp,ns=# of satellites)
%  GPST                      x-ecef(m)      y-ecef(m)      z-ecef(m)   Q  ns   sdx(m)   sdy(m)   sdz(m)  sdxy(m)  sdyz(m)  sdzx(m) age(s)  ratio
2019/01/10 09:51:54.000  -2173831.5165   4381457.7296   4093730.2441   6   8   2.0233   2.7106   2.2642  -0.7248   2.0999  -0.7796   0.00    0.0
2019/01/10 09:51:54.200  -2173830.8580   4381458.9655   4093730.7992   6   5   1.6217   2.3889   1.9198  -1.0675   1.9024  -0.9826   0.00    0.0
2019/01/10 09:51:54.400  -2173831.3423   4381459.2525   4093730.9105   6   4   1.4768   2.2986   1.8386  -0.9823   1.8494  -0.9379   0.00    0.0
2019/01/10 09:51:54.600  -2173832.1176   4381459.4073   4093731.9475   6   4   1.2807   1.8362   1.5316  -0.3958   1.4529  -0.5026   0.00    0.0
2019/01/10 09:51:54.800  -2173831.3236   4381460.4310   4093731.9986   6   4   1.1342   1.5651   1.3879  -0.3641   1.2652  -0.2777   0.00    0.0
2019/01/10 09:51:55.000  -2173830.9059   4381460.6081   4093731.6777   6   3   1.0813   1.4420   1.3102   0.1313   1.1713   0.2116   0.00    0.0
2019/01/10 09:51:55.200  -2173831.6869   4381459.8608   4093731.0360   6   3   1.0208   1.3634   1.2532   0.2532   1.1045   0.3443   0.00    0.0
2019/01/10 09:51:55.400  -2173831.6082   4381459.9438   4093731.1819   6   3   0.9507   1.3257   1.1599  -0.0495   1.0438  -0.0475   0.00    0.0
2019/01/10 09:51:55.600  -2173831.9347   4381459.8079   4093730.7625   6   5   0.8941   1.2897   1.0629  -0.2135   0.9936  -0.2773   0.00    0.0
2019/01/10 09:51:55.800  -2173831.7971   4381459.8503   4093731.0738   6   4   0.8361   1.2216   1.0188  -0.3588   0.9556  -0.3478   0.00    0.0
2019/01/10 09:51:56.000  -2173831.7284   4381460.4583   4093731.2002   6   3   0.8156   1.1373   0.9673  -0.2830   0.9001  -0.2862   0.00    0.0
2019/01/10 09:51:56.200  -2173831.7500   4381459.8498   4093731.1093   6   2   0.8001   1.0765   0.9412  -0.2074   0.8637  -0.2305   0.00    0.0
2019/01/10 09:51:56.400  -2173831.3951   4381460.0877   4093731.4406   6   4   0.7527   1.0337   0.8781  -0.3375   0.8202  -0.3452   0.00    0.0
2019/01/10 09:51:56.600  -2173831.5640   4381459.5245   4093731.3827   6   2   0.7398   0.9968   0.8455  -0.3008   0.7878  -0.3059   0.00    0.0
2019/01/10 09:51:56.800  -2173832.1717   4381458.8299   4093731.6394   6   6   0.6955   0.9321   0.7952  -0.2884   0.7457  -0.2831   0.00    0.0
2019/01/10 09:51:57.000  -2173832.0641   4381459.3834   4093731.6744   6   2   0.6856   0.8928   0.7805  -0.2569   0.7246  -0.2573   0.00    0.0
2019/01/10 09:51:57.200  -2173831.8243   4381459.7717   4093732.0240   6   2   0.6744   0.8669   0.7652  -0.2899   0.7079  -0.2826   0.00    0.0
2019/01/10 09:51:57.400  -2173832.1437   4381459.3853   4093731.9128   6   4   0.6448   0.8318   0.7300  -0.2962   0.6811  -0.2721   0.00    0.0
2019/01/10 09:51:57.600  -2173831.9103   4381459.6301   4093731.7787   6   3   0.6304   0.8131   0.7126  -0.2837   0.6649  -0.2484   0.00    0.0
2019/01/10 09:51:57.800  -2173831.4027   4381459.9799   4093732.3881   6   5   0.5940   0.7868   0.6949  -0.3019   0.6486  -0.2662   0.00    0.0
2019/01/10 09:51:58.000  -2173831.4684   4381459.8826   4093732.4843   6   4   0.5786   0.7571   0.6825  -0.2820   0.6356  -0.2402   0.00    0.0
2019/01/10 09:51:58.200  -2173831.5090   4381459.7970   4093732.2955   6   3   0.5694   0.7526   0.6666  -0.2917   0.6263  -0.2550   0.00    0.0
2019/01/10 09:51:58.400  -2173831.5730   4381460.2531   4093732.3713   6   4   0.5480   0.7224   0.6573  -0.2783   0.6144  -0.2308   0.00    0.0
2019/01/10 09:51:58.600  -2173831.1718   4381460.6961   4093732.9380   6   3   0.5368   0.7058   0.6416  -0.2919   0.5992  -0.2461   0.00    0.0
2019/01/10 09:51:58.800  -2173830.9947   4381460.7379   4093732.9812   6   5   0.5116   0.6940   0.6216  -0.3091   0.5859  -0.2726   0.00    0.0
2019/01/10 09:51:59.000  -2173831.0035   4381461.1575   4093733.3679   6   3   0.5040   0.6791   0.6053  -0.3175   0.5719  -0.2874   0.00    0.0
2019/01/10 09:51:59.200  -2173831.3842   4381460.9060   4093733.0838   6   4   0.4906   0.6606   0.5829  -0.3163   0.5606  -0.2878   0.00    0.0
2019/01/10 09:51:59.400  -2173831.5472   4381460.5508   4093733.2286   6   6   0.4688   0.6407   0.5630  -0.3161   0.5484  -0.2826   0.00    0.0
2019/01/10 09:51:59.600  -2173831.5983   4381460.2462   4093733.2677   6   5   0.4541   0.6275   0.5523  -0.3090   0.5402  -0.2668   0.00    0.0
2019/01/10 09:51:59.800  -2173831.6061   4381460.1494   4093733.1833   6   5   0.4456   0.6167   0.5416  -0.3015   0.5302  -0.2625   0.00    0.0
2019/01/10 09:52:00.000  -2173831.4693   4381460.6265   4093733.1987   6   4   0.4372   0.5953   0.5321  -0.2891   0.5179  -0.2500   0.00    0.0
2019/01/10 09:52:00.200  -2173831.4589   4381460.5840   4093733.1813   6   4   0.4322   0.5933   0.5254  -0.2900   0.5141  -0.2512   0.00    0.0
2019/01/10 09:52:00.400  -2173831.3798   4381460.4269   4093733.4106   6   4   0.4230   0.5704   0.5088  -0.2835   0.4985  -0.2493   0.00    0.0
2019/01/10 09:52:00.600  -2173831.2613   4381460.2151   4093733.2741   6   4   0.4146   0.5539   0.5003  -0.2727   0.4886  -0.2372   0.00    0.0
2019/01/10 09:52:00.800  -2173831.3041   4381460.2972   4093733.3204   6   3   0.4081   0.5469   0.4960  -0.2666   0.4832  -0.2298   0.00    0.0
2019/01/10 09:52:01.000  -2173831.2683   4381460.2403   4093733.2694   6   2   0.4052   0.5429   0.4928  -0.2607   0.4797  -0.2254   0.00    0.0
2019/01/10 09:52:01.200  -2173831.1721   4381460.2334   4093733.2117   6   2   0.4008   0.5366   0.4890  -0.2571   0.4749  -0.2199   0.00    0.0
2019/01/10 09:52:01.400  -2173831.1202   4381459.7172   4093732.9793   6   3   0.3968   0.5203   0.4813  -0.2506   0.4648  -0.2168   0.00    0.0
2019/01/10 09:52:01.600  -2173831.1040   4381459.7625   4093732.9767   6   4   0.3926   0.5141   0.4775  -0.2499   0.4606  -0.2187   0.00    0.0
2019/01/10 09:52:01.800  -2173831.2687   4381459.5741   4093732.9227   6   6   0.3828   0.4989   0.4675  -0.2422   0.4499  -0.2109   0.00    0.0
2019/01/10 09:52:02.000  -2173831.2734   4381459.5401   4093732.9024   6   3   0.3792   0.4924   0.4640  -0.2383   0.4455  -0.2055   0.00    0.0
2019/01/10 09:52:02.200  -2173831.3336   4381459.3712   4093732.8071   6   3   0.3744   0.4860   0.4581  -0.2380   0.4396  -0.2050   0.00    0.0
2019/01/10 09:52:02.400  -2173831.3508   4381459.0556   4093732.6873   6   4   0.3688   0.4735   0.4539  -0.2330   0.4328  -0.2011   0.00    0.0
2019/01/10 09:52:02.600  -2173831.2939   4381458.9838   4093732.6616   6   3   0.3645   0.4704   0.4527  -0.2287   0.4312  -0.1987   0.00    0.0
2019/01/10 09:52:02.800  -2173831.3061   4381459.1597   4093732.6985   6   4   0.3606   0.4594   0.4488  -0.2231   0.4250  -0.1939   0.00    0.0
2019/01/10 09:52:03.000  -2173831.1761   4381459.2759   4093732.7088   6   5   0.3548   0.4533   0.4421  -0.2226   0.4188  -0.1933   0.00    0.0
2019/01/10 09:52:03.200  -2173831.1168   4381459.3290   4093732.6391   6   4   0.3508   0.4434   0.4361  -0.2180   0.4120  -0.1899   0.00    0.0
2019/01/10 09:52:03.400  -2173831.0760   4381459.2654   4093732.6010   6   5   0.3475   0.4376   0.4312  -0.2174   0.4073  -0.1915   0.00    0.0
2019/01/10 09:52:03.600  -2173831.1121   4381459.3113   4093732.6067   6   4   0.3428   0.4333   0.4272  -0.2183   0.4036  -0.1955   0.00    0.0
2019/01/10 09:52:03.800  -2173831.2152   4381459.3107   4093732.5328   6   4   0.3376   0.4245   0.4232  -0.2161   0.3983  -0.1943   0.00    0.0
2019/01/10 09:52:04.000  -2173831.2175   4381459.2945   4093732.5778   6   4   0.3322   0.4170   0.4200  -0.2123   0.3937  -0.1914   0.00    0.0
2019/01/10 09:52:04.200  -2173831.3267   4381459.2471   4093732.4108   6   4   0.3277   0.4121   0.4147  -0.2137   0.3891  -0.1933   0.00    0.0
2019/01/10 09:52:04.400  -2173831.2935   4381459.2619   4093732.4243   6   4   0.3242   0.4108   0.4118  -0.2140   0.3870  -0.1942   0.00    0.0
2019/01/10 09:52:04.600  -2173831.3666   4381459.4204   4093732.4946   6   5   0.3216   0.4062   0.4070  -0.2134   0.3827  -0.1946   0.00    0.0
2019/01/10 09:52:04.800  -2173831.3397   4381459.4941   4093732.5021   6   4   0.3168   0.3984   0.4027  -0.2116   0.3775  -0.1942   0.00    0.0
2019/01/10 09:52:05.000  -2173831.2965   4381459.5147   4093732.5152   6   4   0.3151   0.3969   0.3996  -0.2125   0.3754  -0.1952   0.00    0.0
2019/01/10 09:52:05.200  -2173831.3778   4381459.5734   4093732.5205   6   5   0.3096   0.3892   0.3946  -0.2102   0.3700  -0.1941   0.00    0.0
2019/01/10 09:52:05.400  -2173831.3596   4381459.5036   4093732.4561   6   2   0.3091   0.3865   0.3928  -0.2102   0.3677  -0.1941   0.00    0.0
2019/01/10 09:52:05.600  -2173831.4031   4381459.5223   4093732.4689   6   4   0.3061   0.3797   0.3888  -0.2065   0.3630  -0.1915   0.00    0.0
2019/01/10 09:52:05.800  -2173831.3970   4381459.5751   4093732.4743   6   2   0.3043   0.3781   0.3872  -0.2042   0.3614  -0.1890   0.00    0.0
2019/01/10 09:52:06.000  -2173831.3072   4381459.4501   4093732.4273   6   5   0.2993   0.3745   0.3832  -0.2026   0.3579  -0.1895   0.00    0.0
2019/01/10 09:52:06.200  -2173831.3190   4381459.1295   4093732.1595   6   5   0.2949   0.3672   0.3778  -0.2011   0.3522  -0.1893   0.00    0.0
2019/01/10 09:52:06.400  -2173831.3797   4381459.0301   4093732.1083   6   4   0.2930   0.3613   0.3735  -0.1982   0.3477  -0.1871   0.00    0.0
2019/01/10 09:52:06.600  -2173831.3497   4381458.9869   4093732.0738   6   4   0.2910   0.3586   0.3714  -0.1969   0.3455  -0.1868   0.00    0.0
2019/01/10 09:52:06.800  -2173831.3309   4381458.9620   4093732.0432   6   3   0.2893   0.3532   0.3680  -0.1943   0.3415  -0.1850   0.00    0.0
2019/01/10 09:52:07.000  -2173831.4232   4381458.9140   4093732.0939   6   5   0.2866   0.3479   0.3633  -0.1911   0.3371  -0.1816   0.00    0.0
2019/01/10 09:52:07.200  -2173831.3152   4381458.9428   4093732.1586   6   3   0.2824   0.3431   0.3605  -0.1903   0.3336  -0.1819   0.00    0.0
2019/01/10 09:52:07.400  -2173831.3438   4381458.9325   4093732.2114   6   4   0.2794   0.3391   0.3577  -0.1867   0.3306  -0.1778   0.00    0.0
2019/01/10 09:52:07.600  -2173831.2840   4381458.8153   4093732.0951   6   4   0.2777   0.3363   0.3544  -0.1847   0.3277  -0.1761   0.00    0.0
2019/01/10 09:52:07.800  -2173831.3470   4381459.0271   4093732.1961   6   5   0.2753   0.3318   0.3507  -0.1822   0.3241  -0.1734   0.00    0.0
2019/01/10 09:52:08.000  -2173831.3550   4381459.1740   4093732.2881   6   3   0.2710   0.3276   0.3478  -0.1820   0.3208  -0.1745   0.00    0.0
2019/01/10 09:52:08.200  -2173831.3855   4381459.1630   4093732.2660   6   5   0.2671   0.3251   0.3439  -0.1815   0.3178  -0.1751   0.00    0.0
2019/01/10 09:52:08.400  -2173831.3604   4381459.1833   4093732.2343   6   3   0.2657   0.3238   0.3425  -0.1805   0.3167  -0.1730   0.00    0.0
2019/01/10 09:52:08.600  -2173831.3642   4381459.1777   4093732.2139   6   4   0.2643   0.3234   0.3415  -0.1801   0.3161  -0.1721   0.00    0.0
2019/01/10 09:52:08.800  -2173831.3527   4381459.1778   4093732.2070   6   4   0.2633   0.3227   0.3400  -0.1804   0.3151  -0.1725   0.00    0.0
2019/01/10 09:52:09.000  -2173831.3430   4381459.1783   4093732.2113   6   2   0.2600   0.3226   0.3398  -0.1797   0.3152  -0.1736   0.00    0.0
2019/01/10 09:52:09.200  -2173831.3063   4381459.1049   4093732.1289   6   4   0.2582   0.3199   0.3377  -0.1774   0.3129  -0.1716   0.00    0.0
2019/01/10 09:52:09.400  -2173831.3047   4381459.0020   4093732.0757   6   3   0.2565   0.3156   0.3356  -0.1746   0.3099  -0.1690   0.00    0.0
2019/01/10 09:52:09.600  -2173831.2850   4381458.9091   4093731.9924   6   6   0.2536   0.3111   0.3317  -0.1711   0.3060  -0.1648   0.00    0.0
2019/01/10 09:52:09.800  -2173831.2766   4381458.9218   4093732.0069   6   2   0.2515   0.3098   0.3290  -0.1734   0.3041  -0.1682   0.00    0.0
2019/01/10 09:52:10.000  -2173831.2512   4381458.7974   4093731.9018   6   4   0.2502   0.3054   0.3260  -0.1714   0.3006  -0.1666   0.00    0.0
2019/01/10 09:52:10.200  -2173831.2559   4381458.8042   4093731.8822   6   4   0.2482   0.3043   0.3245  -0.1703   0.2997  -0.1644   0.00    0.0
2019/01/10 09:52:10.400  -2173831.3984   4381458.8024   4093731.8448   6   4   0.2436   0.2993   0.3202  -0.1702   0.2951  -0.1657   0.00    0.0
2019/01/10 09:52:10.600  -2173831.3802   4381458.8385   4093731.9046   6   6   0.2393   0.2956   0.3153  -0.1702   0.2910  -0.1676   0.00    0.0
2019/01/10 09:52:10.800  -2173831.4103   4381458.7902   4093731.8661   6   3   0.2370   0.2923   0.3101  -0.1716   0.2869  -0.1685   0.00    0.0
2019/01/10 09:52:11.000  -2173831.3991   4381458.8157   4093731.7903   6   5   0.2349   0.2913   0.3084  -0.1705   0.2859  -0.1665   0.00    0.0
2019/01/10 09:52:11.200  -2173831.4285   4381458.7901   4093731.7841   6   3   0.2335   0.2906   0.3071  -0.1696   0.2852  -0.1647   0.00    0.0
2019/01/10 09:52:11.400  -2173831.4457   4381458.7703   4093731.7822   6   3   0.2321   0.2899   0.3059  -0.1688   0.2845  -0.1631   0.00    0.0
2019/01/10 09:52:11.600  -2173831.5067   4381458.6674   4093731.6799   6   3   0.2300   0.2865   0.3006  -0.1703   0.2802  -0.1643   0.00    0.0
2019/01/10 09:52:11.800  -2173831.4678   4381458.8241   4093731.9001   6   5   0.2290   0.2841   0.2957  -0.1710   0.2767  -0.1654   0.00    0.0
2019/01/10 09:52:12.000  -2173831.4775   4381458.7739   4093731.8506   6   3   0.2281   0.2830   0.2945  -0.1710   0.2756  -0.1654   0.00    0.0
2019/01/10 09:52:12.200  -2173831.4888   4381458.7569   4093731.8806   6   4   0.2269   0.2824   0.2933  -0.1704   0.2749  -0.1640   0.00    0.0
2019/01/10 09:52:12.400  -2173831.5142   4381458.7408   4093731.9149   6   3   0.2256   0.2818   0.2923  -0.1697   0.2744  -0.1626   0.00    0.0
2019/01/10 09:52:12.600  -2173831.5456   4381458.6781   4093731.8573   6   4   0.2240   0.2783   0.2878  -0.1714   0.2703  -0.1645   0.00    0.0
2019/01/10 09:52:12.800  -2173831.5396   4381458.6418   4093731.7813   6   4   0.2231   0.2779   0.2865  -0.1711   0.2696  -0.1641   0.00    0.0
2019/01/10 09:52:13.000  -2173831.5279   4381458.6449   4093731.7690   6   3   0.2222   0.2772   0.2855  -0.1708   0.2688  -0.1636   0.00    0.0
2019/01/10 09:52:13.200  -2173831.4993   4381458.7350   4093731.8793   6   3   0.2208   0.2740   0.2815  -0.1720   0.2650  -0.1650   0.00    0.0
2019/01/10 09:52:13.400  -2173831.4962   4381458.6902   4093731.8525   6   4   0.2202   0.2732   0.2804  -0.1718   0.2642  -0.1646   0.00    0.0
2019/01/10 09:52:13.600  -2173831.4631   4381458.6738   4093731.8377   6   4   0.2188   0.2711   0.2761  -0.1720   0.2611  -0.1650   0.00    0.0
2019/01/10 09:52:13.800  -2173831.3766   4381458.8523   4093732.0162   6   5   0.2170   0.2680   0.2713  -0.1726   0.2573  -0.1654   0.00    0.0
2019/01/10 09:52:14.000  -2173831.3774   4381458.7439   4093731.8453   6   5   0.2153   0.2650   0.2668  -0.1730   0.2538  -0.1656   0.00    0.0
2019/01/10 09:52:14.200  -2173831.3813   4381458.7364   4093731.8498   6   4   0.2143   0.2644   0.2660  -0.1726   0.2531  -0.1651   0.00    0.0
2019/01/10 09:52:14.400  -2173831.3964   4381458.7932   4093731.8916   6   3   0.2136   0.2635   0.2646  -0.1729   0.2520  -0.1655   0.00    0.0
2019/01/10 09:52:14.600  -2173831.3784   4381458.7394   4093731.8102   6   3   0.2131   0.2629   0.2634  -0.1725   0.2512  -0.1648   0.00    0.0
2019/01/10 09:52:14.800  -2173831.3681   4381458.7779   4093731.8046   6   3   0.2123   0.2623   0.2627  -0.1721   0.2508  -0.1638   0.00    0.0
2019/01/10 09:52:15.000  -2173831.3672   4381458.7774   4093731.7834   6   4   0.2112   0.2609   0.2616  -0.1712   0.2496  -0.1629   0.00    0.0
2019/01/10 09:52:15.200  -2173831.4048   4381458.8171   4093731.8145   6   3   0.2106   0.2603   0.2611  -0.1707   0.2490  -0.1625   0.00    0.0
2019/01/10 09:52:15.400  -2173831.3963   4381458.7776   4093731.7864   6   4   0.2096   0.2597   0.2603  -0.1701   0.2484  -0.1619   0.00    0.0
2019/01/10 09:52:15.600  -2173831.3806   4381458.8085   4093731.7849   6   5   0.2082   0.2590   0.2596  -0.1695   0.2480  -0.1608   0.00    0.0
2019/01/10 09:52:15.800  -2173831.3676   4381458.7542   4093731.7158   6   4   0.2076   0.2584   0.2588  -0.1690   0.2473  -0.1604   0.00    0.0
2019/01/10 09:52:16.000  -2173831.3369   4381458.6856   4093731.6482   6   4   0.2067   0.2577   0.2581  -0.1683   0.2466  -0.1598   0.00    0.0
2019/01/10 09:52:16.200  -2173831.3349   4381458.6560   4093731.6639   6   3   0.2059   0.2570   0.2574  -0.1678   0.2462  -0.1589   0.00    0.0
2019/01/10 09:52:16.400  -2173831.3349   4381458.6634   4093731.6735   6   2   0.2056   0.2569   0.2573  -0.1678   0.2461  -0.1589   0.00    0.0
2019/01/10 09:52:16.600  -2173831.3513   4381458.7213   4093731.7132   6   4   0.2043   0.2550   0.2558  -0.1663   0.2444  -0.1574   0.00    0.0
2019/01/10 09:52:16.800  -2173831.3003   4381458.6959   4093731.7121   6   4   0.2032   0.2543   0.2550  -0.1655   0.2437  -0.1568   0.00    0.0
2019/01/10 09:52:17.000  -2173831.2699   4381458.6423   4093731.6743   6   4   0.2024   0.2536   0.2534  -0.1649   0.2427  -0.1557   0.00    0.0
2019/01/10 09:52:17.200  -2173831.2633   4381458.6490   4093731.6855   6   3   0.2020   0.2534   0.2530  -0.1650   0.2425  -0.1559   0.00    0.0
2019/01/10 09:52:17.400  -2173831.2899   4381458.7033   4093731.7420   6   3   0.2018   0.2529   0.2521  -0.1649   0.2418  -0.1559   0.00    0.0
2019/01/10 09:52:17.600  -2173831.3404   4381458.7567   4093731.8377   6   4   0.2008   0.2523   0.2504  -0.1642   0.2408  -0.1547   0.00    0.0
2019/01/10 09:52:17.800  -2173831.3624   4381458.7224   4093731.7734   6   4   0.2001   0.2519   0.2496  -0.1640   0.2403  -0.1546   0.00    0.0
2019/01/10 09:52:18.000  -2173831.3789   4381458.7049   4093731.7437   6   3   0.1993   0.2516   0.2493  -0.1634   0.2400  -0.1540   0.00    0.0
2019/01/10 09:52:18.200  -2173831.3749   4381458.7092   4093731.7485   6   3   0.1992   0.2515   0.2489  -0.1636   0.2397  -0.1541   0.00    0.0
2019/01/10 09:52:18.400  -2173831.3709   4381458.7181   4093731.7618   6   3   0.1986   0.2511   0.2484  -0.1631   0.2393  -0.1537   0.00    0.0
2019/01/10 09:52:18.600  -2173831.4071   4381458.7547   4093731.7936   6   3   0.1981   0.2508   0.2480  -0.1627   0.2390  -0.1532   0.00    0.0
2019/01/10 09:52:18.800  -2173831.3818   4381458.7176   4093731.7557   6   3   0.1976   0.2505   0.2475  -0.1622   0.2386  -0.1525   0.00    0.0
2019/01/10 09:52:19.000  -2173831.3664   4381458.7024   4093731.7352   6   4   0.1970   0.2501   0.2468  -0.1618   0.2381  -0.1521   0.00    0.0
2019/01/10 09:52:19.200  -2173831.3426   4381458.6493   4093731.6700   6   3   0.1964   0.2489   0.2452  -0.1610   0.2367  -0.1512   0.00    0.0
2019/01/10 09:52:19.400  -2173831.3402   4381458.6520   4093731.6738   6   4   0.1957   0.2488   0.2448  -0.1609   0.2364  -0.1511   0.00    0.0
2019/01/10 09:52:19.600  -2173831.3379   4381458.6336   4093731.6593   6   3   0.1952   0.2485   0.2443  -0.1605   0.2361  -0.1505   0.00    0.0
2019/01/10 09:52:19.800  -2173831.3435   4381458.6163   4093731.6292   6   3   0.1946   0.2484   0.2440  -0.1603   0.2359  -0.1503   0.00    0.0
2019/01/10 09:52:20.000  -2173831.3588   4381458.5644   4093731.5524   6   5   0.1934   0.2478   0.2428  -0.1601   0.2351  -0.1502   0.00    0.0
2019/01/10 09:52:20.200  -2173831.3763   4381458.5603   4093731.5344   6   3   0.1927   0.2475   0.2420  -0.1603   0.2346  -0.1506   0.00    0.0
2019/01/10 09:52:20.400  -2173831.3996   4381458.5800   4093731.5463   6   5   0.1920   0.2472   0.2411  -0.1605   0.2341  -0.1511   0.00    0.0
2019/01/10 09:52:20.600  -2173831.3799   4381458.5252   4093731.4983   6   3   0.1914   0.2466   0.2404  -0.1600   0.2334  -0.1507   0.00    0.0
2019/01/10 09:52:20.800  -2173831.3858   4381458.5452   4093731.5152   6   3   0.1911   0.2463   0.2400  -0.1596   0.2331  -0.1502   0.00    0.0
2019/01/10 09:52:21.000  -2173831.3846   4381458.5703   4093731.5362   6   5   0.1904   0.2460   0.2393  -0.1595   0.2326  -0.1500   0.00    0.0
2019/01/10 09:52:21.200  -2173831.3656   4381458.5234   4093731.4949   6   3   0.1900   0.2456   0.2388  -0.1590   0.2322  -0.1495   0.00    0.0
2019/01/10 09:52:21.400  -2173831.3709   4381458.5180   4093731.5034   6   3   0.1898   0.2455   0.2386  -0.1588   0.2321  -0.1492   0.00    0.0
2019/01/10 09:52:21.600  -2173831.3493   4381458.4931   4093731.4756   6   4   0.1893   0.2450   0.2381  -0.1583   0.2316  -0.1487   0.00    0.0
2019/01/10 09:52:21.800  -2173831.3337   4381458.4556   4093731.4436   6   4   0.1886   0.2445   0.2376  -0.1579   0.2311  -0.1481   0.00    0.0
2019/01/10 09:52:22.000  -2173831.3040   4381458.3751   4093731.3702   6   4   0.1880   0.2435   0.2362  -0.1575   0.2299  -0.1475   0.00    0.0
2019/01/10 09:52:22.200  -2173831.2916   4381458.3547   4093731.3499   6   4   0.1876   0.2431   0.2356  -0.1572   0.2294  -0.1472   0.00    0.0
2019/01/10 09:52:22.400  -2173831.3081   4381458.3387   4093731.3188   6   3   0.1872   0.2427   0.2351  -0.1572   0.2290  -0.1473   0.00    0.0
2019/01/10 09:52:22.600  -2173831.3179   4381458.3229   4093731.2892   6   3   0.1868   0.2423   0.2346  -0.1571   0.2286  -0.1473   0.00    0.0
2019/01/10 09:52:22.800  -2173831.3249   4381458.3297   4093731.2968   6   1   0.1865   0.2422   0.2344  -0.1568   0.2284  -0.1470   0.00    0.0
2019/01/10 09:52:23.000  -2173831.3414   4381458.3454   4093731.3127   6   4   0.1860   0.2418   0.2338  -0.1564   0.2279  -0.1465   0.00    0.0
2019/01/10 09:52:23.200  -2173831.3405   4381458.3639   4093731.3258   6   4   0.1854   0.2411   0.2332  -0.1558   0.2273  -0.1458   0.00    0.0
2019/01/10 09:52:23.400  -2173831.3284   4381458.3382   4093731.3013   6   3   0.1849   0.2404   0.2325  -0.1552   0.2266  -0.1453   0.00    0.0
2019/01/10 09:52:23.600  -2173831.3259   4381458.3445   4093731.3031   6   3   0.1842   0.2400   0.2320  -0.1547   0.2262  -0.1446   0.00    0.0
2019/01/10 09:52:23.800  -2173831.3373   4381458.3403   4093731.3004   6   3   0.1836   0.2398   0.2318  -0.1543   0.2259  -0.1442   0.00    0.0
2019/01/10 09:52:24.000  -2173831.3789   4381458.3967   4093731.3500   6   3   0.1826   0.2385   0.2308  -0.1530   0.2248  -0.1430   0.00    0.0
2019/01/10 09:52:24.200  -2173831.4249   4381458.4660   4093731.4094   6   4   0.1818   0.2377   0.2300  -0.1522   0.2239  -0.1422   0.00    0.0
2019/01/10 09:52:24.400  -2173831.4350   4381458.4824   4093731.4156   6   4   0.1810   0.2367   0.2293  -0.1512   0.2231  -0.1413   0.00    0.0
2019/01/10 09:52:24.600  -2173831.4333   4381458.4711   4093731.4076   6   3   0.1805   0.2363   0.2287  -0.1508   0.2226  -0.1408   0.00    0.0
2019/01/10 09:52:24.800  -2173831.4349   4381458.4515   4093731.3830   6   5   0.1799   0.2360   0.2283  -0.1506   0.2223  -0.1406   0.00    0.0
2019/01/10 09:52:25.000  -2173831.4183   4381458.4263   4093731.3562   6   3   0.1789   0.2350   0.2274  -0.1494   0.2213  -0.1394   0.00    0.0
2019/01/10 09:52:25.200  -2173831.4308   4381458.4814   4093731.3984   6   4   0.1779   0.2335   0.2263  -0.1481   0.2201  -0.1383   0.00    0.0
2019/01/10 09:52:25.400  -2173831.4314   4381458.4615   4093731.3772   6   4   0.1770   0.2322   0.2250  -0.1470   0.2187  -0.1372   0.00    0.0
2019/01/10 09:52:25.600  -2173831.4190   4381458.4375   4093731.3460   6   5   0.1760   0.2310   0.2238  -0.1458   0.2175  -0.1361   0.00    0.0
2019/01/10 09:52:25.800  -2173831.4165   4381458.4451   4093731.3535   6   3   0.1757   0.2310   0.2236  -0.1458   0.2174  -0.1361   0.00    0.0
2019/01/10 09:52:26.000  -2173831.3905   4381458.4059   4093731.3224   6   3   0.1747   0.2293   0.2225  -0.1443   0.2161  -0.1350   0.00    0.0
2019/01/10 09:52:26.200  -2173831.4865   4381458.5573   4093731.4639   6   4   0.1726   0.2254   0.2193  -0.1406   0.2125  -0.1314   0.00    0.0
2019/01/10 09:52:26.400  -2173831.4573   4381458.5278   4093731.4496   6   4   0.1719   0.2244   0.2180  -0.1396   0.2113  -0.1303   0.00    0.0
2019/01/10 09:52:26.600  -2173831.3675   4381458.3986   4093731.3571   6   3   0.1710   0.2229   0.2171  -0.1382   0.2102  -0.1291   0.00    0.0
2019/01/10 09:52:26.800  -2173831.3746   4381458.4008   4093731.3521   6   3   0.1705   0.2228   0.2170  -0.1381   0.2101  -0.1291   0.00    0.0
2019/01/10 09:52:27.000  -2173831.3989   4381458.4523   4093731.3982   6   4   0.1696   0.2215   0.2161  -0.1370   0.2090  -0.1280   0.00    0.0
2019/01/10 09:52:27.200  -2173831.3640   4381458.4033   4093731.3587   6   6   0.1683   0.2199   0.2150  -0.1356   0.2077  -0.1270   0.00    0.0
2019/01/10 09:52:27.400  -2173831.3739   4381458.4495   4093731.4050   6   6   0.1656   0.2153   0.2112  -0.1311   0.2034  -0.1230   0.00    0.0
2019/01/10 09:52:27.600  -2173831.4225   4381458.5254   4093731.4629   6   4   0.1646   0.2137   0.2095  -0.1296   0.2018  -0.1215   0.00    0.0
2019/01/10 09:52:27.800  -2173831.4347   4381458.5477   4093731.4787   6   3   0.1640   0.2125   0.2080  -0.1287   0.2004  -0.1205   0.00    0.0
2019/01/10 09:52:28.000  -2173831.3815   4381458.4403   4093731.4034   6   4   0.1631   0.2108   0.2069  -0.1273   0.1990  -0.1193   0.00    0.0
2019/01/10 09:52:28.200  -2173831.2802   4381458.2752   4093731.2567   6   3   0.1611   0.2067   0.2036  -0.1231   0.1952  -0.1154   0.00    0.0
2019/01/10 09:52:28.400  -2173831.2413   4381458.2663   4093731.2656   6   3   0.1608   0.2066   0.2034  -0.1231   0.1951  -0.1154   0.00    0.0
2019/01/10 09:52:28.600  -2173831.3122   4381458.3612   4093731.3459   6   4   0.1599   0.2054   0.2023  -0.1218   0.1939  -0.1142   0.00    0.0
2019/01/10 09:52:28.800  -2173831.2940   4381458.3460   4093731.3546   6   6   0.1585   0.2033   0.2007  -0.1199   0.1922  -0.1129   0.00    0.0
2019/01/10 09:52:29.000  -2173831.3560   4381458.4292   4093731.4402   6   5   0.1561   0.1990   0.1972  -0.1156   0.1882  -0.1087   0.00    0.0
2019/01/10 09:52:29.200  -2173831.3176   4381458.3540   4093731.3756   6   4   0.1542   0.1952   0.1942  -0.1116   0.1847  -0.1050   0.00    0.0
2019/01/10 09:52:29.400  -2173831.3217   4381458.3603   4093731.3826   6   3   0.1537   0.1941   0.1931  -0.1108   0.1836  -0.1041   0.00    0.0
2019/01/10 09:52:29.600  -2173831.3260   4381458.3572   4093731.4030   6   4   0.1534   0.1940   0.1930  -0.1107   0.1835  -0.1040   0.00    0.0
2019/01/10 09:52:29.800  -2173831.3283   4381458.3563   4093731.4024   6   2   0.1532   0.1940   0.1929  -0.1108   0.1835  -0.1039   0.00    0.0
2019/01/10 09:52:30.000  -2173831.2954   4381458.3208   4093731.3414   6   5   0.1520   0.1925   0.1913  -0.1090   0.1820  -0.1021   0.00    0.0
2019/01/10 09:52:30.200  -2173831.2883   4381458.3099   4093731.3248   6   4   0.1512   0.1907   0.1902  -0.1076   0.1805  -0.1008   0.00    0.0
2019/01/10 09:52:30.400  -2173831.2809   4381458.2967   4093731.2960   6   4   0.1506   0.1894   0.1893  -0.1066   0.1794  -0.0998   0.00    0.0
2019/01/10 09:52:30.600  -2173831.3213   4381458.3414   4093731.3500   6   3   0.1496   0.1882   0.1879  -0.1051   0.1781  -0.0981   0.00    0.0
2019/01/10 09:52:30.800  -2173831.3647   4381458.3813   4093731.3807   6   3   0.1482   0.1871   0.1870  -0.1033   0.1771  -0.0967   0.00    0.0
2019/01/10 09:52:31.000  -2173831.3666   4381458.3826   4093731.3825   6   1   0.1481   0.1870   0.1870  -0.1032   0.1771  -0.0965   0.00    0.0
2019/01/10 09:52:31.200  -2173831.3618   4381458.3658   4093731.3716   6   3   0.1477   0.1859   0.1859  -0.1023   0.1759  -0.0956   0.00    0.0
2019/01/10 09:52:31.400  -2173831.2590   4381458.1949   4093731.2194   6   4   0.1453   0.1810   0.1821  -0.0969   0.1714  -0.0905   0.00    0.0
2019/01/10 09:52:31.600  -2173831.2566   4381458.1938   4093731.2055   6   3   0.1448   0.1798   0.1815  -0.0961   0.1705  -0.0898   0.00    0.0
2019/01/10 09:52:31.800  -2173831.2967   4381458.2219   4093731.2549   6   4   0.1438   0.1786   0.1800  -0.0946   0.1692  -0.0880   0.00    0.0
2019/01/10 09:52:32.000  -2173831.2960   4381458.2300   4093731.2669   6   4   0.1430   0.1772   0.1789  -0.0934   0.1679  -0.0869   0.00    0.0
2019/01/10 09:52:32.200  -2173831.3046   4381458.2397   4093731.2821   6   3   0.1425   0.1760   0.1783  -0.0925   0.1670  -0.0863   0.00    0.0
2019/01/10 09:52:32.400  -2173831.2329   4381458.1296   4093731.1830   6   3   0.1402   0.1715   0.1748  -0.0871   0.1629  -0.0811   0.00    0.0
2019/01/10 09:52:32.600  -2173831.2610   4381458.1502   4093731.2181   6   4   0.1391   0.1703   0.1732  -0.0854   0.1615  -0.0791   0.00    0.0
2019/01/10 09:52:32.800  -2173831.2159   4381458.0631   4093731.1463   6   2   0.1388   0.1696   0.1727  -0.0847   0.1608  -0.0785   0.00    0.0
2019/01/10 09:52:33.000  -2173831.1907   4381458.0342   4093731.1372   6   5   0.1383   0.1694   0.1725  -0.0846   0.1608  -0.0784   0.00    0.0
2019/01/10 09:52:33.200  -2173831.1905   4381458.0452   4093731.1435   6   4   0.1381   0.1693   0.1724  -0.0847   0.1607  -0.0784   0.00    0.0
2019/01/10 09:52:33.400  -2173831.2140   4381458.1198   4093731.2011   6   3   0.1377   0.1681   0.1716  -0.0839   0.1597  -0.0777   0.00    0.0
2019/01/10 09:52:33.600  -2173831.2082   4381458.1049   4093731.1876   6   2   0.1374   0.1675   0.1711  -0.0834   0.1591  -0.0772   0.00    0.0
2019/01/10 09:52:33.800  -2173831.2058   4381458.1267   4093731.1964   6   4   0.1372   0.1673   0.1711  -0.0835   0.1591  -0.0773   0.00    0.0
2019/01/10 09:52:34.000  -2173831.2052   4381458.1327   4093731.2003   6   4   0.1370   0.1672   0.1709  -0.0836   0.1590  -0.0774   0.00    0.0
2019/01/10 09:52:34.200  -2173831.1927   4381458.1069   4093731.1763   6   3   0.1367   0.1664   0.1704  -0.0831   0.1584  -0.0769   0.00    0.0
2019/01/10 09:52:34.400  -2173831.1882   4381458.0990   4093731.1675   6   4   0.1365   0.1663   0.1702  -0.0831   0.1584  -0.0771   0.00    0.0
2019/01/10 09:52:34.600  -2173831.2111   4381458.1605   4093731.2063   6   4   0.1361   0.1649   0.1695  -0.0821   0.1574  -0.0764   0.00    0.0
2019/01/10 09:52:34.800  -2173831.2309   4381458.1923   4093731.2283   6   4   0.1356   0.1636   0.1690  -0.0814   0.1566  -0.0759   0.00    0.0
2019/01/10 09:52:35.000  -2173831.2473   4381458.2361   4093731.2477   6   5   0.1351   0.1624   0.1684  -0.0805   0.1558  -0.0754   0.00    0.0
2019/01/10 09:52:35.200  -2173831.2473   4381458.2312   4093731.2427   6   2   0.1350   0.1622   0.1683  -0.0805   0.1557  -0.0753   0.00    0.0
2019/01/10 09:52:35.400  -2173831.2298   4381458.1653   4093731.1865   6   4   0.1345   0.1611   0.1672  -0.0798   0.1546  -0.0749   0.00    0.0
2019/01/10 09:52:35.600  -2173831.2280   4381458.1531   4093731.1808   6   3   0.1344   0.1609   0.1671  -0.0799   0.1545  -0.0750   0.00    0.0
2019/01/10 09:52:35.800  -2173831.2216   4381458.1352   4093731.1763   6   3   0.1343   0.1609   0.1670  -0.0799   0.1544  -0.0752   0.00    0.0
2019/01/10 09:52:36.000  -2173831.2289   4381458.1310   4093731.1586   6   3   0.1341   0.1607   0.1667  -0.0800   0.1543  -0.0754   0.00    0.0
2019/01/10 09:52:36.200  -2173831.2255   4381458.1368   4093731.1532   6   4   0.1339   0.1605   0.1663  -0.0802   0.1541  -0.0757   0.00    0.0
2019/01/10 09:52:36.400  -2173831.2253   4381458.1377   4093731.1534   6   3   0.1334   0.1599   0.1660  -0.0795   0.1537  -0.0752   0.00    0.0
2019/01/10 09:52:36.600  -2173831.2265   4381458.0801   4093731.1089   6   5   0.1331   0.1595   0.1657  -0.0795   0.1534  -0.0754   0.00    0.0
2019/01/10 09:52:36.800  -2173831.2145   4381458.0420   4093731.0712   6   2   0.1328   0.1581   0.1644  -0.0788   0.1520  -0.0746   0.00    0.0
2019/01/10 09:52:37.000  -2173831.2370   4381458.1348   4093731.1636   6   4   0.1325   0.1567   0.1630  -0.0781   0.1506  -0.0739   0.00    0.0
2019/01/10 09:52:37.200  -2173831.2409   4381458.1361   4093731.1642   6   4   0.1323   0.1566   0.1627  -0.0782   0.1504  -0.0741   0.00    0.0
2019/01/10 09:52:37.400  -2173831.2181   4381458.0705   4093731.0990   6   3   0.1319   0.1558   0.1622  -0.0774   0.1498  -0.0735   0.00    0.0
2019/01/10 09:52:37.600  -2173831.2225   4381458.0763   4093731.1091   6   3   0.1317   0.1556   0.1618  -0.0774   0.1495  -0.0736   0.00    0.0
2019/01/10 09:52:37.800  -2173831.2380   4381458.0914   4093731.1128   6   5   0.1313   0.1543   0.1605  -0.0767   0.1481  -0.0729   0.00    0.0
2019/01/10 09:52:38.000  -2173831.2444   4381458.0912   4093731.1083   6   3   0.1311   0.1543   0.1605  -0.0768   0.1481  -0.0729   0.00    0.0
2019/01/10 09:52:38.200  -2173831.2632   4381458.1383   4093731.1517   6   3   0.1309   0.1537   0.1599  -0.0763   0.1475  -0.0723   0.00    0.0
2019/01/10 09:52:38.400  -2173831.2588   4381458.0593   4093731.0554   6   4   0.1303   0.1523   0.1585  -0.0755   0.1462  -0.0720   0.00    0.0
2019/01/10 09:52:38.600  -2173831.2790   4381458.0836   4093731.0676   6   2   0.1299   0.1518   0.1583  -0.0748   0.1459  -0.0716   0.00    0.0
2019/01/10 09:52:38.800  -2173831.2982   4381458.0895   4093731.0549   6   4   0.1296   0.1517   0.1582  -0.0748   0.1458  -0.0718   0.00    0.0
2019/01/10 09:52:39.000  -2173831.2973   4381458.0918   4093731.0565   6   3   0.1295   0.1517   0.1581  -0.0748   0.1458  -0.0717   0.00    0.0
2019/01/10 09:52:39.200  -2173831.3053   4381458.0890   4093731.0448   6   5   0.1289   0.1508   0.1574  -0.0739   0.1451  -0.0711   0.00    0.0
2019/01/10 09:52:39.400  -2173831.3122   4381458.1114   4093731.0661   6   3   0.1286   0.1505   0.1564  -0.0742   0.1445  -0.0717   0.00    0.0
2019/01/10 09:52:39.600  -2173831.3083   4381458.1041   4093731.0563   6   3   0.1285   0.1504   0.1563  -0.0743   0.1444  -0.0717   0.00    0.0
2019/01/10 09:52:39.800  -2173831.3099   4381458.0646   4093731.0041   6   5   0.1281   0.1501   0.1554  -0.0745   0.1439  -0.0723   0.00    0.0
2019/01/10 09:52:40.000  -2173831.3295   4381458.0530   4093730.9788   6   5   0.1274   0.1490   0.1544  -0.0736   0.1430  -0.0718   0.00    0.0
2019/01/10 09:52:40.200  -2173831.3282   4381458.0531   4093730.9771   6   2   0.1274   0.1490   0.1544  -0.0737   0.1429  -0.0717   0.00    0.0
2019/01/10 09:52:40.400  -2173831.3376   4381458.0143   4093730.9195   6   4   0.1271   0.1487   0.1535  -0.0739   0.1424  -0.0721   0.00    0.0
2019/01/10 09:52:40.600  -2173831.3160   4381458.0085   4093730.9201   6   3   0.1268   0.1485   0.1530  -0.0741   0.1421  -0.0724   0.00    0.0
2019/01/10 09:52:40.800  -2173831.3120   4381457.9890   4093730.9005   6   3   0.1265   0.1468   0.1510  -0.0731   0.1401  -0.0713   0.00    0.0
2019/01/10 09:52:41.000  -2173831.3148   4381458.0038   4093730.9129   6   3   0.1259   0.1459   0.1506  -0.0720   0.1396  -0.0706   0.00    0.0
2019/01/10 09:52:41.200  -2173831.3161   4381458.0603   4093730.9820   6   6   0.1252   0.1443   0.1487  -0.0710   0.1378  -0.0699   0.00    0.0
2019/01/10 09:52:41.400  -2173831.3182   4381458.0792   4093731.0073   6   3   0.1249   0.1440   0.1478  -0.0713   0.1373  -0.0702   0.00    0.0
2019/01/10 09:52:41.600  -2173831.3353   4381458.1244   4093731.0577   6   3   0.1246   0.1426   0.1461  -0.0704   0.1357  -0.0693   0.00    0.0
2019/01/10 09:52:41.800  -2173831.3395   4381458.1308   4093731.0678   6   5   0.1242   0.1425   0.1459  -0.0705   0.1356  -0.0696   0.00    0.0
2019/01/10 09:52:42.000  -2173831.3631   4381458.1840   4093731.1180   6   4   0.1239   0.1411   0.1442  -0.0695   0.1340  -0.0686   0.00    0.0
2019/01/10 09:52:42.200  -2173831.3817   4381458.2302   4093731.1653   6   5   0.1235   0.1404   0.1435  -0.0690   0.1333  -0.0681   0.00    0.0
2019/01/10 09:52:42.400  -2173831.3905   4381458.3005   4093731.2569   6   4   0.1228   0.1390   0.1419  -0.0680   0.1318  -0.0675   0.00    0.0
2019/01/10 09:52:42.600  -2173831.3970   4381458.2982   4093731.2514   6   5   0.1226   0.1390   0.1418  -0.0681   0.1318  -0.0676   0.00    0.0
2019/01/10 09:52:42.800  -2173831.4154   4381458.3684   4093731.3251   6   3   0.1223   0.1377   0.1402  -0.0673   0.1302  -0.0666   0.00    0.0
2019/01/10 09:52:43.000  -2173831.3904   4381458.3095   4093731.2546   6   6   0.1219   0.1364   0.1386  -0.0666   0.1288  -0.0658   0.00    0.0
2019/01/10 09:52:43.200  -2173831.4084   4381458.3158   4093731.2456   6   4   0.1215   0.1363   0.1385  -0.0665   0.1288  -0.0661   0.00    0.0
2019/01/10 09:52:43.400  -2173831.4016   4381458.3404   4093731.2772   6   3   0.1214   0.1360   0.1380  -0.0665   0.1284  -0.0662   0.00    0.0
2019/01/10 09:52:43.600  -2173831.4034   4381458.3485   4093731.2858   6   4   0.1212   0.1357   0.1375  -0.0666   0.1280  -0.0661   0.00    0.0
2019/01/10 09:52:43.800  -2173831.4115   4381458.3871   4093731.3442   6   6   0.1208   0.1354   0.1367  -0.0667   0.1276  -0.0666   0.00    0.0
2019/01/10 09:52:44.000  -2173831.4111   4381458.3848   4093731.3325   6   2   0.1206   0.1353   0.1361  -0.0669   0.1274  -0.0671   0.00    0.0
2019/01/10 09:52:44.200  -2173831.4289   4381458.3906   4093731.3177   6   4   0.1203   0.1352   0.1360  -0.0668   0.1274  -0.0673   0.00    0.0
2019/01/10 09:52:44.400  -2173831.4359   4381458.3992   4093731.3317   6   4   0.1200   0.1352   0.1359  -0.0669   0.1274  -0.0673   0.00    0.0
2019/01/10 09:52:44.600  -2173831.4346   4381458.3979   4093731.3319   6   2   0.1199   0.1352   0.1359  -0.0669   0.1274  -0.0674   0.00    0.0
2019/01/10 09:52:44.800  -2173831.4146   4381458.3846   4093731.3124   6   5   0.1195   0.1351   0.1357  -0.0669   0.1273  -0.0675   0.00    0.0
2019/01/10 09:52:45.000  -2173831.4016   4381458.3726   4093731.2962   6   6   0.1192   0.1347   0.1350  -0.0669   0.1268  -0.0675   0.00    0.0
2019/01/10 09:52:45.200  -2173831.4102   4381458.3775   4093731.2905   6   3   0.1189   0.1347   0.1349  -0.0668   0.1268  -0.0677   0.00    0.0
2019/01/10 09:52:45.400  -2173831.3988   4381458.3774   4093731.2875   6   4   0.1186   0.1345   0.1344  -0.0669   0.1265  -0.0677   0.00    0.0
2019/01/10 09:52:45.600  -2173831.4045   4381458.3619   4093731.2531   6   4   0.1182   0.1342   0.1336  -0.0670   0.1261  -0.0681   0.00    0.0
2019/01/10 09:52:45.800  -2173831.3771   4381458.3406   4093731.2222   6   4   0.1180   0.1341   0.1335  -0.0668   0.1260  -0.0679   0.00    0.0
2019/01/10 09:52:46.000  -2173831.3516   4381458.2810   4093731.1525   6   5   0.1177   0.1337   0.1329  -0.0666   0.1255  -0.0678   0.00    0.0
2019/01/10 09:52:46.200  -2173831.3614   4381458.2898   4093731.1542   6   5   0.1173   0.1335   0.1327  -0.0664   0.1254  -0.0676   0.00    0.0
2019/01/10 09:52:46.400  -2173831.3600   4381458.2865   4093731.1510   6   3   0.1171   0.1335   0.1327  -0.0665   0.1253  -0.0677   0.00    0.0
2019/01/10 09:52:46.600  -2173831.3434   4381458.2824   4093731.1595   6   3   0.1168   0.1335   0.1326  -0.0664   0.1254  -0.0679   0.00    0.0
2019/01/10 09:52:46.800  -2173831.3503   4381458.3008   4093731.1728   6   4   0.1165   0.1333   0.1324  -0.0661   0.1252  -0.0676   0.00    0.0
2019/01/10 09:52:47.000  -2173831.3146   4381458.2808   4093731.1528   6   4   0.1161   0.1332   0.1321  -0.0660   0.1251  -0.0676   0.00    0.0
2019/01/10 09:52:47.200  -2173831.2782   4381458.2484   4093731.1284   6   4   0.1157   0.1330   0.1320  -0.0657   0.1249  -0.0673   0.00    0.0
2019/01/10 09:52:47.400  -2173831.2712   4381458.2467   4093731.1267   6   3   0.1154   0.1330   0.1318  -0.0657   0.1249  -0.0676   0.00    0.0
2019/01/10 09:52:47.600  -2173831.2830   4381458.2526   4093731.1371   6   3   0.1153   0.1329   0.1317  -0.0658   0.1249  -0.0676   0.00    0.0
2019/01/10 09:52:47.800  -2173831.2864   4381458.2498   4093731.1379   6   3   0.1151   0.1329   0.1317  -0.0658   0.1249  -0.0676   0.00    0.0
2019/01/10 09:52:48.000  -2173831.3055   4381458.2597   4093731.1512   6   5   0.1146   0.1326   0.1314  -0.0653   0.1246  -0.0672   0.00    0.0
2019/01/10 09:52:48.200  -2173831.3195   4381458.2746   4093731.1455   6   3   0.1143   0.1325   0.1313  -0.0652   0.1246  -0.0674   0.00    0.0
2019/01/10 09:52:48.400  -2173831.3294   4381458.2777   4093731.1455   6   2   0.1142   0.1324   0.1312  -0.0651   0.1246  -0.0674   0.00    0.0
2019/01/10 09:52:48.600  -2173831.3397   4381458.2711   4093731.1544   6   5   0.1139   0.1323   0.1311  -0.0650   0.1245  -0.0673   0.00    0.0
2019/01/10 09:52:48.800  -2173831.3509   4381458.2822   4093731.1619   6   3   0.1138   0.1322   0.1310  -0.0649   0.1244  -0.0672   0.00    0.0
2019/01/10 09:52:49.000  -2173831.3591   4381458.2876   4093731.1434   6   3   0.1135   0.1322   0.1308  -0.0650   0.1244  -0.0675   0.00    0.0
2019/01/10 09:52:49.200  -2173831.3591   4381458.2793   4093731.1264   6   4   0.1129   0.1320   0.1304  -0.0647   0.1242  -0.0671   0.00    0.0
2019/01/10 09:52:49.400  -2173831.3825   4381458.2999   4093731.1259   6   4   0.1123   0.1317   0.1299  -0.0642   0.1239  -0.0667   0.00    0.0
2019/01/10 09:52:49.600  -2173831.3815   4381458.3055   4093731.1343   6   6   0.1113   0.1312   0.1294  -0.0633   0.1235  -0.0660   0.00    0.0
2019/01/10 09:52:49.800  -2173831.3579   4381458.2850   4093731.1301   6   4   0.1109   0.1310   0.1293  -0.0630   0.1234  -0.0661   0.00    0.0
2019/01/10 09:52:50.000  -2173831.3654   4381458.2938   4093731.1311   6   4   0.1108   0.1309   0.1292  -0.0631   0.1233  -0.0661   0.00    0.0
2019/01/10 09:52:50.200  -2173831.3973   4381458.3358   4093731.1531   6   5   0.1103   0.1306   0.1290  -0.0628   0.1232  -0.0661   0.00    0.0
2019/01/10 09:52:50.400  -2173831.3907   4381458.3308   4093731.1599   6   2   0.1102   0.1306   0.1289  -0.0628   0.1232  -0.0663   0.00    0.0
2019/01/10 09:52:50.600  -2173831.3973   4381458.3475   4093731.1721   6   3   0.1100   0.1303   0.1287  -0.0625   0.1230  -0.0661   0.00    0.0
2019/01/10 09:52:50.800  -2173831.3966   4381458.3383   4093731.1757   6   5   0.1098   0.1303   0.1287  -0.0626   0.1230  -0.0661   0.00    0.0
2019/01/10 09:52:51.000  -2173831.3871   4381458.3336   4093731.1867   6   4   0.1096   0.1302   0.1285  -0.0626   0.1230  -0.0663   0.00    0.0
2019/01/10 09:52:51.200  -2173831.4016   4381458.3544   4093731.2118   6   4   0.1094   0.1299   0.1282  -0.0624   0.1227  -0.0660   0.00    0.0
2019/01/10 09:52:51.400  -2173831.4164   4381458.3430   4093731.1861   6   4   0.1091   0.1298   0.1281  -0.0624   0.1227  -0.0663   0.00    0.0
2019/01/10 09:52:51.600  -2173831.4325   4381458.3563   4093731.1959   6   3   0.1088   0.1296   0.1278  -0.0621   0.1224  -0.0660   0.00    0.0
2019/01/10 09:52:51.800  -2173831.4249   4381458.3530   4093731.2009   6   4   0.1087   0.1295   0.1277  -0.0621   0.1224  -0.0661   0.00    0.0
2019/01/10 09:52:52.000  -2173831.4225   4381458.3459   4093731.1916   6   4   0.1084   0.1291   0.1273  -0.0617   0.1221  -0.0658   0.00    0.0
2019/01/10 09:52:52.200  -2173831.4431   4381458.3781   4093731.2200   6   4   0.1080   0.1288   0.1271  -0.0611   0.1219  -0.0655   0.00    0.0
2019/01/10 09:52:52.400  -2173831.4288   4381458.3502   4093731.1901   6   3   0.1077   0.1285   0.1268  -0.0608   0.1216  -0.0652   0.00    0.0
2019/01/10 09:52:52.600  -2173831.4219   4381458.3399   4093731.1857   6   5   0.1075   0.1285   0.1267  -0.0609   0.1216  -0.0653   0.00    0.0
2019/01/10 09:52:52.800  -2173831.4110   4381458.3191   4093731.1651   6   3   0.1072   0.1282   0.1264  -0.0605   0.1212  -0.0649   0.00    0.0
2019/01/10 09:52:53.000  -2173831.4013   4381458.3093   4093731.1567   6   3   0.1070   0.1279   0.1262  -0.0601   0.1210  -0.0645   0.00    0.0
2019/01/10 09:52:53.200  -2173831.4060   4381458.3235   4093731.1622   6   3   0.1069   0.1279   0.1261  -0.0601   0.1210  -0.0645   0.00    0.0
2019/01/10 09:52:53.400  -2173831.4039   4381458.3211   4093731.1628   6   5   0.1067   0.1278   0.1261  -0.0602   0.1209  -0.0646   0.00    0.0
2019/01/10 09:52:53.600  -2173831.4002   4381458.3144   4093731.1519   6   3   0.1066   0.1277   0.1260  -0.0603   0.1209  -0.0647   0.00    0.0
2019/01/10 09:52:53.800  -2173831.4052   4381458.3125   4093731.1501   6   8   0.1064   0.1277   0.1260  -0.0605   0.1208  -0.0648   0.00    0.0
2019/01/10 09:52:54.000  -2173831.4028   4381458.3128   4093731.1507   6   3   0.1063   0.1277   0.1259  -0.0605   0.1208  -0.0648   0.00    0.0
2019/01/10 09:52:54.200  -2173831.4001   4381458.3099   4093731.1487   6   4   0.1062   0.1277   0.1259  -0.0606   0.1208  -0.0648   0.00    0.0
2019/01/10 09:52:54.400  -2173831.3997   4381458.3106   4093731.1494   6   3   0.1061   0.1277   0.1259  -0.0606   0.1208  -0.0648   0.00    0.0
2019/01/10 09:52:54.600  -2173831.4049   4381458.3177   4093731.1576   6   4   0.1060   0.1276   0.1259  -0.0607   0.1208  -0.0649   0.00    0.0
2019/01/10 09:52:54.800  -2173831.4077   4381458.3238   4093731.1654   6   4   0.1058   0.1276   0.1259  -0.0608   0.1208  -0.0649   0.00    0.0
2019/01/10 09:52:55.000  -2173831.4025   4381458.3265   4093731.1696   6   3   0.1057   0.1276   0.1258  -0.0608   0.1207  -0.0649   0.00    0.0
2019/01/10 09:52:55.200  -2173831.4065   4381458.3270   4093731.1702   6   2   0.1057   0.1276   0.1258  -0.0609   0.1207  -0.0649   0.00    0.0
2019/01/10 09:52:55.400  -2173831.4025   4381458.3297   4093731.1721   6   3   0.1056   0.1275   0.1258  -0.0609   0.1207  -0.0649   0.00    0.0
2019/01/10 09:52:55.600  -2173831.4050   4381458.3331   4093731.1756   6   3   0.1054   0.1275   0.1257  -0.0609   0.1207  -0.0650   0.00    0.0
2019/01/10 09:52:55.800  -2173831.4128   4381458.3372   4093731.1771   6   3   0.1053   0.1275   0.1257  -0.0608   0.1206  -0.0649   0.00    0.0
2019/01/10 09:52:56.000  -2173831.4089   4381458.3328   4093731.1726   6   5   0.1051   0.1274   0.1256  -0.0608   0.1205  -0.0648   0.00    0.0
2019/01/10 09:52:56.200  -2173831.4088   4381458.3326   4093731.1715   6   3   0.1049   0.1274   0.1256  -0.0609   0.1205  -0.0649   0.00    0.0
2019/01/10 09:52:56.400  -2173831.4101   4381458.3367   4093731.1755   6   2   0.1049   0.1273   0.1255  -0.0609   0.1205  -0.0649   0.00    0.0
2019/01/10 09:52:56.600  -2173831.4045   4381458.3336   4093731.1773   6   4   0.1047   0.1273   0.1255  -0.0609   0.1205  -0.0649   0.00    0.0
2019/01/10 09:52:56.800  -2173831.3909   4381458.3245   4093731.1663   6   4   0.1045   0.1272   0.1254  -0.0608   0.1203  -0.0648   0.00    0.0
2019/01/10 09:52:57.000  -2173831.3832   4381458.3199   4093731.1625   6   3   0.1044   0.1272   0.1254  -0.0607   0.1203  -0.0647   0.00    0.0
2019/01/10 09:52:57.200  -2173831.3993   4381458.3275   4093731.1710   6   5   0.1042   0.1271   0.1253  -0.0608   0.1203  -0.0648   0.00    0.0
2019/01/10 09:52:57.400  -2173831.4001   4381458.3229   4093731.1679   6   3   0.1041   0.1271   0.1253  -0.0609   0.1203  -0.0648   0.00    0.0
2019/01/10 09:52:57.600  -2173831.4000   4381458.3227   4093731.1674   6   3   0.1039   0.1270   0.1252  -0.0608   0.1202  -0.0647   0.00    0.0
2019/01/10 09:52:57.800  -2173831.4038   4381458.3221   4093731.1634   6   4   0.1038   0.1270   0.1251  -0.0608   0.1201  -0.0647   0.00    0.0
2019/01/10 09:52:58.000  -2173831.3817   4381458.3029   4093731.1424   6   4   0.1035   0.1268   0.1250  -0.0606   0.1200  -0.0645   0.00    0.0
2019/01/10 09:52:58.200  -2173831.3850   4381458.3048   4093731.1443   6   2   0.1034   0.1268   0.1249  -0.0606   0.1199  -0.0645   0.00    0.0
2019/01/10 09:52:58.400  -2173831.3845   4381458.3062   4093731.1408   6   3   0.1032   0.1267   0.1249  -0.0607   0.1199  -0.0646   0.00    0.0
2019/01/10 09:52:58.600  -2173831.3718   4381458.2920   4093731.1279   6   3   0.1030   0.1266   0.1248  -0.0606   0.1198  -0.0644   0.00    0.0
2019/01/10 09:52:58.800  -2173831.3757   4381458.2956   4093731.1296   6   5   0.1029   0.1266   0.1247  -0.0606   0.1197  -0.0645   0.00    0.0
2019/01/10 09:52:59.000  -2173831.3690   4381458.2834   4093731.1168   6   3   0.1026   0.1264   0.1245  -0.0604   0.1195  -0.0642   0.00    0.0
2019/01/10 09:52:59.200  -2173831.3359   4381458.2696   4093731.1086   6   4   0.1022   0.1263   0.1244  -0.0603   0.1194  -0.0641   0.00    0.0
2019/01/10 09:52:59.400  -2173831.3134   4381458.2466   4093731.0827   6   3   0.1020   0.1261   0.1242  -0.0600   0.1192  -0.0638   0.00    0.0
2019/01/10 09:52:59.600  -2173831.2927   4381458.2435   4093731.0787   6   4   0.1016   0.1260   0.1242  -0.0598   0.1192  -0.0637   0.00    0.0
2019/01/10 09:52:59.800  -2173831.2481   4381458.2089   4093731.0468   6   3   0.1008   0.1257   0.1239  -0.0590   0.1188  -0.0629   0.00    0.0
2019/01/10 09:53:00.000  -2173831.2215   4381458.1959   4093731.0374   6   4   0.1006   0.1256   0.1238  -0.0589   0.1188  -0.0629   0.00    0.0
2019/01/10 09:53:00.200  -2173831.2326   4381458.2027   4093731.0475   6   4   0.1003   0.1255   0.1237  -0.0588   0.1187  -0.0627   0.00    0.0
2019/01/10 09:53:00.400  -2173831.2290   4381458.2000   4093731.0455   6   4   0.1001   0.1255   0.1237  -0.0587   0.1187  -0.0626   0.00    0.0
2019/01/10 09:53:00.600  -2173831.2158   4381458.1860   4093731.0247   6   5   0.0996   0.1251   0.1233  -0.0581   0.1183  -0.0621   0.00    0.0
2019/01/10 09:53:00.800  -2173831.2101   4381458.1809   4093731.0213   6   2   0.0994   0.1251   0.1233  -0.0580   0.1183  -0.0621   0.00    0.0
2019/01/10 09:53:01.000  -2173831.2176   4381458.1872   4093731.0228   6   5   0.0990   0.1250   0.1232  -0.0579   0.1182  -0.0619   0.00    0.0
2019/01/10 09:53:01.200  -2173831.2142   4381458.1831   4093731.0163   6   5   0.0989   0.1250   0.1231  -0.0580   0.1182  -0.0620   0.00    0.0
2019/01/10 09:53:01.400  -2173831.2288   4381458.1910   4093731.0313   6   6   0.0982   0.1245   0.1227  -0.0573   0.1177  -0.0614   0.00    0.0
2019/01/10 09:53:01.600  -2173831.2320   4381458.1905   4093731.0295   6   5   0.0981   0.1245   0.1227  -0.0574   0.1177  -0.0614   0.00    0.0
2019/01/10 09:53:01.800  -2173831.2317   4381458.1905   4093731.0290   6   2   0.0981   0.1245   0.1226  -0.0575   0.1177  -0.0615   0.00    0.0
2019/01/10 09:53:02.000  -2173831.2281   4381458.1893   4093731.0176   6   4   0.0980   0.1245   0.1226  -0.0575   0.1177  -0.0615   0.00    0.0
2019/01/10 09:53:02.200  -2173831.2307   4381458.1873   4093731.0146   6   3   0.0979   0.1244   0.1225  -0.0576   0.1176  -0.0615   0.00    0.0
2019/01/10 09:53:02.400  -2173831.2321   4381458.1856   4093731.0156   6   4   0.0979   0.1244   0.1225  -0.0577   0.1176  -0.0616   0.00    0.0
2019/01/10 09:53:02.600  -2173831.2349   4381458.1866   4093731.0157   6   5   0.0977   0.1244   0.1224  -0.0578   0.1176  -0.0616   0.00    0.0
2019/01/10 09:53:02.800  -2173831.2367   4381458.1863   4093731.0170   6   4   0.0977   0.1244   0.1224  -0.0578   0.1176  -0.0616   0.00    0.0
2019/01/10 09:53:03.000  -2173831.2346   4381458.1837   4093731.0113   6   2   0.0976   0.1244   0.1223  -0.0579   0.1176  -0.0616   0.00    0.0
2019/01/10 09:53:03.200  -2173831.2309   4381458.1829   4093731.0044   6   4   0.0975   0.1243   0.1223  -0.0579   0.1175  -0.0617   0.00    0.0
2019/01/10 09:53:03.400  -2173831.2384   4381458.1865   4093731.0151   6   3   0.0974   0.1243   0.1222  -0.0580   0.1175  -0.0616   0.00    0.0
2019/01/10 09:53:03.600  -2173831.2352   4381458.1877   4093731.0128   6   2   0.0974   0.1243   0.1222  -0.0580   0.1175  -0.0617   0.00    0.0
2019/01/10 09:53:03.800  -2173831.2316   4381458.1863   4093731.0112   6   4   0.0973   0.1243   0.1222  -0.0581   0.1175  -0.0617   0.00    0.0
2019/01/10 09:53:04.000  -2173831.2182   4381458.1728   4093730.9952   6   4   0.0971   0.1242   0.1221  -0.0581   0.1174  -0.0617   0.00    0.0
2019/01/10 09:53:04.200  -2173831.2097   4381458.1666   4093730.9859   6   5   0.0970   0.1242   0.1221  -0.0582   0.1174  -0.0618   0.00    0.0
2019/01/10 09:53:04.400  -2173831.2117   4381458.1651   4093730.9834   6   2   0.0969   0.1242   0.1220  -0.0582   0.1174  -0.0619   0.00    0.0
2019/01/10 09:53:04.600  -2173831.2197   4381458.1646   4093730.9837   6   5   0.0968   0.1241   0.1220  -0.0583   0.1173  -0.0619   0.00    0.0
2019/01/10 09:53:04.800  -2173831.2269   4381458.1661   4093730.9867   6   4   0.0967   0.1241   0.1220  -0.0583   0.1173  -0.0619   0.00    0.0
2019/01/10 09:53:05.000  -2173831.2314   4381458.1708   4093730.9904   6   4   0.0965   0.1241   0.1219  -0.0583   0.1173  -0.0619   0.00    0.0
2019/01/10 09:53:05.200  -2173831.2142   4381458.1578   4093730.9761   6   5   0.0963   0.1240   0.1219  -0.0583   0.1172  -0.0619   0.00    0.0
2019/01/10 09:53:05.400  -2173831.2143   4381458.1550   4093730.9743   6   3   0.0962   0.1240   0.1218  -0.0583   0.1172  -0.0619   0.00    0.0
2019/01/10 09:53:05.600  -2173831.2240   4381458.1670   4093730.9938   6   5   0.0960   0.1239   0.1218  -0.0582   0.1171  -0.0618   0.00    0.0
2019/01/10 09:53:05.800  -2173831.2256   4381458.1645   4093730.9907   6   2   0.0959   0.1239   0.1217  -0.0582   0.1171  -0.0618   0.00    0.0
2019/01/10 09:53:06.000  -2173831.2321   4381458.1662   4093730.9894   6   3   0.0958   0.1239   0.1217  -0.0583   0.1171  -0.0619   0.00    0.0
2019/01/10 09:53:06.200  -2173831.2219   4381458.1558   4093730.9852   6   4   0.0956   0.1238   0.1216  -0.0583   0.1170  -0.0619   0.00    0.0
2019/01/10 09:53:06.400  -2173831.2188   4381458.1589   4093730.9910   6   4   0.0955   0.1237   0.1215  -0.0582   0.1170  -0.0618   0.00    0.0
2019/01/10 09:53:06.600  -2173831.2188   4381458.1612   4093730.9922   6   3   0.0954   0.1237   0.1215  -0.0583   0.1169  -0.0618   0.00    0.0
2019/01/10 09:53:06.800  -2173831.1838   4381458.1403   4093730.9748   6   3   0.0951   0.1236   0.1215  -0.0581   0.1169  -0.0616   0.00    0.0
2019/01/10 09:53:07.000  -2173831.1851   4381458.1432   4093730.9805   6   3   0.0950   0.1236   0.1214  -0.0581   0.1168  -0.0617   0.00    0.0
2019/01/10 09:53:07.200  -2173831.1883   4381458.1430   4093730.9731   6   4   0.0948   0.1236   0.1214  -0.0581   0.1168  -0.0617   0.00    0.0
2019/01/10 09:53:07.400  -2173831.2046   4381458.1490   4093730.9742   6   3   0.0946   0.1236   0.1214  -0.0581   0.1168  -0.0617   0.00    0.0
2019/01/10 09:53:07.600  -2173831.2131   4381458.1476   4093730.9717   6   5   0.0944   0.1235   0.1213  -0.0581   0.1168  -0.0618   0.00    0.0
2019/01/10 09:53:07.800  -2173831.2074   4381458.1465   4093730.9710   6   3   0.0943   0.1235   0.1213  -0.0580   0.1168  -0.0617   0.00    0.0
2019/01/10 09:53:08.000  -2173831.2014   4381458.1459   4093730.9702   6   4   0.0941   0.1235   0.1213  -0.0580   0.1168  -0.0618   0.00    0.0
2019/01/10 09:53:08.200  -2173831.1898   4381458.1421   4093730.9713   6   4   0.0939   0.1234   0.1213  -0.0580   0.1167  -0.0618   0.00    0.0
2019/01/10 09:53:08.400  -2173831.1811   4381458.1458   4093730.9728   6   3   0.0938   0.1234   0.1212  -0.0581   0.1167  -0.0619   0.00    0.0
2019/01/10 09:53:08.600  -2173831.1829   4381458.1397   4093730.9679   6   4   0.0937   0.1234   0.1212  -0.0582   0.1167  -0.0620   0.00    0.0
2019/01/10 09:53:08.800  -2173831.1844   4381458.1453   4093730.9635   6   5   0.0935   0.1233   0.1212  -0.0583   0.1166  -0.0621   0.00    0.0
2019/01/10 09:53:09.000  -2173831.1893   4381458.1498   4093730.9609   6   4   0.0934   0.1233   0.1211  -0.0584   0.1166  -0.0622   0.00    0.0
2019/01/10 09:53:09.200  -2173831.1737   4381458.1501   4093730.9627   6   3   0.0932   0.1233   0.1211  -0.0584   0.1166  -0.0622   0.00    0.0
2019/01/10 09:53:09.400  -2173831.1758   4381458.1486   4093730.9625   6   3   0.0931   0.1232   0.1211  -0.0585   0.1166  -0.0622   0.00    0.0
2019/01/10 09:53:09.600  -2173831.1766   4381458.1527   4093730.9618   6   3   0.0931   0.1232   0.1210  -0.0585   0.1166  -0.0623   0.00    0.0
2019/01/10 09:53:09.800  -2173831.1518   4381458.1467   4093730.9641   6   5   0.0927   0.1231   0.1210  -0.0585   0.1165  -0.0624   0.00    0.0
2019/01/10 09:53:10.000  -2173831.1450   4381458.1460   4093730.9620   6   6   0.0926   0.1231   0.1210  -0.0586   0.1165  -0.0624   0.00    0.0
2019/01/10 09:53:10.200  -2173831.1661   4381458.1511   4093730.9626   6   3   0.0924   0.1231   0.1210  -0.0585   0.1165  -0.0624   0.00    0.0
2019/01/10 09:53:10.400  -2173831.1736   4381458.1549   4093730.9621   6   3   0.0920   0.1230   0.1209  -0.0584   0.1165  -0.0624   0.00    0.0
2019/01/10 09:53:10.600  -2173831.1875   4381458.1626   4093730.9549   6   5   0.0917   0.1230   0.1209  -0.0584   0.1165  -0.0625   0.00    0.0
2019/01/10 09:53:10.800  -2173831.1701   4381458.1564   4093730.9517   6   2   0.0915   0.1230   0.1209  -0.0583   0.1165  -0.0624   0.00    0.0
2019/01/10 09:53:11.000  -2173831.1689   4381458.1546   4093730.9474   6   3   0.0914   0.1229   0.1208  -0.0583   0.1164  -0.0624   0.00    0.0
2019/01/10 09:53:11.200  -2173831.1610   4381458.1534   4093730.9474   6   3   0.0911   0.1229   0.1208  -0.0582   0.1164  -0.0624   0.00    0.0
2019/01/10 09:53:11.400  -2173831.1620   4381458.1630   4093730.9499   6   4   0.0910   0.1228   0.1208  -0.0583   0.1164  -0.0625   0.00    0.0
2019/01/10 09:53:11.600  -2173831.1609   4381458.1676   4093730.9465   6   6   0.0909   0.1228   0.1207  -0.0583   0.1163  -0.0626   0.00    0.0
2019/01/10 09:53:11.800  -2173831.1609   4381458.1672   4093730.9455   6   3   0.0908   0.1227   0.1207  -0.0584   0.1163  -0.0626   0.00    0.0
2019/01/10 09:53:12.000  -2173831.1602   4381458.1657   4093730.9443   6   2   0.0906   0.1227   0.1207  -0.0583   0.1163  -0.0626   0.00    0.0
2019/01/10 09:53:12.200  -2173831.1296   4381458.1531   4093730.9376   6   4   0.0902   0.1227   0.1206  -0.0582   0.1163  -0.0626   0.00    0.0
2019/01/10 09:53:12.400  -2173831.1305   4381458.1541   4093730.9386   6   3   0.0901   0.1226   0.1206  -0.0582   0.1162  -0.0626   0.00    0.0
2019/01/10 09:53:12.600  -2173831.0935   4381458.1469   4093730.9385   6   4   0.0897   0.1225   0.1205  -0.0581   0.1162  -0.0625   0.00    0.0
2019/01/10 09:53:12.800  -2173831.0925   4381458.1481   4093730.9381   6   3   0.0897   0.1225   0.1205  -0.0581   0.1161  -0.0626   0.00    0.0
2019/01/10 09:53:13.000  -2173831.0949   4381458.1358   4093730.9289   6   4   0.0896   0.1224   0.1204  -0.0582   0.1161  -0.0626   0.00    0.0
2019/01/10 09:53:13.200  -2173831.0959   4381458.1368   4093730.9295   6   2   0.0895   0.1224   0.1204  -0.0582   0.1160  -0.0626   0.00    0.0
2019/01/10 09:53:13.400  -2173831.0941   4381458.1452   4093730.9357   6   3   0.0894   0.1223   0.1204  -0.0583   0.1160  -0.0626   0.00    0.0
2019/01/10 09:53:13.600  -2173831.0757   4381458.1471   4093730.9458   6   4   0.0889   0.1223   0.1203  -0.0581   0.1160  -0.0626   0.00    0.0
2019/01/10 09:53:13.800  -2173831.0519   4381458.1535   4093730.9515   6   5   0.0884   0.1222   0.1203  -0.0580   0.1159  -0.0625   0.00    0.0
2019/01/10 09:53:14.000  -2173831.0533   4381458.1532   4093730.9512   6   8   0.0882   0.1221   0.1202  -0.0581   0.1159  -0.0626   0.00    0.0
2019/01/10 09:53:14.200  -2173831.0554   4381458.1530   4093730.9507   6   4   0.0882   0.1221   0.1202  -0.0582   0.1158  -0.0626   0.00    0.0
2019/01/10 09:53:14.400  -2173831.0546   4381458.1528   4093730.9503   6   5   0.0881   0.1221   0.1202  -0.0583   0.1158  -0.0627   0.00    0.0
2019/01/10 09:53:14.600  -2173831.0487   4381458.1521   4093730.9492   6   3   0.0880   0.1221   0.1201  -0.0583   0.1158  -0.0627   0.00    0.0
2019/01/10 09:53:14.800  -2173831.0463   4381458.1516   4093730.9489   6   4   0.0880   0.1221   0.1201  -0.0583   0.1158  -0.0627   0.00    0.0
2019/01/10 09:53:15.000  -2173831.0445   4381458.1548   4093730.9514   6   6   0.0879   0.1220   0.1201  -0.0584   0.1157  -0.0628   0.00    0.0
2019/01/10 09:53:15.200  -2173831.0443   4381458.1549   4093730.9505   6   2   0.0879   0.1220   0.1201  -0.0585   0.1157  -0.0628   0.00    0.0
2019/01/10 09:53:15.400  -2173831.0411   4381458.1544   4093730.9493   6   2   0.0878   0.1220   0.1201  -0.0584   0.1157  -0.0628   0.00    0.0
