     2.11           OBSERVATION DATA    M (MIXED)           RINEX VERSION / TYPE
teqc  2016Apr1      bjfs                20190111 00:25:03UTCPGM / RUN BY / DATE
Linux 2.4.21-27.ELsmp|Opteron|gcc|Linux x86_64|=+           COMMENT
BIT 2 OF LLI FLAGS DATA COLLECTED UNDER A/S CONDITION       COMMENT
BJFS                                                        MARKER NAME
21601M001                                                   MARKER NUMBER
GNSS Observer       CASM                                    OBSERVER / AGENCY
5310K42306          TRIMBLE NETR9       4.85                REC # / TYPE / VERS
5317361110          TRM59900.00     SCIS                    ANT # / TYPE
 -2148744.8320  4426641.7236  4044656.2003                  APPROX POSITION XYZ
        0.0465        0.0000        0.0000                  ANTENNA: DELTA H/E/N
     1     1                                                WAVELENGTH FACT L1/2
     7    L1    L2    C1    P1    P2    S1    S2            # / TYPES OF OBSERV
    18                                                      LEAP SECONDS
 SNR is mapped to RINEX snr flag value [0-9]                COMMENT
  L1 & L2: min(max(int(snr_dBHz/6), 0), 9)                  COMMENT
  2019     1    10     0     0    0.0000000     GPS         TIME OF FIRST OBS
                                                            END OF HEADER
 19  1 10  0  0  0.0000000  0 15R03G05G21G13R19R13G02R20R04G30R14R18
                                G29G15R05
 124717428.202 6  97002460.096 5  23298267.180    23298266.176    23298269.234
        38.400          35.600
 111656706.958 8  87005262.59846  21247566.188                    21247570.359
        49.600          41.000
 124853557.988 7  97288514.92244  23758842.766                    23758846.859
        42.600          27.000
 106271633.074 7  82809079.21947  20222820.461                    20222824.539
        47.200          43.600
 106692003.315 7  82982674.244 7  19944945.484    19944945.125    19944947.152
        45.200          45.100
 123749613.125 5  96249706.268 5  23174325.063    23174324.023    23174327.723
        33.500          30.900
 119111777.122 6  92814381.36145  22666216.977                    22666219.023
        41.800          30.900
 109156016.379 7  84899126.074 8  20412722.813    20412722.816    20412726.148
        44.500          48.000
 106110039.762 8  82530041.677 7  19815303.000    19815301.668    19815304.379
        49.500          47.200
 124655594.117 6  97134259.71144  23721173.570                    23721180.691
        37.700          24.400
 125562596.407 6  97659803.864 6  23555224.063    23555223.051    23555226.871
        38.300          36.300
 125640500.378 6  97720402.899 6  23536702.898    23536701.352    23536706.375
        36.000          36.500
 114577783.464 8  89281411.37046  21803427.563                    21803432.531
        48.700          37.600
 109818620.472 8  85572964.63647  20897789.695                    20897794.438
        50.400          42.300
 109559331.702 8  85212831.597 7  20495343.773    20495343.504    20495345.164
        50.400          46.000
 19  1 10  0  0 30.0000000  0 15R03G05G21G13R19R13G02R20R04G30R14R18
                                G29G15R05
 124816112.266 6  97079214.295 5  23316701.453    23316701.035    23316704.316
        38.500          35.200
 111707734.063 8  87045023.96946  21257275.961                    21257280.730
        49.600          40.900
 124770465.052 7  97223767.18144  23743030.844                    23743034.770
        43.400          27.000
 106269875.869 7  82807709.97547  20222486.477                    20222490.270
        47.400          43.200
 106769463.777 7  83042921.244 7  19959426.938    19959425.285    19959427.613
        44.700          43.800
 123726906.088 5  96232045.238 5  23170073.266    23170071.520    23170075.598
        33.000          30.100
 119195675.660 7  92879756.81445  22682182.461                    22682184.859
        42.200          30.100
 109094032.275 7  84850916.226 7  20401130.844    20401131.551    20401134.988
        44.300          46.600
 106154904.960 8  82564936.833 7  19823680.852    19823680.457    19823682.918
        49.800          46.800
 124673466.299 6  97148186.05743  23724574.758                    23724580.762
        39.100          22.800
 125468072.944 6  97586285.588 5  23537491.281    23537490.391    23537493.883
        37.000          34.700
 125776320.453 6  97826040.685 5  23562147.984    23562145.383    23562149.605
        36.100          35.800
 114631761.590 8  89323472.21946  21813698.961                    21813704.203
        49.100          36.900
 109753210.109 8  85521995.52246  20885342.391                    20885347.336
        50.600          41.600
 109513053.280 8  85176837.277 7  20486686.094    20486686.293    20486688.098
        50.600          45.700
 19  1 10  0  1  0.0000000  0 15R03G05G21G13R19R13G02R20R04G30R14R18
                                G29G15R05
 124914752.245 6  97155934.264 6  23335126.617    23335126.906    23335131.402
        36.900          36.400
 111758960.470 8  87084940.64046  21267024.344                    21267028.875
        50.100          41.100
 124687482.567 7  97159105.49844  23727240.039                    23727243.301
        42.900          26.400
 106268692.067 7  82806787.53647  20222260.945                    20222265.191
        47.300          43.400
 106847600.097 7  83103693.914 7  19974033.141    19974032.426    19974034.535
        44.600          45.100
 123704903.037 5  96214931.757 5  23165954.516    23165951.480    23165955.680
        32.600          32.700
 119279876.884 6  92945368.11845  22698205.297                    22698207.578
        41.600          30.200
 109032744.128 7  84803247.660 7  20389670.320    20389670.910    20389674.281
        44.600          47.300
 106200067.321 8  82600063.101 7  19832114.797    19832113.465    19832116.137
        50.000          47.700
 124691872.098 6  97162528.24243  23728076.781                    23728083.730
        38.400          23.000
 125373819.139 6  97512977.153 6  23519810.172    23519808.223    23519812.488
        38.900          37.100
 125912234.622 5  97931751.619 6  23587609.063    23587607.047    23587611.086
        35.800          36.200
 114686243.284 8  89365925.46746  21824066.852                    21824071.426
        48.700          37.500
 109688253.873 8  85471380.28147  20872981.578                    20872986.344
        50.200          43.100
 109467145.123 8  85141130.954 7  20478098.727    20478098.223    20478100.059
        50.000          46.300
 19  1 10  0  1 30.0000000  0 15R03G05G21G13R19R13G02R20R04G30R14R18
                                G29G15R05
 125013346.972 6  97232619.008 5  23353546.867    23353545.512    23353549.473
        37.100          35.300
 111810384.960 8  87125011.66946  21276809.961                    21276814.504
        50.400          40.800
 124604612.047 7  97094531.07844  23711470.523                    23711474.434
        43.400          26.800
 106268080.687 7  82806311.14047  20222144.242                    20222148.602
        47.800          43.000
 106926408.212 7  83164989.090 7  19988765.727    19988764.777    19988766.934
        45.000          44.200
 123683605.108 5  96198366.706 5  23161965.039    23161962.941    23161966.746
        33.400          31.400
 119364378.854 6  93011213.78745  22714285.359                    22714287.852
        41.800          30.500
 108972154.748 7  84756122.566 7  20378340.398    20378339.934    20378343.090
        44.200          46.400
 106245524.444 8  82635418.625 7  19840603.758    19840602.777    19840605.188
        50.200          46.600
 124710810.517 6  97177285.44843  23731681.523                    23731687.715
        38.300          22.600
 125279839.446 6  97439881.881 6  23502179.430    23502178.656    23502182.734
        38.100          36.700
 126048238.555 5  98037532.420 5  23613086.922    23613085.375    23613089.645
        35.800          35.400
 114741225.373 8  89408768.63846  21834529.719                    21834534.270
        49.300          37.000
 109623752.192 8  85421119.23247  20860707.477                    20860712.215
        50.600          42.600
 109421605.811 8  85105711.475 7  20469579.039    20469578.652    20469580.832
        50.400          46.000
 19  1 10  0  2  0.0000000  0 15R03G05G21G13R19R13G02R20R04G30R14R18
                                G29G15R05
 125111894.441 6  97309266.969 5  23371955.961    23371955.426    23371958.824
        37.200          35.300
 111862006.921 8  87165236.56346  21286633.109                    21286637.785
        50.800          40.900
 124521855.123 7  97030045.16644  23695722.852                    23695726.000
        43.900          27.200
 106268040.842 7  82806280.09547  20222136.953                    20222140.871
        47.700          43.800
 107005885.428 7  83226804.677 7  20003622.414    20003621.938    20003623.844
        44.400          44.600
 123663014.072 5  96182351.467 5  23158108.938    23158106.840    23158111.082
        32.900          31.200
 119449179.883 6  93077292.48845  22730422.477                    22730425.000
        41.100          30.500
 108912267.026 7  84709543.235 7  20367141.250    20367140.434    20367143.824
        44.500          46.900
 106291274.203 8  82671001.786 8  19849147.398    19849146.652    19849148.738
        49.900          48.200
 124730281.423 6  97192457.56443  23735385.352                    23735393.328
        37.600          22.300
 125186137.812 6  97367002.879 5  23484600.930    23484599.332    23484603.363
        37.900          35.600
 126184328.802 5  98143380.321 5  23638580.789    23638579.477    23638583.555
        35.800          35.600
 114796705.882 8  89452000.19046  21845087.016                    21845091.820
        48.700          37.200
 109559706.458 8  85371213.48047  20848519.727                    20848524.754
        50.500          42.600
 109376435.185 8  85070578.772 7  20461129.102    20461128.598    20461130.516
        50.200          46.800
 19  1 10  0  2 30.0000000  0 15R03G05G21G13R19R13G02R20R04G30R14R18
                                G29G15R05
 125210394.735 6  97385878.288 5  23390357.727    23390355.785    23390359.883
        37.300          35.300
 111913826.415 8  87205615.38046  21296494.359                    21296498.672
        51.000          40.400
 124439213.330 7  96965648.95844  23679995.672                    23679999.305
        42.600          25.300
 106268572.192 7  82806694.13847  20222237.539                    20222241.535
        47.500          43.400
 107086028.552 7  83289138.213 7  20018604.766    20018604.051    20018606.262
        44.300          44.400
 123643131.634 5  96166887.377 5  23154384.445    23154383.289    23154387.805
        33.000          31.800
 119534279.216 6  93143603.63344  22746616.008                    22746619.363
        41.000          29.700
 108853084.552 7  84663512.408 7  20356073.547    20356072.965    20356076.715
        44.100          47.200
 106337315.283 8  82706811.502 7  19857744.906    19857743.691    19857746.258
        49.800          47.000
 124750284.745 6  97208044.56843  23739192.523                    23739199.527
        37.900          23.500
 125092719.151 6  97294344.017 6  23467076.328    23467075.789    23467079.188
        39.100          37.000
 126320502.219 5  98249292.921 5  23664090.227    23664089.855    23664093.625
        35.800          35.500
 114852682.271 8  89495618.13946  21855738.922                    21855743.922
        49.100          37.000
 109496117.858 8  85321663.93047  20836419.219                    20836423.914
        51.300          42.000
 109331632.855 8  85035732.518 7  20452747.695    20452747.777    20452749.773
        50.100          46.400
 19  1 10  0  3  0.0000000  0 15R03G05G21G13R19R13G02R20R04G30R14R18
                                G29G15R05
 125308846.040 6  97462451.510 6  23408748.250    23408747.012    23408750.832
        37.100          37.000
 111965842.443 8  87246147.34446  21306392.813                    21306397.391
        50.800          40.600
 124356688.440 7  96901343.84144  23664291.961                    23664295.512
        42.500          27.300
 106269673.477 7  82807552.28647  20222447.484                    20222451.453
        47.300          43.100
 107166835.196 7  83351987.786 7  20033710.742    20033709.793    20033711.781
        44.600          44.700
 123623959.661 5  96151975.79915  23150796.938    23150793.316    23150796.957
        34.000          30.800
 119619674.937 6  93210145.73044  22762866.734                    22762869.215
        40.600          29.800
 108794610.143 7  84618032.309 7  20345138.477    20345138.598    20345141.645
        44.200          47.500
 106383644.645 8  82742845.438 7  19866396.930    19866395.832    19866398.477
        49.700          47.400
 124770819.794 6  97224045.89944  23743100.328                    23743107.215
        38.400          24.000
 124999587.377 6  97221908.326 6  23449604.367    23449603.828    23449607.754
        38.300          37.000
 126456754.698 5  98355266.951 6  23689615.156    23689614.082    23689618.641
        35.500          36.500
 114909151.647 8  89539620.23746  21866484.930                    21866489.805
        48.400          36.600
 109432987.115 8  85272471.15147  20824405.914                    20824410.738
        50.300          42.700
 109287197.886 8  85001171.969 7  20444434.914    20444435.113    20444437.070
        50.100          46.900
 19  1 10  0  3 30.0000000  0 15R03G05G21G13R19R13G02R20R04G30R14R18
                                G29G15R05
 125407248.875 6  97538987.004 5  23427131.570    23427129.746    23427133.461
        36.900          35.300
 112018055.877 8  87286833.12746  21316328.945                    21316333.156
        50.200          41.300
 124274283.448 7  96837132.16644  23648610.961                    23648614.766
        42.700          28.500
 106271345.444 7  82808855.12447  20222765.844                    20222769.750
        47.100          43.500
 107248302.940 7  83415351.575 7  20048940.133    20048939.418    20048941.441
        45.000          44.200
 123605500.265 5  96137618.480 5  23147339.078    23147335.926    23147339.727
        34.500          31.300
 119705367.102 6  93276918.81845  22779173.313                    22779175.570
        41.500          31.000
 108736847.901 7  84573106.135 7  20334336.250    20334335.785    20334339.430
        44.200          47.400
 106430261.929 8  82779103.326 7  19875102.547    19875101.098    19875103.598
        49.900          47.300
 124791887.529 6  97240462.31844  23747109.742                    23747115.738
        37.900          24.600
 124906748.334 6  97149700.184 6  23432187.250    23432187.180    23432190.859
        38.800          36.800
 126593083.981 6  98461300.760 6  23715156.266    23715154.250    23715157.879
        36.400          36.200
 114966113.167 7  89584005.81246  21877324.250                    21877328.621
        47.700          36.900
 109370316.510 8  85223636.92647  20812479.914                    20812484.445
        50.300          42.600
 109243130.995 8  84966897.718 7  20436191.359    20436190.738    20436192.813
        50.600          46.700
 19  1 10  0  4  0.0000000  0 15R03G05G21G13R19R13G02R20R04G30R14R18
                                G29G15R05
 125505599.743 6  97615482.094 5  23445504.891    23445502.949    23445506.309
        36.300          35.400
 112070464.018 8  87327670.62946  21326301.484                    21326306.352
        50.900          40.500
 124191998.349 7  96773013.89944  23632952.117                    23632955.637
        43.200          27.900
 106273585.105 7  82810600.31947  20223191.789                    20223195.770
        47.900          43.000
 107330427.342 7  83479226.089 7  20064292.742    20064291.793    20064294.035
        44.300          45.200
 123587752.991 5  96123815.051 5  23144015.914    23144013.465    23144016.742
        33.700          31.100
 119791352.120 6  93343920.11344  22795536.156                    22795537.984
        41.000          29.600
 108679799.134 7  84528734.832 8  20323667.906    20323668.379    20323671.859
        44.000          48.000
 106477162.675 8  82815581.679 7  19883860.594    19883858.910    19883861.723
        49.800          47.300
 124813485.516 6  97257291.88543  23751218.477                    23751226.176
        38.500          22.900
 124814204.280 6  97077721.525 6  23414827.305    23414826.059    23414829.910
        38.400          37.300
 126729484.494 5  98567389.942 6  23740707.461    23740705.328    23740710.180
        35.400          37.300
 115023562.168 7  89628771.25046  21888256.563                    21888261.465
        47.900          37.200
 109308104.681 8  85175160.18147  20800641.680                    20800646.035
        49.800          42.400
 109199429.793 8  84932907.882 7  20428016.648    20428016.496    20428018.480
        50.400          46.700
 19  1 10  0  4 30.0000000  0 15R03G05G21G13R19R13G02R20R04G30R14R18
                                G29G15R05
 125603898.395 6  97691936.525 5  23463867.242    23463866.824    23463869.707
        36.800          35.800
 112123067.086 8  87368660.02646  21336311.570                    21336315.992
        50.600          40.800
 124109835.369 7  96708990.80044  23617317.227                    23617320.918
        42.600          27.400
 106276392.477 7  82812787.88047  20223726.195                    20223730.223
        47.800          43.100
 107413205.910 7  83543609.403 7  20079767.500    20079765.730    20079768.180
        43.800          44.000
 123570720.561 5  96110567.643 5  23140825.227    23140823.719    23140827.348
        33.900          32.000
 119877629.213 6  93411148.99545  22811953.664                    22811956.074
        40.800          30.300
 108623467.417 7  84484921.270 7  20313134.070    20313133.254    20313136.883
        44.500          47.200
 106524346.114 8  82852279.888 7  19892671.453    19892670.355    19892673.164
        49.900          46.500
 124835614.102 6  97274534.94143  23755429.211                    23755436.957
        38.000          22.900
 124721960.312 6  97005976.299 6  23397521.258    23397520.953    23397524.375
        38.600          36.200
 126865953.466 5  98673532.387 6  23766272.047    23766271.324    23766276.262
        35.100          37.900
 115081496.769 7  89673915.08146  21899280.695                    21899285.727
        47.800          37.000
 109246353.625 8  85127042.48347  20788890.781                    20788895.496
        49.600          42.800
 109156094.269 8  84899202.478 7  20419909.773    20419909.621    20419911.648
        50.600          46.000
 19  1 10  0  5  0.0000000  0 15R03G05G21G13R19R13G02R20R04G30R14R18
                                G29G15R05
 125702146.425 5  97768351.652 6  23482220.070    23482218.363    23482222.633
        35.400          36.300
 112175867.222 8  87409802.98546  21346359.070                    21346363.629
        50.900          40.800
 124027798.749 7  96645066.16244  23601706.273                    23601710.105
        42.300          27.200
 106279769.306 8  82815419.18047  20224368.633                    20224372.559
        48.900          43.200
 107496637.663 7  83608500.760 7  20095363.242    20095362.883    20095365.063
        43.900          44.300
 123554406.683 5  96097879.044 5  23137770.391    23137768.176    23137772.219
        34.300          31.400
 119964199.633 6  93478606.45445  22828427.508                    22828430.223
        40.700          30.400
 108567858.482 7  84441669.876 7  20302734.445    20302734.332    20302738.008
        44.000          47.100
 106571812.305 8  82889198.042 7  19901535.352    19901534.723    19901537.555
        50.200          47.400
 124858275.526 6  97292193.19443  23759742.484                    23759749.723
        37.900          22.500
 124630023.545 6  96934469.914 5  23380275.563    23380273.965    23380277.020
        38.100          35.800
 127002490.005 5  98779727.333 6  23791849.758    23791848.918    23791853.727
        35.500          37.400
 115139916.954 7  89719437.28846  21910398.195                    21910403.133
        47.900          36.800
 109185066.712 8  85079286.45747  20777228.148                    20777232.898
        50.200          42.500
 109113126.546 8  84865783.137 7  20411871.617    20411872.168    20411874.063
        50.200          46.400
 19  1 10  0  5 30.0000000  0 16R03G05G21G13R19G24R13G02R20R04G30R14
                                R18G29G15R05
 125800339.717 5  97844724.173 5  23500564.898    23500562.840    23500566.703
        35.800          35.000
 112228860.695 8  87451096.59246  21356443.000                    21356448.082
        51.100          40.800
 123945887.373 7  96581239.11944  23586118.844                    23586122.633
        42.600          27.300
 106283711.478 8  82818491.00747  20225118.930                    20225123.027
        48.900          43.000
 107580716.520 7  83673895.401 7  20111082.086    20111080.668    20111083.102
        44.300          43.600
 132014206.37515 102868259.23452  25121470.961                    25121480.180
        33.600          16.900
 123538810.146 5  96085748.408 5  23134849.766    23134846.965    23134851.000
        34.100          31.500
 120051058.588 6  93546288.73345  22844956.438                    22844958.879
        40.900          30.300
 108512971.902 7  84398980.307 7  20292470.805    20292470.809    20292474.047
        44.600          47.200
 106619556.361 8  82926332.290 7  19910451.641    19910450.543    19910453.129
        49.600          46.600
 124881466.042 6  97310263.72143  23764155.000                    23764161.969
        38.700          22.200
 124538395.198 6  96863203.441 6  23363085.703    23363084.223    23363088.059
        37.800          36.800
 127139087.237 6  98885969.575 6  23817440.461    23817437.625    23817442.867
        36.200          37.700
 115198817.449 8  89765333.75746  21921606.422                    21921611.547
        48.100          37.000
 109124241.915 8  85031890.51447  20765653.633                    20765658.219
        51.100          42.500
 109070522.817 8  84832646.895 7  20403901.922    20403902.004    20403903.699
        50.500          46.200
 19  1 10  0  6  0.0000000  0 16R03G05G21G13R19G24R13G02R20R04G30R14
                                R18G29G15R05
 125898479.857 5  97921055.305 6  23518898.156    23518896.566    23518899.957
        35.800          36.500
 112282049.436 8  87492542.35246  21366564.867                    21366569.340
        50.800          40.200
 123864105.169 7  96517512.71944  23570556.195                    23570559.945
        42.300          28.500
 106288220.531 8  82822004.56147  20225976.898                    20225980.727
        49.700          43.300
 107665441.784 7  83739792.816 7  20126919.805    20126918.621    20126920.926
        44.100          44.100
 131904835.274 5 102783034.97042  25100658.516                    25100667.496
        33.900          17.400
 123523934.485 5  96074178.440 5  23132064.203    23132062.223    23132065.129
        32.600          31.200
 120138207.401 6  93614196.86944  22861540.289                    22861542.500
        41.100          29.700
 108458813.093 7  84356856.806 7  20282342.336    20282342.340    20282346.047
        44.500          47.700
 106667578.564 8  82963682.903 7  19919419.273    19919418.527    19919421.238
        50.200          47.300
 124905187.766 6  97328748.16643  23768668.984                    23768676.617
        38.300          22.900
 124447082.044 6  96792182.141 5  23345955.344    23345953.512    23345957.867
        38.300          35.600
 127275744.237 6  98992258.177 6  23843041.102    23843038.734    23843043.582
        36.500          37.500
 115258197.667 8  89811604.03946  21932906.289                    21932910.875
        48.200          36.700
 109063882.399 8  84984857.12947  20754167.531                    20754172.230
        51.000          43.000
 109028284.841 8  84799795.139 7  20396000.500    20396000.348    20396001.914
        50.800          46.300
 19  1 10  0  6 30.0000000  0 16R03G05G21G13R19G24R13G02R20R04G30R14
                                R18G29G15R05
 125996562.280 5  97997341.664 5  23537221.281    23537218.988    23537222.914
        35.400          34.300
 112335430.037 8  87534137.62046  21376722.758                    21376727.469
        50.900          40.400
 123782451.150 7  96453886.22544  23555018.039                    23555021.977
        42.400          29.000
 106293292.759 8  82825956.95347  20226942.195                    20226946.223
        49.900          43.900
 107750807.147 7  83806188.081 7  20142878.297    20142877.230    20142879.563
        44.500          43.700
 131795350.529 5 102697722.29342  25079824.141                    25079833.137
        33.800          17.400
 123509778.049 5  96063167.944 5  23129414.125    23129411.324    23129414.621
        33.600          30.600
 120225641.769 6  93682327.52045  22878178.641                    22878180.918
        41.700          30.500
 108405382.152 7  84315299.383 7  20272350.891    20272350.895    20272353.934
        45.000          47.300
 106715874.276 8  83001246.217 7  19928438.344    19928437.246    19928439.879
        50.600          47.400
 124929437.207 6  97347643.82644  23773284.070                    23773291.020
        38.300          24.100
 124356085.634 6  96721407.164 6  23328883.922    23328883.969    23328888.086
        38.300          36.400
 127412454.315 5  99098588.191 6  23868651.477    23868649.344    23868653.910
        35.700          36.500
 115318052.051 8  89858243.80446  21944296.328                    21944300.992
        48.700          37.400
 109003986.278 8  84938184.82847  20742769.570                    20742774.078
        51.300          43.100
 108986409.151 8  84767225.175 7  20388166.289    20388165.902    20388167.660
        50.500          46.100
 19  1 10  0  7  0.0000000  0 16R03G05G21G13R19G24R13G02R20R04G30R14
                                R18G29G15R05
 126094590.298 5  98073585.614 6  23555533.125    23555532.473    23555535.430
        35.200          36.400
 112389005.671 8  87575884.85646  21386917.914                    21386922.500
        49.800          40.400
 123700931.292 6  96390364.24444  23539505.023                    23539508.836
        41.600          28.100
 106298931.052 8  82830350.42647  20228015.148                    20228019.098
        49.000          43.200
 107836812.249 7  83873080.932 7  20158955.414    20158954.582    20158956.676
        44.200          43.500
 131685758.167 5 102612325.68242  25058970.227                    25058978.102
        32.000          17.800
 123496346.042 5  96052720.816 5  23126897.492    23126895.395    23126899.016
        33.200          31.200
 120313363.434 6  93750682.03744  22894871.656                    22894873.508
        41.000          29.300
 108352685.510 7  84274313.099 7  20262496.000    20262496.355    20262499.930
        43.900          47.800
 106764444.883 8  83039023.344 7  19937508.117    19937507.254    19937509.938
        49.800          47.900
 124954217.608 6  97366953.22943  23777999.055                    23778006.730
        37.300          22.300
 124265414.101 6  96650884.887 6  23311875.219    23311873.504    23311877.582
        38.700          36.200
 127549217.899 6  99204959.729 6  23894270.891    23894269.578    23894274.402
        36.100          36.200
 115378382.038 7  89905254.17846  21955776.359                    21955781.703
        47.900          36.900
 108944558.261 8  84891877.29147  20731460.711                    20731465.641
        49.800          42.500
 108944899.123 8  84734939.592 7  20380401.234    20380400.730    20380402.594
        50.700          46.200
 19  1 10  0  7 30.0000000  0 16R03G05G21G13R19G24R13G02R20R04G30R14
                                R18G29G15R05
 126192560.523 5  98149784.623 5  23573834.727    23573834.074    23573836.738
        35.600          35.200
 112442773.621 8  87617781.94546  21397149.781                    21397154.027
        50.800          40.300
 123619544.455 6  96326945.92344  23524018.023                    23524021.238
        41.800          29.000
 106305131.909 8  82835182.27147  20229195.070                    20229198.926
        49.100          43.700
 107923453.146 7  83940468.294 7  20175152.930    20175151.395    20175153.734
        44.300          43.600
 131576058.65315 102526845.55752  25038094.828                    25038103.266
        32.200          16.300
 123483637.444 5  96042836.383 5  23124517.508    23124515.059    23124518.465
        34.000          31.700
 120401369.031 6  93819257.80544  22911618.828                    22911621.012
        41.500          29.900
 108300724.022 7  84233898.589 7  20252779.617    20252779.152    20252782.141
        44.600          46.700
 106813286.078 8  83077010.940 7  19946629.422    19946628.676    19946631.207
        49.800          47.000
 124979526.305 6  97386674.29043  23782816.172                    23782822.242
        37.000          23.500
 124175069.663 6  96580617.019 5  23294926.602    23294925.355    23294929.043
        39.500          35.200
 127686029.228 6  99311368.450 6  23919899.758    23919898.801    23919903.473
        36.300          36.100
 115439182.813 7  89952631.38846  21967346.688                    21967351.570
        47.100          36.900
 108885597.145 8  84845933.57247  20720240.859                    20720245.691
        50.200          42.400
 108903751.611 8  84702935.986 7  20372703.813    20372703.543    20372705.340
        50.600          46.000
 19  1 10  0  8  0.0000000  0 16R03G05G21G13R19G24R13G02R20R04G30R14
                                R18G29G15R05
 126290471.025 5  98225937.172 5  23592125.219    23592124.684    23592127.586
        35.000          35.600
 112496732.464 8  87659827.78546  21407417.625                    21407422.020
        49.700          40.200
 123538291.779 7  96263632.15844  23508556.641                    23508559.734
        43.300          28.400
 106311893.590 8  82840451.11447  20230481.688                    20230485.934
        50.300          43.200
 108010724.715 7  84008346.147 7  20191467.516    20191465.746    20191468.129
        44.700          44.400
 131466253.740 5 102441283.34742  25017199.141                    25017208.051
        32.600          17.400
 123471652.554 5  96033514.734 5  23122274.469    23122271.316    23122275.137
        33.000          31.400
 120489655.782 6  93888052.64944  22928418.938                    22928421.223
        41.400          29.900
 108249499.441 7  84194057.245 7  20243199.398    20243199.754    20243203.168
        44.600          47.700
 106862395.325 8  83115207.008 7  19955799.578    19955799.305    19955801.844
        49.400          47.100
 125005361.635 6  97406805.71643  23787731.867                    23787738.813
        36.700          22.600
 124085055.566 6  96510606.075 6  23278039.953    23278039.297    23278043.055
        39.000          36.700
 127822883.609 6  99417810.705 5  23945539.109    23945537.094    23945541.230
        36.300          35.700
 115500450.648 7  90000372.54046  21979005.430                    21979010.527
        47.000          36.500
 108827102.432 8  84800353.28247  20709109.742                    20709114.801
        50.100          42.600
 108862965.039 8  84671213.094 7  20365073.352    20365072.496    20365074.469
        50.400          46.200
 19  1 10  0  8 30.0000000  0 16R03G05G21G13R19G24R13G02R20R04G30R14
                                R18G29G15R05
 126388323.135 5  98302044.401 5  23610405.109    23610403.402    23610407.695
        34.400          35.600
 112550883.963 8  87702023.74946  21417722.688                    21417726.398
        50.700          40.000
 123457177.236 7  96200426.01944  23493121.086                    23493124.117
        43.500          28.300
 106319217.749 8  82846158.25347  20231875.570                    20231879.691
        49.900          43.200
 108098626.558 7  84076714.239 7  20207900.031    20207898.145    20207900.500
        44.100          43.700
 131356347.714 5 102355642.37042  24996285.250                    24996294.250
        33.400          16.300
 123460395.021 5  96024758.889 5  23120164.914    23120162.230    23120166.691
        33.000          32.200
 120578224.895 6  93957067.51044  22945272.750                    22945274.914
        41.100          29.300
 108199016.905 7  84154793.058 7  20233759.320    20233759.559    20233763.105
        44.100          47.200
 106911772.937 8  83153611.819 7  19965021.578    19965020.012    19965022.559
        49.600          47.000
 125031725.544 6  97427349.01943  23792749.141                    23792755.441
        36.700          23.200
 123995378.888 6  96440857.609 6  23261216.969    23261216.430    23261220.082
        39.500          36.000
 127959780.259 5  99524285.733 5  23971185.141    23971182.539    23971187.090
        35.900          35.600
 115562185.655 7  90048477.72146  21990753.250                    21990758.387
        47.300          36.700
 108769077.558 8  84755139.10747  20698068.141                    20698072.695
        50.500          42.900
 108822541.463 8  84639772.527 7  20357511.398    20357511.480    20357513.484
        50.200          46.700
 19  1 10  0  9  0.0000000  0 16R03G05G21G13R19G24R13G02R20R04G30R14
                                R18G29G15R05
 126486115.029 5  98378104.669 5  23628672.555    23628672.609    23628675.371
        35.700          35.900
 112605226.794 8  87744368.80346  21428063.422                    21428067.730
        50.600          40.200
 123376201.727 7  96137328.22144  23477711.375                    23477715.234
        43.400          28.600
 106327101.919 8  82852301.76647  20233375.805                    20233379.594
        49.800          43.200
 108187153.654 7  84145568.634 7  20224449.016    20224447.715    20224449.891
        44.100          44.300
 131246342.934 5 102269924.36043  24975351.578                    24975361.070
        32.600          18.300
 123449864.606 5  96016568.546 5  23118193.281    23118190.598    23118194.520
        33.200          31.000
 120667073.493 6  94026300.16244  22962180.383                    22962182.605
        41.300          29.300
 108149278.114 7  84116107.312 7  20224457.969    20224458.090    20224461.582
        44.600          47.700
 106961415.843 8  83192222.959 7  19974291.477    19974290.379    19974293.039
        49.500          47.400
 125058616.195 6  97448302.75843  23797865.781                    23797872.898
        37.300          22.900
 123906042.560 6  96371373.821 6  23244457.469    23244457.281    23244460.109
        40.100          36.600
 128096714.216 5  99630789.834 6  23996836.328    23996834.078    23996839.551
        35.700          36.200
 115624383.320 7  90096943.43046  22002588.961                    22002594.262
        47.400          36.600
 108711521.708 8  84710290.40147  20687115.422                    20687120.336
        50.200          42.900
 108782478.844 8  84608612.716 7  20350017.016    20350017.098    20350019.105
        50.200          46.600
 19  1 10  0  9 30.0000000  0 16R03G05G21G13R19G24R13G02R20R04G30R14
                                R18G29G15R05
 126583845.148 5  98454116.958 5  23646930.273    23646928.215    23646932.809
        34.600          35.300
 112659760.165 8  87786862.31946  21438440.805                    21438445.313
        50.300          39.700
 123295367.371 7  96074340.42044  23462328.984                    23462333.363
        44.200          28.800
 106335545.185 8  82858880.94047  20234982.266                    20234986.582
        49.400          43.200
 108276302.492 7  84214906.602 7  20241114.000    20241112.699    20241114.992
        44.500          43.300
 131136241.03815                  24954400.063
        32.600
 123440062.578 5  96008944.813 5  23116357.641    23116355.309    23116359.168
        32.900          31.400
 120756200.042 6  94095749.39744  22979140.336                    22979143.027
        41.300          29.100
 108100285.635 7  84078002.047 7  20215295.820    20215295.473    20215298.863
        44.400          47.100
 107011321.472 8  83231038.439 7  19983610.984    19983609.770    19983612.043
        49.300          46.300
 125086033.027 6  97469666.52543  23803082.953                    23803090.262
        36.800          22.300
 123817050.894 6  96302158.109 6  23227763.438    23227761.840    23227766.027
        39.500          36.300
 128233682.113 5  99737320.304 5  24022496.359    24022493.875    24022498.828
        34.300          35.300
 115687041.020 8  90145767.58946  22014512.781                    22014518.008
        48.200          36.400
 108654436.638 8  84665808.53547  20676252.602                    20676257.402
        51.200          42.900
 108742776.625 8  84577733.197 7  20342589.836    20342589.918    20342591.969
        50.700          46.000
 19  1 10  0 10  0.0000000  0 17R03G05G21G13R19G24R13G02R20R04G30R14
                                R21R18G29G15R05
 126681513.337 5  98530081.039 5  23665174.195    23665172.723    23665177.164
        33.900          35.200
 112714484.016 8  87829504.26746  21448854.641                    21448858.832
        49.600          39.500
 123214675.768 7  96011463.83545  23446974.539                    23446977.754
        44.300          30.200
 106344546.552 8  82865894.99947  20236695.664                    20236699.543
        50.100          43.800
 108366070.302 7  84284725.994 7  20257894.469    20257893.754    20257896.059
        44.200          44.100
 131026045.108 5 102098263.79552  24933429.633                    24933439.316
        34.500          16.900
 123430989.891 5  96001888.240 5  23114658.781    23114655.395    23114659.457
        32.500          31.600
 120845603.219 6  94165414.19644  22996153.070                    22996155.570
        41.600          27.400
 108052042.144 7  84040479.300 7  20206273.828    20206274.184    20206277.707
        44.300          47.400
 107061488.418 8  83270057.177 7  19992978.938    19992978.664    19992981.301
        49.400          46.700
 125113975.366 6  97491439.76243  23808400.336                    23808407.363
        36.500          22.300
 123728408.477 6  96233214.067 6  23211133.695    23211133.273    23211136.348
        40.500          36.600
 129242298.66416 100522003.69315  24152070.844    24152069.637    24152073.660
        36.400          34.800
 128370680.473 5  99843874.495 6  24048159.758    24048158.211    24048162.957
        34.900          36.200
 115750156.552 7  90194948.51546  22026522.750                    22026528.164
        47.800          36.700
 108597822.749 8  84621693.82047  20665479.398                    20665483.848
        51.200          42.500
 108703434.219 8  84547133.543 7  20335230.547    20335230.277    20335232.328
        50.000          46.500
 19  1 10  0 10 30.0000000  0 17R03G05G21G13R19G24R13G02R20R04G30R14
                                R21R18G29G15R05
 126779118.647 5  98605996.220 5  23683407.766    23683406.879    23683411.777
        33.900          35.800
 112769397.680 8  87872294.12046  21459304.141                    21459308.465
        49.600          39.900
 123134128.835 7  95948699.98944  23431646.727                    23431650.707
        44.300          28.900
 106354105.170 8  82873343.27447  20238514.281                    20238518.070
        50.000          42.900
 108456453.317 7  84355023.863 7  20274790.984    20274789.684    20274792.430
        43.800          43.900
 130915756.984 5 102012325.01643  24912443.523                    24912452.273
        34.600          18.300
 123422648.090 5  95995400.155 5  23113097.172    23113094.371    23113097.637
        32.900          31.500
 120935281.744 6  94235293.53144  23013218.508                    23013221.379
        41.100          28.100
 108004550.677 7  84003541.498 7  20197392.813    20197393.051    20197396.488
        43.900          47.300
 107111915.043 8  83309277.892 7  20002396.352    20002394.785    20002397.395
        49.000          46.400
 125142442.845 6  97513622.21443  23813816.922                    23813824.660
        37.100          22.300
 123640119.895 6  96164545.186 6  23194571.188    23194570.766    23194574.055
        40.500          36.100
 129115786.033 5 100423604.903 5  24128429.148    24128428.996    24128432.426
        35.900          34.600
 128507706.056 5  99950449.779 6  24073829.375    24073828.418    24073832.320
        35.800          36.300
 115813727.154 8  90244484.02946  22038620.273                    22038625.234
        48.100          36.800
 108541680.840 8  84577946.89447  20654795.719                    20654800.629
        51.300          42.600
 108664451.028 8  84516813.285 7  20327937.734    20327936.996    20327938.984
        50.500          46.600
 19  1 10  0 11  0.0000000  0 17R03G05G21G13R19G24R13G02R20R04G30R14
                                R21R18G29G15R05
 126876660.327 5  98681861.956 5  23701629.805    23701628.332    23701632.215
        33.800          35.400
 112824501.351 8  87915232.02746  21469790.273                    21469794.895
        49.900          39.500
 123053728.359 7  95886050.27044  23416346.883                    23416350.770
        44.100          29.700
 106364220.456 8  82881225.32647  20240439.297                    20240443.262
        49.800          43.400
 108547449.614 7  84425798.736 7  20291802.195    20291801.129    20291803.652
        43.700          44.100
 130805381.011 5 101926317.79342  24891439.805                    24891447.766
        34.700          17.800
 123415038.892 5  95989481.897 5  23111670.461    23111668.715    23111672.691
        33.200          31.500
 121025234.389 6  94305386.47744  23030336.219                    23030338.418
        40.600          28.900
 107957814.254 7  83967190.942 7  20188653.336    20188653.105    20188656.406
        44.700          47.400
 107162599.562 8  83348699.193 7  20011861.250    20011860.152    20011862.676
        49.600          46.900
 125171435.269 6  97536213.70344  23819334.328                    23819341.957
        37.900          24.600
 123552189.928 6  96096155.285 6  23178075.234    23178074.461    23178078.234
        39.500          36.000
 128989460.459 6 100325351.620 5  24104821.102    24104820.832    24104824.934
        36.200          34.200
 128644755.831 5 100057043.954 6  24099503.305    24099502.465    24099506.980
        35.000          37.800
 115877750.774 8  90294372.54546  22050803.828                    22050808.629
        48.800          36.600
 108486012.376 8  84534568.87247  20644202.648                    20644207.344
        51.500          42.800
 108625827.290 8  84486772.601 7  20320712.273    20320712.004    20320713.828
        50.600          46.400
 19  1 10  0 11 30.0000000  0 17R03G05G21G13R19G24R13G02R20R04G30R14
                                R21R18G29G15R05
 126974137.705 5  98757677.671 5  23719842.063    23719838.715    23719842.965
        34.600          34.600
 112879794.023 8  87958317.21746  21480311.898                    21480316.703
        49.300          39.200
 122973476.476 7  95823516.34144  23401075.711                    23401079.387
        43.700          29.800
 106374890.594 8  82889539.71747  20242469.625                    20242473.766
        49.800          43.300
 108639054.412 7  84497046.906 7  20308926.367    20308925.418    20308927.965
        44.100          44.200
 130694918.875 5 101840243.43043  24870418.906                    24870427.035
        33.900          18.300
 123408162.547 5  95984133.648 5  23110384.781    23110381.746    23110385.418
        33.700          31.400
 121115458.723 6  94375691.12544  23047504.969                    23047507.836
        40.800          26.800
 107911835.075 7  83931429.338 7  20180054.633    20180054.168    20180057.539
        44.100          47.300
 107213539.834 8  83388319.386 7  20021374.227    20021372.660    20021375.293
        49.300          46.100
 125200951.392 6  97559213.25944  23824951.188                    23824958.777
        37.900          24.400
 123464622.372 6  96028047.242 6  23161647.977    23161647.320    23161651.391
        40.500          36.000
 128863325.020 6 100227246.218 5  24081250.953    24081249.863    24081253.125
        36.500          35.100
 128781825.816 5 100163653.787 6  24125180.719    24125179.523    24125185.551
        34.600          37.500
 115942223.776 7  90344611.23346  22063072.430                    22063077.500
        47.800          36.500
 108430817.533 8  84491559.92047  20633699.328                    20633703.680
        51.200          43.100
 108587561.183 8  84457010.068 7  20313553.891    20313553.152    20313555.137
        50.500          46.200
 19  1 10  0 12  0.0000000  0 16R03G05G21G13R19G24R13G02R20R04G30R14
                                R21G29G15R05
 127071550.526 5  98833443.130 5  23738037.422    23738036.418    23738039.910
        33.000          34.300
 112935276.554 8  88001550.34946  21490869.977                    21490874.605
        49.000          38.500
 122893376.456 7  95761100.73144  23385832.859                    23385836.949
        42.500          29.700
 106386116.005 8  82898286.79247  20244605.508                    20244609.980
        49.600          43.400
 108731265.769 7  84568766.841 7  20326164.156    20326163.324    20326165.910
        43.800          43.200
 130584373.864 5 101754104.49143  24849382.008                    24849391.262
        32.800          19.000
 123402021.293 5  95979357.099 5  23109234.242    23109232.379    23109235.738
        33.100          32.600
 121205954.834 6  94446207.55244  23064725.992                    23064728.605
        40.800          27.200
 107866617.005 7  83896259.737 7  20171599.938    20171599.238    20171602.566
        44.100          47.100
 107264734.938 8  83428137.783 7  20030934.070    20030932.738    20030935.289
        49.300          46.400
 125230991.790 6  97582621.34543  23830668.180                    23830674.891
        37.800          22.800
 123377423.047 6  95960225.537 5  23145289.414    23145288.168    23145291.375
        39.800          35.000
 128737385.184 6 100129292.960 5  24057715.094    24057714.355    24057718.516
        36.000          35.700
 116007145.284 8  90395199.40446  22075426.766                    22075431.652
        49.000          36.400
 108376098.324 8  84448921.58147  20623286.258                    20623291.344
        51.400          42.900
 108549653.749 8  84427526.504 7  20306462.883    20306462.027    20306464.012
        50.000          46.600
 19  1 10  0 12 30.0000000  0 17R03G05G21G13R19G24R13G02R20R04G30R14
                                R21G20G29G15R05
 127168895.524 5  98909155.909 5  23756221.664    23756220.543    23756225.129
        34.200          35.200
 112990945.778 8  88044928.95046  21501463.367                    21501467.750
        49.400          39.600
 122813427.322 7  95698802.70445  23370619.242                    23370622.641
        43.600          30.600
 106397893.039 8  82907463.70247  20246847.047                    20246850.793
        50.000          43.800
 108824077.495 7  84640953.707 7  20343514.195    20343513.602    20343515.762
        43.600          43.600
 130473746.407 5 101667901.29143  24828332.492                    24828339.566
        32.600          19.000
 123396613.082 5  95975150.703 5  23108220.797    23108218.934    23108222.664
        33.800          32.200
 121296718.656 6  94516932.57644  23081997.656                    23082000.512
        41.100          29.100
 107822159.954 7  83861681.991 7  20163285.008    20163285.246    20163288.637
        44.800          47.500
 107316180.397 8  83468150.931 7  20040541.570    20040540.121    20040542.703
        49.800          45.900
 125261553.295 6  97606435.49444  23836483.305                    23836491.031
        37.300          25.200
 123290593.698 6  95892691.645 6  23129000.078    23129000.594    23129003.898
        41.300          36.600
 128611642.229 6 100031492.810 6  24034218.820    24034218.199    24034220.930
        37.300          36.000
 131797822.98815                  25080300.820
        32.600
 116072509.934 8  90446132.88446  22087865.133                    22087869.805
        49.300          36.200
 108321853.148 8  84406652.61747  20612964.023                    20612968.766
        52.500          43.600
 108512101.779 8  84398319.406 7  20299437.375    20299437.457    20299439.461
        50.800          46.500
 19  1 10  0 13  0.0000000  0 17R03G05G21G13R19G24R13G02R20R04G30R14
                                R21G20G29G15R05
 127266174.281 5  98984817.118 5  23774393.656    23774391.949    23774396.652
        32.900          35.500
 113046803.421 8  88088454.37746  21512092.766                    21512096.996
        49.000          40.000
 122733632.884 7  95636625.21745  23355434.281                    23355437.934
        43.000          30.600
 106410222.543 8  82917071.11647  20249193.406                    20249197.074
        50.000          43.600
 108917487.217 7  84713605.685 7  20360976.484    20360975.770    20360977.816
        43.900          43.600
 130363040.862 5 101581637.25343  24807264.414                    24807273.410
        33.200          18.300
 123391940.966 5  95971516.856 5  23107345.328    23107343.230    23107347.441
        33.600          31.000
 121387750.506 6  94587866.46544  23099320.156                    23099323.281
        40.800          27.900
 107778468.585 7  83827699.813 8  20155115.086    20155114.621    20155118.305
        44.600          48.000
 107367876.576 8  83508359.057 7  20050195.344    20050194.246    20050196.563
        49.600          46.600
 125292637.025 6  97630656.57144  23842398.078                    23842405.813
        37.500          24.300
 123204140.650 6  95825450.456 6  23112781.836    23112781.063    23112785.285
        40.500          36.400
 128486101.904 6  99933850.270 5  24010758.938    24010757.145    24010761.004
        37.100          35.500
 131709578.536 5 102630896.92752  25063508.313                    25063512.773
        31.500          16.300
 116138316.597 8  90497410.78545  22100387.586                    22100391.902
        48.400          35.800
 108268084.402 8  84364754.89747  20602732.227                    20602736.805
        51.300          43.500
 108474906.325 8  84369389.620 7  20292479.117    20292479.551    20292481.441
        50.600          46.800
 19  1 10  0 13 30.0000000  0 17R03G05G21G13R19G24R13G02R20R04G30R14
                                R21G20G29G15R05
 127363384.585 5  99060425.053 6  23792553.828    23792552.707    23792557.871
        33.200          36.200
 113102847.822 8  88132125.32346  21522757.391                    21522762.055
        49.100          39.900
 122653993.673 7  95574568.70045  23340279.852                    23340283.496
        42.900          31.300
 106423102.243 8  82927107.24147  20251643.898                    20251648.113
        50.600          43.700
 109011491.167 7  84786719.852 7  20378549.602    20378549.008    20378551.051
        43.800          43.700
 130252259.312 5 101495313.98843  24786183.898                    24786192.617
        31.900          19.300
 123388005.028 5  95968455.551 5  23106609.945    23106607.145    23106610.387
        34.000          32.200
 121479047.864 6  94659007.22744  23116694.180                    23116696.512
        41.100          28.500
 107735544.102 7  83794314.111 7  20147087.773    20147087.660    20147091.125
        45.000          47.300
 107419820.413 8  83548759.811 7  20059896.000    20059893.965    20059896.551
        50.000          46.800
 125324241.126 6  97655283.13644  23848413.273                    23848419.828
        37.900          24.100
 123118067.080 6  95758504.378 5  23096635.313    23096634.422    23096637.074
        41.300          35.800
 128360767.085 6  99836367.591 6  23987336.023    23987335.051    23987338.809
        36.500          36.000
 131621322.531 5 102562125.91842  25046715.375                    25046718.594
        33.600          15.600
 116204561.311 8  90549030.02246  22112993.664                    22112998.250
        48.300          36.200
 108214791.898 8  84323228.27847  20592590.586                    20592595.371
        51.900          43.600
 108438065.924 8  84340735.979 7  20285587.484    20285587.801    20285589.738
        50.700          46.500
 19  1 10  0 14  0.0000000  0 17R03G05G21G13R19G24R13G02R20R04G30R14
                                R21G20G29G15R05
 127460527.211 5  99135980.382 5  23810701.539    23810700.535    23810704.918
        33.900          35.800
 113159080.825 8  88175943.23546  21533458.281                    21533462.895
        49.200          39.100
 122574513.834 7  95512636.35444  23325155.969                    23325158.949
        43.600          29.900
 106436532.762 8  82937572.58947  20254199.891                    20254203.984
        50.300          43.700
 109106087.424 7  84860294.716 7  20396234.016    20396232.949    20396234.973
        44.700          42.900
 130141405.77115 101408934.63752  24765087.578                    24765097.516
        31.000          17.800
 123384807.885 5  95965968.877 5  23106011.063    23106008.379    23106012.031
        34.300          31.200
 121570610.996 6  94730355.10144  23134118.047                    23134120.367
        41.400          28.300
 107693390.799 7  83761528.186 7  20139204.914    20139205.152    20139208.473
        44.600          47.700
 107472012.110 8  83589353.348 7  20069642.445    20069640.879    20069643.535
        49.600          47.000
 125356366.904 6  97680316.20744  23854526.125                    23854532.918
        38.400          25.200
 123032379.301 6  95691858.346 6  23080561.195    23080559.480    23080562.957
        41.900          36.300
 128235643.809 5  99739049.426 5  23963952.844    23963951.871    23963956.574
        35.100          35.400
 131533057.691 5 102493348.18442  25029917.141                    25029922.355
        31.800          14.800
 116271243.851 8  90600990.42646  22125682.695                    22125687.324
        48.900          36.100
 108161978.294 8  84282074.83347  20582540.805                    20582545.570
        52.300          43.600
 108401581.675 8  84312359.331 7  20278762.508    20278762.473    20278764.367
        51.400          47.200
 19  1 10  0 14 30.0000000  0 17R03G05G21G13R19G24R13G02R20R04G30R14
                                R21G20G29G15R05
 127557600.215 5  99211481.563 5  23828834.281    23828834.219    23828838.785
        34.200          35.300
 113215499.974 8  88219906.20046  21544194.727                    21544199.176
        49.300          40.000
 122495193.800 7  95450828.53645  23310061.188                    23310064.914
        43.100          31.300
 106450511.416 8  82948465.04747  20256859.875                    20256863.867
        49.700          43.900
 109201271.249 7  84934326.552 7  20414027.148    20414026.316    20414028.207
        44.600          43.100
 130030480.95815 101322499.80752  24743980.164                    24743989.043
        31.900          16.900
 123382348.212 5  95964055.833 5  23105550.117    23105547.668    23105551.512
        33.400          32.000
 121662436.419 6  94801907.34944  23151591.469                    23151594.652
        40.900          28.300
 107652009.475 7  83729342.711 7  20131466.352    20131466.473    20131469.844
        44.500          47.900
 107524447.734 8  83630136.599 7  20079433.539    20079432.910    20079435.434
        50.300          46.500
 125389011.762 6  97705753.75244  23860737.680                    23860745.223
        38.200          24.700
 122947080.214 7  95625514.653 6  23064557.453    23064557.266    23064560.945
        42.000          36.600
 128110734.316 6  99641897.556 5  23940612.195    23940610.637    23940613.828
        36.400          35.200
 131444782.17415 102424561.93552  25013120.508                    25013123.469
        33.100          15.600
 116338359.481 8  90653288.30946  22138454.414                    22138459.191
        48.400          36.300
 108109642.662 8  84241293.83447  20572581.672                    20572586.492
        52.400          44.500
 108365451.263 8  84284257.901 7  20272003.539    20272003.387    20272005.434
        50.700          46.800
 19  1 10  0 15  0.0000000  0 17R03G05G21G13R19G24R13G02R20R04G30R14
                                R21G20G29G15R05
 127654602.725 5  99286927.873 5  23846956.281    23846954.809    23846959.738
        32.500          35.600
 113272105.083 8  88264014.06746  21554966.273                    21554970.613
        49.100          39.800
 122416035.446 7  95389146.69945  23294997.383                    23295001.527
        42.900          30.400
 106465037.001 8  82959783.69047  20259623.672                    20259627.820
        50.500          43.700
 109297039.398 7  85008812.874 7  20431930.148    20431929.555    20431931.848
        44.200          43.500
 129919487.90615                  24722859.031
        33.100
 123380627.025 5  95962717.110 5  23105228.453    23105225.418    23105229.023
        34.300          31.900
 121754522.450 6  94873662.67144  23169115.313                    23169117.902
        40.900          27.800
 107611402.808 7  83697759.721 8  20123871.945    20123872.066    20123875.438
        44.100          48.100
 107577125.499 8  83671108.194 7  20089271.031    20089269.934    20089272.555
        50.000          46.700
 125422174.923 6  97731595.15744  23867048.461                    23867056.063
        38.400          24.900
 122862173.758 7  95559476.316 6  23048630.063    23048629.289    23048632.582
        42.300          36.400
 127986042.508 6  99544914.974 6  23917310.398    23917309.777    23917312.176
        36.900          36.100
 131356496.472 5 102355767.91942  24996319.141                    24996323.625
        30.800          16.300
 116405905.217 8  90705921.32145  22151308.398                    22151312.781
        48.300          35.500
 108057785.776 8  84200885.88147  20562713.367                    20562718.375
        52.600          43.700
 108329674.097 8  84256431.242 7  20265311.070    20265310.801    20265312.582
        51.000          46.900
 19  1 10  0 15 30.0000000  0 17R03G05G21G13R19G24R13G02R20R04G30R14
                                R21G20G29G15R05
 127751534.334 5  99362319.095 5  23865064.422    23865063.184    23865066.266
        34.400          34.000
 113328896.024 8  88308266.73346  21565773.383                    21565777.684
        49.000          39.200
 122337040.615 6  95327592.29745  23279965.445                    23279969.410
        41.800          30.400
 106480108.519 8  82971527.72647  20262491.820                    20262496.340
        50.500          43.500
 109393388.106 7  85083750.756 7  20449941.859    20449940.676    20449943.281
        43.700          43.500
 129808429.84115 101149473.02052  24701726.438                    24701734.863
        33.500          17.400
